timestamp,simulation_time,position_x,position_y,position_z,velocity_x,velocity_y,velocity_z,attitude_roll,attitude_pitch,attitude_yaw,angular_velocity_x,angular_velocity_y,angular_velocity_z,acceleration_x,acceleration_y,acceleration_z,motor_speed_1,motor_speed_2,motor_speed_3,motor_speed_4,control_throttle,control_roll,control_pitch,control_yaw,estimated_position_x,estimated_position_y,estimated_position_z,estimated_velocity_x,estimated_velocity_y,estimated_velocity_z,estimated_attitude_roll,estimated_attitude_pitch,estimated_attitude_yaw,sensor_accel_x,sensor_accel_y,sensor_accel_z,sensor_gyro_x,sensor_gyro_y,sensor_gyro_z,sensor_gps_x,sensor_gps_y,sensor_gps_z,sensor_gps_vx,sensor_gps_vy,sensor_gps_vz,sensor_baro_altitude,sensor_mag_x,sensor_mag_y,sensor_mag_z,flight_mode,battery_level,gps_fix,waypoint_index,mission_complete,setpoint_altitude,setpoint_position_x,setpoint_position_y,setpoint_position_z,position_error,attitude_error
1760897724.959599,0.10971355438232422,-0.04136589748820646,2.9044813576621267,-1.2491759391301198,35.97888138548097,92.64730160334773,1.6400072207935414,0.6250751782665167,-0.4871335220345807,0.16035328439679536,,,,,,,,,,,0.62,-0.3,-0.3,-0.00048772946483857904,1.2007436683254757,1.464873544016616,-0.23625908557755232,22.161600797815122,16.91745005748824,-2.5996146747592306,2.3566286886077688,0.7579481834644262,0.014841773661167589,,,,,,,,,,,,,,,,,auto,85.0,True,0,False,-10.0,15.0,0.0,-10.0,16.967497353799295,2.4755614520814477
1760897725.0663912,0.216505765914917,3.6466428519333265,10.384534804229478,-2.4288880595255367,20.409890249103576,50.104089205611,-26.901806189476325,-2.911234272373943,0.737831434460097,-0.5779287303845717,,,,,,,,,,,0.62,0.3,0.3,0.2,1.1841568300511514,2.384092283430256,0.029347450566703626,-24.114270352075216,13.529465921401632,-60.53063663838081,-0.25333797758753285,-1.1168609085704988,-0.4768277129617758,,,,,,,,,,,,,,,,,auto,85.0,True,0,False,-10.0,15.0,0.0,-10.0,17.238016962421252,1.2405333884379812
1760897725.1758323,0.3259468078613281,6.399420604911966,16.01501876688696,-3.91174348646655,48.008181881242564,39.849486035357046,-26.75039800779021,2.4872548681079336,-1.501594242454204,0.7095775840680004,,,,,,,,,,,0.62,0.3,-0.3,-0.2,1.654223709998515,4.177407637268778,-0.0835292796980982,-15.480241680678091,-14.144182857270737,-51.183732237143396,-2.944439572637235,2.776897123561795,0.8706672699475937,,,,,,,,,,,,,,,,,auto,85.0,True,0,False,-10.0,15.0,0.0,-10.0,17.143420630005036,4.1399207150277535
1760897725.2828338,0.43294835090637207,9.938634867453057,23.77773874221706,-5.215870393578676,75.6906814173459,86.1293741266633,-2.193659853608275,0.6343933075921302,-2.2265048950402404,-0.7669465665669155,,,,,,,,,,,0.62,0.3,0.3,0.2,3.787886911406059,11.083340375300695,2.278878023310096,-1.4604669544153976,47.15298176446343,-33.705189481761224,-0.09431084622795664,-2.4442088749752324,-0.827538646277739,,,,,,,,,,,,,,,,,auto,85.0,True,0,False,-10.0,15.0,0.0,-10.0,19.983061809880834,2.582222254436499
1760897725.3914893,0.5416038036346436,16.35538318183448,29.133161454829338,-5.230159426198919,50.68489850628606,26.91922218298971,18.792860264522297,-2.327968117632287,-0.502065390593994,0.9615434433006199,,,,,,,,,,,0.62,-0.3,-0.3,-0.2,1.2756628225822175,16.00153297099166,4.341681992958563,-24.153638002470665,35.59557659600964,-10.919222048420178,2.993239427623395,0.8792129108913195,1.0652920494717482,,,,,,,,,,,,,,,,,auto,85.0,True,0,False,-10.0,15.0,0.0,-10.0,25.496869038537596,3.296565601413831
1760897725.5004706,0.6505851745605469,20.69696989997462,30.698715022427265,-2.860832048409741,20.06046044564009,23.86897203354597,2.8457608988962644,-1.9578296174305383,-1.9013621525988258,-1.377079055199904,,,,,,,,,,,0.62,0.3,0.3,0.2,0.7172584743603629,18.963182724209965,3.354907890249443,15.781603596728333,12.943467628070316,-11.171085620525622,-1.6641393527765738,-2.3522390899148293,-1.3253666542849385,,,,,,,,,,,,,,,,,auto,85.0,True,0,False,-10.0,15.0,0.0,-10.0,27.238806311530116,3.1715903408027697
1760897725.6088953,0.759009838104248,22.078603854305353,33.09958257304501,-2.2822413656886518,-3.585975680672056,20.694567534444896,2.458713963683201,-2.83475711183967,-2.287494032828261,1.405269873788464,,,,,,,,,,,0.62,-0.3,0.3,-0.2,8.793766627879052,24.253253358417368,0.3920901929795223,31.900259719367575,24.710507852378292,-51.976458601167955,2.416156531969404,-2.3075538193948835,1.1172463620405382,,,,,,,,,,,,,,,,,auto,85.0,True,0,False,-10.0,15.0,0.0,-10.0,27.105961885087797,3.5229045473692793
1760897725.7173626,0.8674771785736084,22.900031714447596,35.347311525193575,-1.362200465091276,6.9671993856841885,20.496367140863093,22.33527095471885,-1.4412697564956047,0.6825787356560892,-0.5710315762280256,,,,,,,,,,,0.62,0.3,0.1791970073012287,0.088113411823618,17.966029311506826,30.482809569021214,-1.9127694240877129,12.405336530419284,28.830546046568724,-53.60408187239361,-1.5321980798387647,-0.5461553789427297,-0.11969786732059957,,,,,,,,,,,,,,,,,auto,85.0,True,0,False,-10.0,15.0,0.0,-10.0,31.67652612717972,1.6310255158184295
1760897725.8265367,0.9766511917114258,21.946987423695358,40.632329052237644,-1.4743206950211023,-11.061702114807243,58.69791686166628,-5.5970443071023706,1.7229256982634438,-1.3203680087790535,-1.6625019171452895,,,,,,,,,,,0.62,0.3,0.3,0.2,19.141105432106635,37.888602721651104,-1.4795877028159623,-31.86934532995791,75.90846350773738,-57.05474344210769,0.05924362295200178,-1.2938465412629212,-1.877428540015181,,,,,,,,,,,,,,,,,auto,85.0,True,0,False,-10.0,15.0,0.0,-10.0,39.05499194869889,2.280852165762182
1760897725.934983,1.0850975513458252,24.13101688573407,44.93255768594985,-0.43766861057769424,23.81414247485647,16.146330248404546,22.754871809697185,-0.38773378871109254,-2.53339046645319,2.766711242749094,,,,,,,,,,,0.62,-0.3,0.3,-0.2,15.833929004505727,47.94775439986446,-1.3251423521339496,-43.363401398087085,90.71308953429539,-48.13237118846461,2.9426546959409636,-0.1323832214589356,2.3871222801978056,,,,,,,,,,,,,,,,,auto,85.0,True,0,False,-10.0,15.0,0.0,-10.0,48.733312474990015,3.7914502182521166
1760897726.0424402,1.1925547122955322,26.895993309236378,42.7986000609809,4.491979762748579,1.0058902497624906,-48.485708426944896,54.68309309293043,-2.237672349254302,1.1132559868985004,0.8841456100464944,,,,,,,,,,,0.62,-0.3,0.3,-0.2,11.199792433788971,57.50427699806104,-5.273579922324476,-43.57951164934781,70.22389183895953,-66.26281239588742,1.0680860621300587,-2.970923584082881,1.362873091104653,,,,,,,,,,,,,,,,,auto,85.0,True,0,False,-10.0,15.0,0.0,-10.0,57.82320033833023,3.438694205804511
1760897726.1492164,1.2993309497833252,24.81840909633542,38.95279851389558,10.240889321088087,-38.84935096370937,-39.40350617285852,39.427340256717734,0.6190308421136956,-0.22506422431289314,2.3859941588142615,,,,,,,,,,,0.42000000000000004,0.3,-0.3,-0.2,8.232710754915054,67.3574142759886,-10.9813063657511,-27.05851069209904,105.5486547412061,-80.48701697594852,-2.659812712517449,1.8113693374800044,2.7047775985983655,,,,,,,,,,,,,,,,,auto,85.0,True,0,False,-10.0,15.0,0.0,-10.0,67.70362194046386,4.203746471935686
1760897726.256198,1.4063124656677246,20.654161426539194,36.40669978723269,13.855053637001213,-50.6459562457454,-21.318680987052943,36.2042784171384,1.707217144234043,-1.019489844605109,3.1123154212892272,,,,,,,,,,,0.42000000000000004,0.3,-0.3,0.2,11.714909719060554,58.32846752894031,-12.753530088504187,-35.30744843601972,54.68836946720236,-4.8184153933830745,-3.0862638556911586,1.2334842750463602,-2.7808916369559835,,,,,,,,,,,,,,,,,auto,85.0,True,0,False,-10.0,15.0,0.0,-10.0,58.48575784220347,4.333574314607289
1760897726.363379,1.513493537902832,18.135385543264533,36.151594399856926,15.940617610270975,-27.77752416863535,0.1651412924600324,8.872188717452412,2.9151525370074336,1.6192794959941414,-1.6297461199246426,,,,,,,,,,,0.42000000000000004,-0.3,0.3,0.2,12.160089926982488,50.622269065325604,-13.31947898098539,-46.41969837192786,47.080359038776095,-2.106212997642255,2.1646138754046373,0.0895637421419602,-1.001451185633752,,,,,,,,,,,,,,,,,auto,85.0,True,0,False,-10.0,15.0,0.0,-10.0,50.810413846476905,2.386729848706804
1760897726.472874,1.6229884624481201,15.453113374586067,36.55330237639964,17.49211935859877,-16.722757675298652,27.522860283595044,23.583982005635107,-2.79102749939489,1.4751731500255305,1.4097368240450514,,,,,,,,,,,0.42000000000000004,0.3,0.3,-0.2,7.5397410040208275,52.99581728030423,-15.124302314438713,-49.06291367781586,59.73513443980327,28.693305249772777,-2.4426339874327394,-3.027339732675506,1.9008730871819142,,,,,,,,,,,,,,,,,auto,85.0,True,0,False,-10.0,15.0,0.0,-10.0,53.763096894656684,4.3294994106905555
1760897726.57949,1.7296044826507568,14.509026931572956,38.27394037583658,20.456205299079542,-9.008877570519894,28.765017372484458,41.661777975516436,-1.705343204417783,1.346444062210469,2.8378146030509717,,,,,,,,,,,0.42000000000000004,0.3,-0.3,-0.2,4.373255322503052,58.289047840099464,-16.682426156097172,-29.884717473093108,47.07978268933988,47.4995714472547,-0.40081625996850345,1.3431736689905478,3.005569343450659,,,,,,,,,,,,,,,,,auto,85.0,True,0,False,-10.0,15.0,0.0,-10.0,59.62546117119603,3.316355870170615
1760897726.688882,1.8389966487884521,14.366638421384787,41.49687161173984,26.402625426440387,-1.0787433478530941,23.510782550334245,48.42772671751885,-1.7865736204154405,-2.1250537224380808,-2.8534616637526424,,,,,,,,,,,0.42000000000000004,0.3,0.08795418172997749,0.2,2.635610253599576,58.092490859660046,-21.195142772856084,-45.9575079163461,52.590193463323466,22.906025339064634,0.010265276307291942,0.25064496198191677,-2.4492973163044898,,,,,,,,,,,,,,,,,auto,85.0,True,0,False,-10.0,15.0,0.0,-10.0,60.43961324979843,2.4621099927746846
1760897726.7951057,1.9452202320098877,11.957583969146741,42.346392196057444,31.26774935492163,-47.261790345870565,1.938863256247731,46.19719115285028,-0.5693692848145439,1.5452026907581318,-2.442413374377629,,,,,,,,,,,0.42000000000000004,-0.3,0.3,0.2,-2.6283026000039578,63.052789744921526,-26.01882227613279,-48.68403546031042,39.33554988176671,68.18973060042012,3.1321291471571135,-3.0255352367494606,-1.9844358985617843,,,,,,,,,,,,,,,,,auto,85.0,True,0,False,-10.0,15.0,0.0,-10.0,67.40188435265675,4.785612008801432
1760897726.9025877,2.0527021884918213,6.9295204587204715,43.99472113566162,33.26545402418029,-46.59772546254239,17.594739322384516,8.039320580241142,2.623780022601855,1.0908621076785452,-1.7479057329923728,,,,,,,,,,,0.42000000000000004,-0.14009187963201541,-0.3,0.2,-7.494291359680488,68.72057230149255,-30.030937267836702,-32.97655006227086,71.4209001244948,36.27748736044849,0.4762839828873121,2.7621639292726865,-1.0788594990891183,,,,,,,,,,,,,,,,,auto,85.0,True,0,False,-10.0,15.0,0.0,-10.0,75.03165098174817,3.003387058523252
1760897727.0093706,2.159485101699829,3.684691109979696,44.7129177612162,35.96215320753084,-11.287280010141156,20.86148280557275,42.57763565200057,0.11547617046093092,-1.1790228548077062,-0.3163017500516566,,,,,,,,,,,0.42000000000000004,0.3,-0.3,-0.2,-3.2219424940565022,59.53298274767551,-32.1370099374788,-47.809696701738794,24.37333148883218,24.994865738805203,-0.776856029667249,1.3696252743940562,0.37255027606843094,,,,,,,,,,,,,,,,,auto,85.0,True,0,False,-10.0,15.0,0.0,-10.0,66.07769996045388,1.618076756921012
1760897727.117557,2.267671585083008,3.182059627138879,45.35466290567386,40.81584353085888,-15.846209996553853,-12.907925030996566,56.30182085568322,-1.3117739008315383,-0.15226965712248033,1.4830975086236629,,,,,,,,,,,0.42000000000000004,-0.3,0.3,-0.2,-6.969418843061285,62.74092678467999,-37.95152618081457,-27.020618985628822,21.440616008040095,-5.351250727430928,1.0639256229108982,-2.044895960155357,2.026963194445892,,,,,,,,,,,,,,,,,auto,85.0,True,0,False,-10.0,15.0,0.0,-10.0,72.11357066419048,3.069546710930514
1760897727.224864,2.374978542327881,1.6374276950567597,43.45622722147768,45.8104281372398,-4.6354460009619185,-28.282162943777404,41.98741582020307,1.7227505618896588,-1.745752703354497,1.80631256207343,,,,,,,,,,,0.42000000000000004,0.3,0.3,-0.2,-9.7419650481553,66.18142947472464,-43.41468471623421,-23.884537016382193,51.85394245111511,-12.393576304264776,-2.751110742073503,-0.711737246320573,2.3923501140688934,,,,,,,,,,,,,,,,,auto,85.0,True,0,False,-10.0,15.0,0.0,-10.0,78.1580936080674,3.714635822155068
1760897727.33253,2.482644557952881,0.5129434550498416,39.69139562347839,51.283978050716684,-42.22053487057704,-53.99139537868277,52.44569397919775,1.9667931237485203,0.9623725175400484,2.1726128121508097,,,,,,,,,,,0.42000000000000004,-0.3,0.3,-0.2,-3.5338008510410255,51.23531841203991,-40.99168094872678,-25.77748785530067,-0.35126503172537005,44.64174560989458,0.6199263974846048,-0.14029136791660873,2.638423705153937,,,,,,,,,,,,,,,,,auto,85.0,True,0,False,-10.0,15.0,0.0,-10.0,62.682086075663115,2.7139031033049767
1760897727.4393315,2.5894460678100586,-4.02863019751883,33.99195688705819,54.43292825094137,-13.890652857529183,-66.620235018392,17.818982476931264,-0.886688720350916,1.5657329900526824,2.2571357965082774,,,,,,,,,,,0.42000000000000004,-0.3,0.3,-0.2,-4.438372094637159,48.37163571738955,-49.153994427867154,-2.857820345751562,10.368304172054986,44.82389589792487,2.821316920705664,-1.8169767507091217,2.737812529084023,,,,,,,,,,,,,,,,,auto,85.0,True,0,False,-10.0,15.0,0.0,-10.0,65.19739819442842,4.330918046336945
1760897727.546157,2.6962714195251465,-5.459949096605673,28.843226434149702,56.213836828340575,-4.751954788059368,-23.509888678804984,-3.0693942716048994,-3.0406751868186683,2.802975761510241,2.981530916578891,,,,,,,,,,,0.42000000000000004,0.3,0.3,0.2,-5.798004667040295,44.40026041147128,-50.3655910812094,-19.056072438741463,-5.433936918118418,70.82223418855651,-1.7069674282062237,-2.731247620595293,-2.9544696374736024,,,,,,,,,,,,,,,,,auto,85.0,True,0,False,-10.0,15.0,0.0,-10.0,63.508433031150325,4.370622633529211
1760897727.653589,2.803703546524048,-8.356127464688148,25.062911169140747,55.73482666440847,-41.48861294526547,-44.72963015230778,5.9464326465909085,-1.4423524398642629,0.07860479750134401,-2.823189915809815,,,,,,,,,,,0.42000000000000004,-0.3,-0.3,0.2,-9.123978277062132,36.49307798000744,-49.18616611872403,-36.7396883177879,-16.003263289685787,53.837255519266044,2.1823986944226794,0.9899384001939133,-2.287302024291503,,,,,,,,,,,,,,,,,auto,85.0,True,0,False,-10.0,15.0,0.0,-10.0,58.73045788559208,3.312792273584975
1760897727.7615097,2.9116241931915283,-11.907470471910013,22.08420224813504,57.51651672104831,-23.208396567210002,-33.45747425041017,29.505427826586757,-0.481352540287173,0.41615211158307525,-3.0934901466983615,,,,,,,,,,,0.42000000000000004,-0.3,-0.3,0.2,-12.521517655846113,33.649814775269206,-51.34356162351452,-23.090801234616897,13.373887987230296,21.000600152569067,0.8117657016898889,2.06095259532365,-2.4463659534976063,,,,,,,,,,,,,,,,,auto,85.0,True,0,False,-10.0,15.0,0.0,-10.0,59.9919499283722,3.3001811363989733
1760897727.8692288,3.019343376159668,-12.775706163549556,18.73432629472035,58.82922974035541,7.656685337040695,-46.926729614419386,3.8287733754193405,2.39662168038218,-0.4657556558652364,2.895725674089143,,,,,,,,,,,0.42000000000000004,0.3,-0.3,0.2,-14.26991933989431,38.59065551164015,-57.28972053263781,-10.525597380121853,54.272903274018795,-13.623076332793708,-2.235252084452651,1.520036299630683,-2.8305500142608935,,,,,,,,,,,,,,,,,auto,85.0,True,0,False,-10.0,15.0,0.0,-10.0,67.69257373624515,3.9139335222352982
1760897727.9765193,3.126633882522583,-11.344407758012752,13.233252989010857,61.11980222110243,26.462316122195162,-59.16881931220246,22.595717861688147,-0.5225560685992614,-1.875795567935518,2.028023817529736,,,,,,,,,,,0.42000000000000004,0.3,-0.3,-0.2,-12.810967337562946,26.320763119994442,-52.56059135900229,-0.9770993346251124,-8.185568964104897,-9.736369878233083,-2.64977479321568,0.9670165428738832,2.6975720625834945,,,,,,,,,,,,,,,,,auto,85.0,True,0,False,-10.0,15.0,0.0,-10.0,57.250645518612565,3.902988916431089
1760897728.0844018,3.2345163822174072,-11.933920816296768,6.662277158633967,62.829470528181126,-34.37034841954409,-51.520097775926416,22.611083388704866,2.530098113243974,0.5647161192399868,0.9830522314986545,,,,,,,,,,,0.42000000000000004,-0.3,0.3,-0.2,-12.648337416521159,21.755372577434937,-59.51459549556866,-6.926941294103588,-19.370567742300366,-18.98673876166837,0.8303698875387977,-2.775852977364227,1.6975046992646379,,,,,,,,,,,,,,,,,auto,85.0,True,0,False,-10.0,15.0,0.0,-10.0,60.74061215505323,3.3580345599916877
1760897728.1913435,3.3414580821990967,-13.116858609923247,2.767701561605986,64.6783943357806,-15.826902939342462,-24.140461788372566,9.936737590068114,2.7187078311275363,1.0590263893903322,-0.16441149348126372,,,,,,,,,,,0.42000000000000004,0.3,-0.3,-0.2,-12.154566090136376,15.233676117899172,-62.764503511840346,15.876004029558135,7.991244684048956,-32.53415586617201,-2.697388580905296,0.640955758120747,0.5433423508853615,,,,,,,,,,,,,,,,,auto,85.0,True,0,False,-10.0,15.0,0.0,-10.0,61.26604425340066,2.8252345655771767
1760897728.2997394,3.4498538970947266,-14.869642353252722,1.2209414673403909,65.62057792220895,-25.965228927300423,-23.97070408234918,8.039012431384505,-1.6486637311054964,-0.4079573718016954,-0.2695296426677214,,,,,,,,,,,0.42000000000000004,-0.3,-0.04524813371531814,-0.2,-10.09958697311564,14.84091118895595,-64.06390033670084,18.921324082174664,35.68027034675358,3.371165572050656,2.8913801363786518,-0.41987990421510557,0.5149500569298193,,,,,,,,,,,,,,,,,auto,85.0,True,0,False,-10.0,15.0,0.0,-10.0,61.42594916447116,2.9667409371464744
1760897728.4079497,3.5580642223358154,-19.055340406248565,-0.9628821840170322,65.88320663372903,-43.98061840631197,-20.021789722451395,-20.108753303734822,2.0620519814196148,1.3701362448783794,-1.037658644496826,,,,,,,,,,,0.42000000000000004,-0.3,0.3,0.19806609623291863,-8.574018247684744,17.676377647910137,-65.68313150042115,30.47872143285159,9.715082662830646,17.627679509694083,1.809854551420636,-0.8243689892967169,-0.32364998658527694,,,,,,,,,,,,,,,,,auto,85.0,True,0,False,-10.0,15.0,0.0,-10.0,62.99841106557296,2.0149211005964305
1760897728.5168521,3.666966676712036,-23.762702171307026,-0.8821466720879317,62.63888099705293,-54.29075312106656,17.27109612793175,-34.52500395044679,-2.4952001520081013,-0.9281686622284103,-0.9159526999218337,,,,,,,,,,,0.42000000000000004,0.3,0.3,0.09649311595576598,-12.269024905129085,13.34813717542996,-59.36142972715464,-5.727309867173597,7.355835269491038,2.9309207305522804,-0.13636631786034095,-2.47517456311988,-0.15082804513758022,,,,,,,,,,,,,,,,,auto,85.0,True,0,False,-10.0,15.0,0.0,-10.0,57.95104166483526,2.483512429959331
1760897728.6231785,3.7732930183410645,-28.77008004167509,0.8059852958087609,60.222244410134806,-24.54631615749734,36.960111787374885,-17.839675918061896,-0.3464448608194571,0.17779570424577185,-1.4081902864675881,,,,,,,,,,,0.42000000000000004,-0.3,-0.10819897942190006,0.2,-11.13398587404164,14.227721158113145,-60.34329170913202,9.123042799737817,5.228045847255208,12.981220478925886,1.8682395967451668,-0.320112342102578,-0.5150279328664537,,,,,,,,,,,,,,,,,auto,85.0,True,0,False,-10.0,15.0,0.0,-10.0,58.47957153680582,1.9641906409627437
1760897728.7303908,3.880505323410034,-31.268669080475053,3.1494244973997993,57.547897699153815,-16.005849782831795,6.352214898566887,-7.479537797736516,0.7305929659497516,0.5273599496924559,-2.509493914095017,,,,,,,,,,,0.42000000000000004,-0.3,0.3,0.2,-10.62422498581565,15.26507066587706,-58.25638819166356,-8.313085263685425,21.130341517884418,10.0592688618734,1.5520027070748252,0.021823404094176328,-1.7338115688793696,,,,,,,,,,,,,,,,,auto,85.0,True,0,False,-10.0,15.0,0.0,-10.0,56.73008275917149,2.3270778285467344
1760897728.8380694,3.9881839752197266,-32.96849537803486,5.063585395578497,56.39500060053083,-15.808596332699375,37.48730922154161,-12.560163957512934,2.071128728971187,0.9800049137403346,2.8974539540227258,,,,,,,,,,,0.42000000000000004,0.3,0.3,0.2,-20.22602995947503,9.967741252021606,-56.80664319570996,-25.831990049052845,-19.338910206060113,-29.69921883756691,-0.8020421269678433,-0.7839973376538699,-2.6751318092164325,,,,,,,,,,,,,,,,,auto,85.0,True,0,False,-10.0,15.0,0.0,-10.0,59.4229829243163,2.900733285836711
1760897728.9456792,4.095793724060059,-34.08826822943308,8.510716336450315,54.82239673415954,14.1182944624083,40.69073080278587,-14.142549890259348,-2.459486443422597,0.592184438007837,1.4041453340423686,,,,,,,,,,,0.42000000000000004,0.3,0.3,-0.2,-26.562174877404956,7.333555945716391,-55.02699695676885,-26.807386284713314,-5.26555837447858,-43.33981904735912,-2.265691127408695,-1.1688080334639226,2.157366857798044,,,,,,,,,,,,,,,,,auto,85.0,True,0,False,-10.0,15.0,0.0,-10.0,61.71406548181553,3.3397155961299596
1760897729.0524614,4.202575922012329,-33.80875400263709,13.05485588236493,54.0033068167974,-14.17654908276964,38.10274637287101,-6.472553994435442,0.07793490939050243,2.692738039625843,-0.7804561901076933,,,,,,,,,,,0.42000000000000004,-0.3,0.3,0.003051105505005232,-31.46232374552108,10.17186944098517,-50.91067941419837,-27.20987131816433,11.23746363623893,-49.395051288020134,2.9926089927760517,-2.9804614519135857,0.01680546264859454,,,,,,,,,,,,,,,,,auto,85.0,True,0,False,-10.0,15.0,0.0,-10.0,62.73673681256759,4.223640784153142
1760897729.1613216,4.311436176300049,-35.55047079174278,16.306510868488402,53.375913957762016,-7.393771880442608,31.55030258180447,8.145898222684627,-1.5975522568078986,-0.6134845512134702,-2.017216230203871,,,,,,,,,,,0.42000000000000004,-0.3,0.13799479287752217,0.2,-34.946918811714724,10.25982416989949,-54.599901537045966,-35.224188666138716,-10.251758666714935,-35.14868371541529,1.5797372704603938,0.23336392287093294,-1.2485555462377123,,,,,,,,,,,,,,,,,auto,85.0,True,0,False,-10.0,15.0,0.0,-10.0,67.74296943517808,2.02704699408285
1760897729.2688344,4.4189488887786865,-36.95721015329806,19.357627087298294,53.20375334719593,-22.570981873204953,18.15805400170057,-6.056634931521653,0.9111233019145759,2.1063255254633675,3.0667495886287566,,,,,,,,,,,0.42000000000000004,-0.3,-0.3,0.2,-38.58663546486102,10.48780941423427,-54.38367260965665,-32.662685070220235,8.0091823366178,-4.867606096430148,2.9186567476140413,1.2614336800412174,-2.3532683070671454,,,,,,,,,,,,,,,,,auto,85.0,True,0,False,-10.0,15.0,0.0,-10.0,70.36641273416166,3.955710285723914
1760897729.37666,4.526774644851685,-39.096090197628484,20.19088479018888,53.26155394938598,-20.008392777984835,-17.805232808236156,-7.029028094660875,-0.8249297381912237,-1.7417677726435963,1.9829380820585145,,,,,,,,,,,0.42000000000000004,-0.3,-0.3,-0.2,-41.10023708090532,15.02072380320977,-53.433288076628635,-30.212784032722666,0.3251799227095029,-23.562618773554423,2.3503201698918503,2.937536690673946,2.6026215854993318,,,,,,,,,,,,,,,,,auto,85.0,True,0,False,-10.0,15.0,0.0,-10.0,72.52109525685273,4.57457821305562
1760897729.48502,4.63513445854187,-39.98709879794014,18.41041708142919,53.03052635710059,8.196502997057966,-31.642839553323178,-18.204978669541333,0.5775776879105065,-2.4183900684940682,0.8561084543572013,,,,,,,,,,,0.42000000000000004,0.3,0.21153787304150062,-0.2,-46.204903132371335,14.49798680551957,-54.300535761709256,-50.24029647573555,-12.907242437144717,-36.123745998575906,-0.7840497693684078,0.1861417692833833,1.6606139797388069,,,,,,,,,,,,,,,,,auto,85.0,True,0,False,-10.0,15.0,0.0,-10.0,76.93353792482482,1.8458119050495259
1760897729.5895772,4.739691734313965,-40.56981556214752,17.484872361995077,52.01914003748739,-12.844010165270063,-16.08385035170905,-8.850323302271502,0.7397302568214339,1.2531560035477114,0.07275217849808069,,,,,,,,,,,0.42000000000000004,-0.3,0.3,-0.2,-50.60706616751199,11.149203149328391,-53.8248112882183,-41.332362186700365,-26.720368687163884,-45.625963743262844,3.1195983829169363,-0.03560404144282971,0.7593156325599757,,,,,,,,,,,,,,,,,auto,85.0,True,0,False,-10.0,15.0,0.0,-10.0,79.681904761503,3.210875573471352
1760897729.6990492,4.849163770675659,-44.091847357993295,14.60997792466095,49.7076826359782,-33.207027841371925,-31.97178169709627,-21.71209899209469,2.3702364553794792,-0.5833950282881128,-0.05892094554324612,,,,,,,,,,,0.42000000000000004,-0.3,0.3,-0.2,-47.81849815293325,11.99909091462695,-46.40863984017598,-36.18418852339755,-31.288901074630246,-40.907631621350816,0.06101589689994103,-1.7189787086848718,0.7211049403279957,,,,,,,,,,,,,,,,,auto,85.0,True,0,False,-10.0,15.0,0.0,-10.0,73.59164998815567,1.8651013579834894
1760897729.8047678,4.954882383346558,-46.081109713253774,12.537675959564998,47.10039013149348,-30.678629060618682,-21.777729810289415,-44.92854660899895,0.14743394065885182,0.22332198193959668,-0.6039829996838656,,,,,,,,,,,0.42000000000000004,-0.2560438278724894,0.3,-0.17816642456349052,-48.49722753718735,9.557607671942737,-45.99315456840473,-41.255112646516814,-44.95681001321098,-24.727333712004725,-0.1560801579137536,0.039727411180460324,0.3079432576029066,,,,,,,,,,,,,,,,,auto,85.0,True,0,False,-10.0,15.0,0.0,-10.0,73.61217932587783,0.34751738488394174
1760897729.912988,5.06310248374939,-50.26941921828575,12.15620567498627,42.11694067747651,-32.747439805478976,2.677035401808614,-36.489747081337164,1.7071104576304768,-2.790934526914856,-1.843562415051897,,,,,,,,,,,0.42000000000000004,0.3,0.3,0.2,-54.82847735459702,4.950915043834751,-43.76651779830028,-70.49269883692135,-57.038392236855906,2.0493606443403407,-2.479999145223559,-2.7877492730193967,-1.121305089818566,,,,,,,,,,,,,,,,,auto,85.0,True,0,False,-10.0,15.0,0.0,-10.0,77.72197587333757,3.8960578632744634
1760897730.0193274,5.1694419384002686,-54.26633683676656,14.916453397194518,38.63397445881461,-40.001378984848245,19.43628314403468,-27.98164664891453,2.317097761129841,0.8584342460383798,2.7824670235419386,,,,,,,,,,,0.42000000000000004,0.3,0.3,0.2,-56.716222373394594,4.8967857305712785,-36.660231010821335,-41.78820481720069,-30.24411768568948,9.298445065633167,-0.7429064900511299,-1.4311315561167173,-2.7596717807059767,,,,,,,,,,,,,,,,,auto,85.0,True,0,False,-10.0,15.0,0.0,-10.0,76.66787449480826,3.1962221326275246
1760897730.1279192,5.27803373336792,-57.978118624690715,15.015082514851526,35.93420399057718,-46.650556809429524,-3.543043204171126,-28.555598401613562,1.6777302177416211,-0.47767827023204645,0.47472191295144284,,,,,,,,,,,0.42000000000000004,-0.3,-0.3,-0.2,-60.869651404055816,3.4202093633865864,-35.46226324790205,-36.49980793723703,7.984177169218026,22.86593102759949,0.7151891129805551,1.9086119672681952,1.3276724329596732,,,,,,,,,,,,,,,,,auto,85.0,True,0,False,-10.0,15.0,0.0,-10.0,80.10136506931583,2.432490328483618
1760897730.237572,5.387686491012573,-61.64858533317759,14.83054213097852,34.9451240660594,-20.857083376514545,18.584530293387385,0.5186285760216429,0.34787389220065085,2.7761465924694764,-2.9729755053748717,,,,,,,,,,,0.42000000000000004,-0.3,-0.3,0.2,-64.32310678425935,7.065309708895102,-31.583429080339275,-44.9028468123323,-10.998458485018306,27.771825360188622,0.3607812993258204,2.937027865030642,-1.8944228907727323,,,,,,,,,,,,,,,,,auto,85.0,True,0,False,-10.0,15.0,0.0,-10.0,82.51011018084786,3.5135642750622043
1760897730.3445125,5.494626998901367,-62.708896116697815,15.35713209623166,34.65518614882304,5.707072179872043,-0.8551808423103044,2.8256785538366795,2.094578798244979,2.2570168029212705,-0.4710454012204359,,,,,,,,,,,0.42000000000000004,0.19571091856559258,-0.3,-0.2,-68.6661720029403,7.957717542830134,-32.66268108622197,-29.088342418629118,24.94945218421104,40.051285697359816,0.25048425954278863,2.461292229693417,0.7428088051046107,,,,,,,,,,,,,,,,,auto,85.0,True,0,False,-10.0,15.0,0.0,-10.0,87.04568180060893,2.583111829783765
1760897730.4525652,5.60267972946167,-62.63384955019832,14.801803556711777,33.8780601619227,8.400384232427024,-3.2118525238417313,-8.108977990589988,-3.0064237395305815,-2.7025177139061953,1.3710977298971962,,,,,,,,,,,0.42000000000000004,0.3,-0.3,-0.2,-73.51967307220035,10.65516961016018,-33.04353643939583,-67.55999493868813,21.648792598208757,26.353032405442185,-1.2798871304344364,2.0906286111027024,2.3184571726838543,,,,,,,,,,,,,,,,,auto,85.0,True,0,False,-10.0,15.0,0.0,-10.0,92.08838000456015,3.3740306337942636
1760897730.561492,5.711606502532959,-60.68025369114273,13.725004747478257,33.70550409116552,39.869258487591296,-17.46815781244855,-10.478779935499194,0.5083601160422678,-0.39489812481208825,-2.8536889733717636,,,,,,,,,,,0.42000000000000004,0.3,0.3,0.2,-82.05442905169448,11.229367052551156,-32.47689412102574,-72.53002916556049,-3.8155484803615947,32.01261837084469,-2.002660783109125,-2.6084950905124926,-1.7836682762198883,,,,,,,,,,,,,,,,,auto,85.0,True,0,False,-10.0,15.0,0.0,-10.0,100.25403559098817,3.7411721918436553
1760897730.6690607,5.8191752433776855,-55.814745805403,12.691325494779607,32.845007991931844,56.978427028619635,-3.915990851840096,-8.27895916615143,-1.8344390034800842,1.4948806452898402,-0.25665450337413565,,,,,,,,,,,0.42000000000000004,0.3,0.3,-0.2,-71.28587566183427,11.893875370436191,-30.72295003387871,-6.536733641240513,-15.573365518710988,-13.392079313912399,-1.373602142451179,-1.5257033601904824,0.7065979216229538,,,,,,,,,,,,,,,,,auto,85.0,True,0,False,-10.0,15.0,0.0,-10.0,89.532995416012,2.1711366175081834
1760897730.77928,5.929394483566284,-50.41309583348565,12.685426779256419,32.85014115744858,18.29397984237108,-4.4141246433126184,-7.209107654043947,-2.199029244967208,0.6859652182569715,2.2863803447048916,,,,,,,,,,,0.42000000000000004,-0.3,-0.3,0.2,-72.71455065779924,10.562188828332904,-32.95013435599451,-5.675479202321385,19.656300125443398,-9.895398818023821,2.602552976753634,1.906159715556489,-3.1538785300966548,,,,,,,,,,,,,,,,,auto,85.0,True,0,False,-10.0,15.0,0.0,-10.0,91.28039711188372,4.4943617748370865
1760897730.8878345,6.037949085235596,-48.75556641650363,13.433617489689981,32.02166597236176,4.644785927360857,14.963095366352245,12.503891286301027,-2.9543572328870367,0.33464310136087655,-0.7087767596266661,,,,,,,,,,,0.42000000000000004,0.3,-0.3,-0.12774563600425434,-61.888013731332954,10.411646015465763,-32.20822784040832,18.78977825607022,-23.336132768087296,-33.7770236881722,-2.4448115451149475,0.6497189112658808,0.2202148797471915,,,,,,,,,,,,,,,,,auto,85.0,True,0,False,-10.0,15.0,0.0,-10.0,80.70547944292566,2.5392386158149707
1760897730.9958107,6.145925283432007,-48.69318579721938,14.181310486904957,33.5431930512492,-13.667554795129039,3.7055598672091556,12.574712737373677,-0.4221260914795984,-2.5947297589168463,2.7546040120735964,,,,,,,,,,,0.42000000000000004,0.3,-0.3,0.2,-61.13721521633152,8.678370661623363,-34.6368093514238,4.293937671063807,-13.570084477692,-42.96847998432531,-2.1905132365363267,-0.019025481272191058,-2.686235535576554,,,,,,,,,,,,,,,,,auto,85.0,True,0,False,-10.0,15.0,0.0,-10.0,80.49324215893476,3.4662042007032343
1760897731.1056368,6.255751371383667,-50.04607941234284,15.863517449681593,35.22980667277372,-13.60013941345217,12.434344055497217,3.8547127321663086,0.3835119843917469,1.8677395726666794,-0.11287902442405562,,,,,,,,,,,0.42000000000000004,0.3,0.17134107709276217,-0.2,-54.90657508877962,8.617284796696572,-35.88386038769865,7.167622168711786,-23.68025872953898,-48.69162713557007,-0.9307562768138302,-0.559992136865722,0.8386536481297774,,,,,,,,,,,,,,,,,auto,85.0,True,0,False,-10.0,15.0,0.0,-10.0,75.04106253565735,1.3723113282710908
1760897731.2123852,6.362499713897705,-51.94765371325907,17.326214273497293,34.90042987856515,-16.154804213555007,23.08545774708638,-2.5658458148804293,2.7254722017178903,-0.5967229151477249,2.96488681301015,,,,,,,,,,,0.42000000000000004,-0.3,0.3,0.2,-55.331892621607665,4.994217614304826,-37.084020465172465,-21.228575809537308,-44.377901895202,-38.308513819679014,1.7640369404384784,-1.4317531908705174,-2.372595217685145,,,,,,,,,,,,,,,,,auto,85.0,True,0,False,-10.0,15.0,0.0,-10.0,75.53185747665859,3.2849583853957536
1760897731.3185291,6.468643665313721,-53.36328829189701,21.296135034002354,37.011649998551675,-18.20378973952162,50.04100590746696,28.549864359294943,2.7833571074798455,-1.4442763447883344,-0.4630660116686266,,,,,,,,,,,0.42000000000000004,0.3,0.3,-0.2,-54.499298680292,5.94292545721968,-36.441188318124674,12.036957137824619,-11.992081169902196,-32.766157342425224,-2.8438940485572375,-0.8614334222671771,0.5587860995848956,,,,,,,,,,,,,,,,,auto,85.0,True,0,False,-10.0,15.0,0.0,-10.0,74.59629561658568,3.0235811226933396
1760897731.425456,6.575570583343506,-53.25643893830659,28.748565535664895,40.90983538879614,-5.4041274551352565,93.54958979773411,47.29195931553211,1.285451477638843,2.347258155877421,2.2402541387058617,,,,,,,,,,,0.42000000000000004,0.3,0.3,0.2,-52.53340524527246,18.489086680215095,-35.39725242167479,8.91699962124086,34.79149452795423,-8.36471803755697,-2.4389230503305246,-0.9535980656756166,-3.0879393353321665,,,,,,,,,,,,,,,,,auto,85.0,True,0,False,-10.0,15.0,0.0,-10.0,74.48239779210232,4.048834925628049
1760897731.5325,6.68261456489563,-52.85725067120352,33.80475938697931,45.204389614412236,6.599474497885577,28.21313556333426,34.340608287356176,2.4923037533699963,1.5484021358084785,-1.4318701441742263,,,,,,,,,,,0.42000000000000004,0.3,0.05242737382083499,0.19833001265814723,-52.712501329824555,23.570915634436652,-40.00891280596076,21.587623491017595,1.7659047140559139,-15.407144557408149,-2.0878522843080685,-0.45241588550271794,-0.3278400961981924,,,,,,,,,,,,,,,,,auto,85.0,True,0,False,-10.0,15.0,0.0,-10.0,77.72455048427736,2.161315900839317
1760897731.6392088,6.789323329925537,-52.21718001866368,35.321625649479735,48.31467092273543,8.327578451465971,-4.90258903153527,33.305738834340936,-0.647280362326223,-2.6281894144890203,1.4526060956265088,,,,,,,,,,,0.42000000000000004,0.3,-0.3,-0.2,-52.192077428670906,23.907149191194552,-45.52358475029245,13.530019020872395,3.552757157911379,30.47655111873272,-0.8451504432323284,1.2731514443716365,2.369072717193137,,,,,,,,,,,,,,,,,auto,85.0,True,0,False,-10.0,15.0,0.0,-10.0,79.67591935548501,2.8191664391004405
1760897731.7474825,6.897597074508667,-52.12347714018206,37.130126706844536,52.02391949642133,1.0133568992936226,17.785835713519763,28.811752724659684,-2.980432052668843,2.984769686245427,-2.4790444633107174,,,,,,,,,,,0.42000000000000004,0.3,-0.3,0.2,-50.53237073186485,29.964467873337757,-45.43084470581087,15.075538354341408,2.3547165810598933,35.45980188447067,-0.5531819697879603,2.732612736116691,-1.5002065724111653,,,,,,,,,,,,,,,,,auto,85.0,True,0,False,-10.0,15.0,0.0,-10.0,80.29760709534347,3.166038915931277
1760897731.854151,7.004265546798706,-51.330147192839505,39.34759835492441,56.56324980016702,7.442544383707152,10.132245932812433,39.73322523938504,-0.8879829094559384,-2.2708557093540582,0.5681174434372962,,,,,,,,,,,0.42000000000000004,0.3,0.3,-0.2,-48.21622740033426,31.981151312564435,-50.899623085684645,40.685782642926846,18.826043995351935,37.77790353007613,-2.913147075633846,-0.7427075233946555,1.4768318987383116,,,,,,,,,,,,,,,,,auto,85.0,True,0,False,-10.0,15.0,0.0,-10.0,81.80381784830695,3.3494884395549205
1760897731.9602954,7.11040997505188,-48.49307484551784,38.69430430985606,60.157785478185275,40.420430307450495,-11.302311441963283,30.49976053546952,1.2775038436235058,1.5115806892842671,-3.06200220633483,,,,,,,,,,,0.42000000000000004,-0.3,-0.3,0.2,-42.19371110440096,35.00883611333359,-56.269107687895804,64.41744855741022,36.04505456392461,22.545231062632205,1.8457958290723435,2.529447928915802,-2.0238323196084713,,,,,,,,,,,,,,,,,auto,85.0,True,0,False,-10.0,15.0,0.0,-10.0,81.47128035165537,3.7283999685668254
1760897732.067662,7.217776536941528,-43.72676638941365,36.5053714031577,63.82756380549069,55.48418872460269,-17.007061876960275,30.791673703335544,0.3667744099720563,-2.7306439243827567,0.821216348394222,,,,,,,,,,,0.42000000000000004,-0.3,0.3,-0.2,-38.997167005537094,37.801609349734015,-59.021457133521274,46.37085967697854,8.63516485025132,22.664351606329735,2.7278790159470088,-1.8040097280266054,1.6070979267381824,,,,,,,,,,,,,,,,,auto,85.0,True,0,False,-10.0,15.0,0.0,-10.0,82.1447440409149,3.643972937685571
1760897732.1748192,7.324933767318726,-38.957922249433494,35.461184604668865,67.10059925970607,40.74158832478336,-37.28339377835905,28.150640714332905,2.337899497389963,-2.8466511576611864,-1.446959765553364,,,,,,,,,,,0.42000000000000004,-0.3,0.3,0.2,-38.15034224523258,36.953401929311525,-56.83088742122034,31.22520640167451,4.447131841809206,70.00875907756154,2.511057076336845,-1.722262608260554,-0.6410275123681466,,,,,,,,,,,,,,,,,auto,85.0,True,0,False,-10.0,15.0,0.0,-10.0,79.89771468317234,3.1116735696481217
1760897732.2837486,7.433863162994385,-33.93813429892694,31.45447481502874,68.16342804919097,46.59498328980902,-27.42421553387253,-7.8393194248178375,1.6781080908892234,1.7932583478646236,2.6652409653585387,,,,,,,,,,,0.42000000000000004,-0.3,0.3,0.2,-34.721069148981314,36.97796880120771,-63.34286233032746,39.4901789246381,0.11592174140514455,76.8222369365254,1.3077588509814564,-0.7434018342162904,-2.799663858067129,,,,,,,,,,,,,,,,,auto,85.0,True,0,False,-10.0,15.0,0.0,-10.0,81.76194625602513,3.1782066039834174
1760897732.3913314,7.541445970535278,-31.713885113928132,27.868038357457323,67.1351816028807,-10.682385852988414,-16.519681795313733,-12.549051803157589,-1.9992012167491753,2.3606209865445797,0.4355650850078278,,,,,,,,,,,0.42000000000000004,0.3,-0.3,-0.2,-29.79376955250427,32.43704207498428,-54.523177904395546,20.66988201077654,-19.563829835276856,33.389662635935416,-1.2984667997468127,2.8831709060177615,1.4139723127957198,,,,,,,,,,,,,,,,,auto,85.0,True,0,False,-10.0,15.0,0.0,-10.0,70.99969619655857,3.4638141123196675
1760897732.4991586,7.649273157119751,-31.20585259113789,28.28599404914793,65.65036003631904,21.448687727222843,14.189582350518746,-24.470289801124757,0.2873856069510689,-1.7095341298269746,-2.7394316975084867,,,,,,,,,,,0.42000000000000004,0.3,0.3,0.2,-29.52739327870807,30.871194453748238,-55.07616612549478,4.15847290789943,28.2504191770879,9.496378008269364,-2.768448817440152,-2.17315555224019,-1.8335057807982373,,,,,,,,,,,,,,,,,auto,85.0,True,0,False,-10.0,15.0,0.0,-10.0,70.48106236267354,3.9684578059037867
1760897732.6065013,7.756615877151489,-30.17227094524124,30.849360771641997,64.20095781371438,3.02090681290669,33.813146033135105,-8.32517228292745,-1.5359131043123246,1.0170382951623105,0.5433505932625886,,,,,,,,,,,0.42000000000000004,-0.3,0.3,-0.2,-28.415748372248615,32.817795038670084,-56.09586913475105,29.80014225541628,14.488599135912242,25.440047849554695,2.4401411385530833,-2.2165298234523316,1.4471967371263426,,,,,,,,,,,,,,,,,auto,85.0,True,0,False,-10.0,15.0,0.0,-10.0,71.32155374927457,3.600232163383619
1760897732.7149029,7.865017414093018,-29.8550315547184,34.01240740829116,61.45402006764432,-7.955524582027864,14.10455684067038,-56.720278181013676,-0.8882594699074873,0.5759614016471823,-2.8500061869819953,,,,,,,,,,,0.42000000000000004,0.3,-0.3,0.2,-25.23393476168533,33.47038193693358,-61.238991415982944,35.40706160702381,2.6082766687520804,8.560180845978058,-0.0065274240971872725,1.4390422627558885,-1.8782566795405484,,,,,,,,,,,,,,,,,auto,85.0,True,0,False,-10.0,15.0,0.0,-10.0,73.24254374841807,2.3661642790604414
1760897732.8213034,7.9714179039001465,-30.782744980999365,35.364068525130094,56.592502916087916,-7.14499676140463,14.12493262290666,-36.36062047909834,-1.9192719324064407,-2.0441617870429294,0.6707832798578119,,,,,,,,,,,0.42000000000000004,-0.3,0.3,-0.2,-22.346686961577692,34.46731898443727,-55.35369133562233,44.65888209731673,-1.516579119588489,-9.554768110424094,0.4409896676326703,-1.4979968468677338,1.5701221005240904,,,,,,,,,,,,,,,,,auto,85.0,True,0,False,-10.0,15.0,0.0,-10.0,68.11555198886617,2.214441205076041
1760897732.9288633,8.078977823257446,-30.3966210061045,36.32789156268493,52.23804636735821,-14.46644859174509,6.881949499107796,-36.0540284127182,0.11960423717842743,3.1132113630060716,-1.8723927905682984,,,,,,,,,,,0.42000000000000004,0.3,0.3,0.2,-19.739359039623793,33.875399184396386,-49.38193845193681,57.099146029780464,-9.59231637944977,-6.203774262020702,-1.2293511029666235,-2.0745271432586185,-1.0995130105658117,,,,,,,,,,,,,,,,,auto,85.0,True,0,False,-10.0,15.0,0.0,-10.0,62.492422041542234,2.6502633572695213
1760897733.0378764,8.18799090385437,-31.229359263841836,35.63375686071627,50.19314087119232,-11.801348592336044,-14.662461266534134,-19.303105113623353,2.0005229471817385,-1.1294326211531778,2.0347103488513856,,,,,,,,,,,0.42000000000000004,-0.3,0.3,-0.2,-19.77771958765728,33.83346306588037,-44.113012376591875,48.72909153958277,-15.434026043666371,-37.77093147973747,1.1190583557193166,-1.4911618520188574,2.8392178434884876,,,,,,,,,,,,,,,,,auto,85.0,True,0,False,-10.0,15.0,0.0,-10.0,59.311808404006044,3.3966179112765906
1760897733.1444771,8.294591665267944,-30.289134354314253,33.20432208012174,47.91216014144889,15.593667957360468,-25.25159906990701,-24.67491769871366,2.3986880024696347,-3.0256981157062564,-0.9075570462577967,,,,,,,,,,,0.42000000000000004,-0.3,0.3,-0.07961684152676234,-17.82042954370367,32.20623979802811,-46.82232587937667,35.98731710344449,-1.442286968786906,-41.37200704142283,0.5979876569136321,-0.7407192242174886,0.14048332139851588,,,,,,,,,,,,,,,,,auto,85.0,True,0,False,-10.0,15.0,0.0,-10.0,58.909304532716384,0.9622836227108786
1760897733.2527463,8.402860879898071,-27.792970584698786,29.78479161080172,44.023204185803664,-0.2752200311115276,-21.29222560921881,-39.3167081612819,-2.649368019990769,-0.566534815038135,2.0088636690713324,,,,,,,,,,,0.42000000000000004,-0.047568135395094,-0.3,-0.2,-17.969951869196912,30.09858521919463,-47.85395155094243,2.857016511144043,-16.021546774174194,-96.77516001836479,-0.31616399946328666,1.9588003153988252,2.980539983483112,,,,,,,,,,,,,,,,,auto,85.0,True,0,False,-10.0,15.0,0.0,-10.0,58.53088250210635,3.580569360214192
1760897733.3592732,8.509387731552124,-26.907178964258584,27.447926732626325,40.34203177514738,19.933375070391236,-28.996054158341423,-45.166952917949985,-2.396537970805245,-0.0806776777038482,-2.4094922698482453,,,,,,,,,,,0.42000000000000004,-0.3,-0.3,0.2,-20.23798539744506,26.779361147076635,-46.14467159326161,-40.489500434780105,-28.94527362666859,-75.19731959719931,0.7808595262178216,1.7941120645852973,-1.419008024517224,,,,,,,,,,,,,,,,,auto,85.0,True,0,False,-10.0,15.0,0.0,-10.0,57.14269054656808,2.4170567791468853
1760897733.4674783,8.617592811584473,-24.111871949344014,25.02932036820899,36.422339090432864,42.32327076103272,-11.332944721366033,-27.68006455726117,-0.5233182348516067,2.0598062850036953,-0.9096362036742793,,,,,,,,,,,0.42000000000000004,-0.3,0.3,-0.2,-24.678248966638098,23.023231968810105,-41.18437874515334,-34.27853492651452,-35.919879141226914,-79.7092738265442,-0.06525079972002454,-0.4404568917868439,0.35267443345537947,,,,,,,,,,,,,,,,,auto,85.0,True,0,False,-10.0,15.0,0.0,-10.0,55.46979474515232,0.5680133769548945
1760897733.5741239,8.724238395690918,-20.214537725477697,22.082191487418783,34.35435293164292,25.51183965622564,-24.76938150153864,-22.76445843034748,0.7876047670145634,-1.3638483041964997,0.7946821356275217,,,,,,,,,,,0.42000000000000004,0.3,-0.3,-0.2,-27.377098387403038,22.379103164644544,-36.95764912585443,-46.774609501604274,-13.452058351576378,-25.519372957536557,-1.233588889791372,1.962176146415503,1.82870221314979,,,,,,,,,,,,,,,,,auto,85.0,True,0,False,-10.0,15.0,0.0,-10.0,54.98506681438262,2.9522920863216844
1760897733.6836064,8.833720922470093,-16.771914967101285,18.951757702532046,31.212598136264102,33.07366948223897,-39.886039830801344,-23.667665496828654,-2.479971278718681,2.5284644779523697,2.101257311052223,,,,,,,,,,,0.42000000000000004,-0.3,-0.3,0.2,-25.713072450599523,19.741944053004644,-31.115585158270363,-18.13036036894704,-18.119980212825688,-29.12010677064035,0.7124057229281943,2.2230176079139254,-3.0197294269826713,,,,,,,,,,,,,,,,,auto,85.0,True,0,False,-10.0,15.0,0.0,-10.0,49.93161883952792,3.8168173929782503
1760897733.7904692,8.9405837059021,-12.82931264749357,15.650688234863328,28.84663809750279,48.443777683318196,-19.444724071784137,-27.086769988703274,1.6771348882960502,-2.852772830635269,-2.710684857687329,,,,,,,,,,,0.42000000000000004,0.3,0.3,0.2,-23.065761850889327,17.864207741623147,-27.683736431030518,-1.4451711688938182,5.20802981494034,-32.710976812699215,-2.2396452343315842,-0.1463674018101972,-1.494374115210961,,,,,,,,,,,,,,,,,auto,85.0,True,0,False,-10.0,15.0,0.0,-10.0,45.616298377736065,2.69640282379866
1760897733.8980637,9.04817819595337,-8.216610155581593,15.501268876576844,26.42672032259855,24.804429174493418,-2.6014708935207542,-21.16843833474175,1.398385376848723,-1.465959519190791,-1.9678788079847196,,,,,,,,,,,0.42000000000000004,-0.3,-0.3,0.2,-24.423179952214916,17.14106565228296,-28.851904866895293,-29.622960938595394,15.066148623660876,-25.15974946875404,1.7032214616429984,2.1422033366090516,-0.753841986269695,,,,,,,,,,,,,,,,,auto,85.0,True,0,False,-10.0,15.0,0.0,-10.0,46.94036180464596,2.838710309813825
1760897734.0049343,9.155048847198486,-4.754189682925268,15.4064781119689,22.809351572020827,33.89046078059256,-4.979728999979832,-39.965951648014574,0.9449606930425825,2.390546919693409,-2.458048932878304,,,,,,,,,,,0.42000000000000004,0.3,0.3,0.2,-18.857677652223487,15.644772460995055,-25.827537402032018,-13.73645111626942,-25.190840745294132,-44.86639898528231,-0.9340860878525546,-2.903815017941166,-1.1332392340286062,,,,,,,,,,,,,,,,,auto,85.0,True,0,False,-10.0,15.0,0.0,-10.0,40.51681356635669,3.254057411829436
1760897734.1117623,9.261876821517944,0.4543795675001566,14.680851452340171,17.851124326589005,56.15987622365774,-26.273472170033386,-56.6031166393533,2.0663666266453657,-2.3445896947687013,-2.971438716295193,,,,,,,,,,,0.42000000000000004,0.3,-0.3,0.2,-15.053015469034813,12.390536905417427,-22.588309158381875,21.120636346086545,-39.18934814410078,-70.42668344251462,-1.8529119734595334,0.7261926728450262,-1.7919142277293165,,,,,,,,,,,,,,,,,auto,85.0,True,0,False,-10.0,15.0,0.0,-10.0,34.85935557427243,2.677983416495005
1760897734.2190428,9.369157314300537,2.826119657688498,12.764962695370082,13.613202760157858,21.772988254384714,-11.101012010929091,-29.22291499301885,-1.6857677612164599,-1.3728503304801805,-2.288124389619901,,,,,,,,,,,0.62,-0.3,-0.3,0.2,-12.508842148229938,7.307918997152077,-19.04652808816804,-63.40706438754236,-48.74222023763076,-80.73604390102155,2.3929677523699744,1.2587764893857298,-1.1668974696882293,,,,,,,,,,,,,,,,,auto,85.0,True,0,False,-10.0,15.0,0.0,-10.0,29.866063464326555,2.9449045177862154
1760897734.327306,9.477420568466187,4.796413920523224,10.84635408206839,11.32767891844218,34.84357051612117,-35.32795873432851,-1.054870337317987,-2.4740046056070635,-0.28731033474246154,-2.412940137371635,,,,,,,,,,,0.62,0.3,-0.2941036704342087,0.2,-10.649624802368375,6.910359461850259,-15.357690380936727,-51.96330670815472,-7.003663422856905,-69.65352445787896,-1.6808389199306744,0.668656128645583,-1.1261125077060226,,,,,,,,,,,,,,,,,auto,85.0,True,0,False,-10.0,15.0,0.0,-10.0,27.09909900000803,2.1308331406144783
1760897734.4334557,9.5835702419281,10.826379807161974,10.331518775651652,12.122544104373038,57.55478044051869,31.68585656150193,17.64953985506436,1.6109902296131122,2.0527055313569273,-2.9336993471659403,,,,,,,,,,,0.62,-0.3,-0.3,0.2,-8.976128044167949,5.569829677831791,-14.480426104766439,-21.997655335820852,-3.5857277625580046,-66.28904954620317,0.942777521559667,3.0863742719083596,-1.6423255918253987,,,,,,,,,,,,,,,,,auto,85.0,True,0,False,-10.0,15.0,0.0,-10.0,25.019031490260872,3.6210176678691712
1760897734.540732,9.69084644317627,16.11248351247052,10.778063287260537,13.877771802507592,31.115370500379182,-15.051951199665783,29.65212381178483,-1.6566404336838219,1.5979145133597183,-2.5661169374822252,,,,,,,,,,,0.62,-0.3,0.3,0.2,3.188149462931423,8.530029427698699,-15.280741087527689,46.24485334274437,22.991993781629997,-73.89167300067521,1.2184565451203653,-2.769624633542607,-1.4254976405574493,,,,,,,,,,,,,,,,,auto,85.0,True,0,False,-10.0,15.0,0.0,-10.0,15.497336596362489,3.344772112761575
1760897734.6474385,9.797553062438965,18.998486763698693,9.766799815640308,18.19375703127731,-2.9625903154429736,7.568242450098728,19.11920857478739,-2.149598190248507,0.3195201532973304,-2.0872364340582434,,,,,,,,,,,0.42000000000000004,0.3,-0.025039987224327483,0.2,8.859824422056464,6.458320955509473,-17.651371301583556,19.867025811966368,-55.7638487802374,-30.813685219280316,-2.7396774541662294,-0.34772885320309677,-0.7153054115055673,,,,,,,,,,,,,,,,,auto,85.0,True,0,False,-10.0,15.0,0.0,-10.0,11.745430962167521,2.8527898169942074
1760897734.7552843,9.905398845672607,18.24114552751179,11.952435229140256,21.102453284327254,0.8067469317194607,28.294054099327926,25.575299785553916,-2.1087657396136055,1.1396996167318234,-2.782848015706003,,,,,,,,,,,0.42000000000000004,0.3,0.3,0.2,10.441295449599604,2.031014228151978,-19.452582278129487,-7.58783840983987,-61.2422851289425,-3.741131202561247,-2.6246613609703995,-0.5080779214117269,-1.4519777184188603,,,,,,,,,,,,,,,,,auto,85.0,True,0,False,-10.0,15.0,0.0,-10.0,10.689158886348574,3.0422409057768403
1760897734.8622994,10.01241397857666,17.004487228010422,14.04521098961871,22.68316006873057,-9.407850030496068,30.294271168781133,-12.243084857672738,3.0881926241353628,-2.740529991313799,-2.2171456229180238,,,,,,,,,,,0.42000000000000004,0.3,-0.3,0.2,13.208999162127917,2.875777144251848,-19.82396849038044,2.462928174955948,-31.175131556976943,3.9451613367883684,-1.3231972761712747,1.9784819969553706,-0.9552710768898199,,,,,,,,,,,,,,,,,auto,85.0,True,0,False,-10.0,15.0,0.0,-10.0,10.39173397872788,2.564719258376212
1760897734.9702694,10.120383977890015,13.828192491462296,19.739559919544085,20.121497272827863,-46.71827483897941,55.10315104686996,-33.4860976370165,-1.3196029043990392,-3.0454205440916837,-2.462201368869372,,,,,,,,,,,0.42000000000000004,-0.3,-0.3,0.2,11.656889316462792,8.113894126954323,-19.66879769158085,-42.01113240512695,36.77606887618466,-3.8625559808071857,2.2335486779633427,2.0902503618295833,-1.1743064446406535,,,,,,,,,,,,,,,,,auto,85.0,True,0,False,-10.0,15.0,0.0,-10.0,13.057462071418152,3.27671815966602
1760897735.0787635,10.228878021240234,9.91633087695801,24.42512319822064,18.956649281644168,-13.642125656544195,34.44044354030377,16.518940567707656,-2.6855683168231246,2.6712954956178665,-2.8223474720652426,,,,,,,,,,,0.42000000000000004,0.3,-0.3,0.2,8.732935297466874,15.076406879382478,-17.42092610199317,-1.4483331544574174,38.86515405009282,7.0333889147139015,-1.1241665868266841,1.988693539377565,-1.646323990119547,,,,,,,,,,,,,,,,,auto,85.0,True,0,False,-10.0,15.0,0.0,-10.0,17.93444419517013,2.8158542556287904
1760897735.1864882,10.336602687835693,7.6251101090020645,28.165352297874396,21.072599885491442,-29.08866891168488,16.98957926151708,31.683834361152883,-1.515445454014568,1.7938076345452658,-2.6228172041096407,,,,,,,,,,,0.42000000000000004,-0.3,-0.3,0.2,9.26728756313522,19.99594031649866,-19.449538948790977,6.085560850900217,25.073964478259953,6.84036182787212,0.7332709373506385,0.46654474095238485,-1.3551960514311328,,,,,,,,,,,,,,,,,auto,85.0,True,0,False,-10.0,15.0,0.0,-10.0,22.847218810382117,1.6099399369814842
1760897735.2945163,10.444630861282349,6.128679094328643,31.039729450800134,25.070522833436772,17.16294831087227,45.635229435772,21.280906232711715,1.1318151756272274,-0.4999549128477942,-2.0070570163359944,,,,,,,,,,,0.42000000000000004,0.3,-0.3,0.2,9.090797007143726,25.0867511170285,-22.750160936706546,-18.4788473157795,74.42509512513601,-18.90135015000612,-2.670978587791617,3.137285458240755,-0.8118595269164589,,,,,,,,,,,,,,,,,auto,85.0,True,0,False,-10.0,15.0,0.0,-10.0,28.754658153600605,4.199500274363037
1760897735.4043026,10.554417133331299,7.751224754100277,33.72854281079612,27.05911484057865,8.915116166664456,17.393335108365875,15.1095812437687,2.373571636116267,0.2727681683989999,-0.4347435037848466,,,,,,,,,,,0.42000000000000004,-0.3,-0.3,-0.2,6.551227813790177,33.2852071802843,-24.891340914253163,-27.364727264605314,52.52583649857401,23.517516349599948,1.795353581097977,2.243997284634051,0.8993464872254465,,,,,,,,,,,,,,,,,auto,85.0,True,0,False,-10.0,15.0,0.0,-10.0,37.43045287881824,3.0112526295033892
1760897735.5118232,10.661937713623047,8.241962656395826,36.68331865867629,28.57676578255316,-12.492963361141154,22.8974196300143,16.151631768457683,-2.530548693319639,-2.4995852370787284,1.7931259798882258,,,,,,,,,,,0.42000000000000004,0.3,0.3,-0.2,5.504573366091764,39.32237049185055,-26.776966253708935,-31.151170168447578,63.00404959035699,12.119655468160548,-1.4027231212400466,-2.6583783386421254,2.770112744453444,,,,,,,,,,,,,,,,,auto,85.0,True,0,False,-10.0,15.0,0.0,-10.0,43.79359022432828,4.087558215268191
1760897735.6202312,10.770345687866211,8.588829488384,42.376245645914175,30.978822965893567,10.768598623291288,79.89767989839962,18.952632267355032,-0.08577742641453717,-1.247314859477726,-2.9595506850715827,,,,,,,,,,,0.42000000000000004,0.3,0.3,0.2,3.292725861855542,45.90031712231506,-28.071145533407893,-40.100895442292675,80.0677453275542,-7.644888221019718,-2.863802809864971,-0.9061887316501003,-1.7811610827219215,,,,,,,,,,,,,,,,,auto,85.0,True,0,False,-10.0,15.0,0.0,-10.0,50.69976016278936,3.4921453798149997
1760897735.7292516,10.879366159439087,11.781419379854423,48.295438673573564,33.14015717020465,33.89483827584594,41.26185396604251,28.8940085046839,2.824410541648331,2.132387717099981,-1.7170744799423328,,,,,,,,,,,0.42000000000000004,-0.3,-0.3,0.2,2.749623570971624,52.96565237003065,-30.028564385441545,-15.111372139304464,78.60208698749157,-2.0802882491761725,1.3604318925240615,0.6592382922650872,-0.44359359879154076,,,,,,,,,,,,,,,,,auto,85.0,True,0,False,-10.0,15.0,0.0,-10.0,57.93595986067379,1.575482574030579
1760897735.8377407,10.987855195999146,14.638194927512655,51.632193768800676,33.587935302935584,4.150279125952347,16.59614087647287,-18.63188533127737,-2.2927217465787155,-1.6047299867261187,-1.2097233098685092,,,,,,,,,,,0.42000000000000004,-0.3,0.3,-0.06680539114403072,0.9990027929482664,62.25807576613743,-34.113056536219325,-4.828364355699282,86.99830854389118,-26.701700968570506,2.312550408765795,-2.4132749418582096,0.11461965768495053,,,,,,,,,,,,,,,,,auto,85.0,True,0,False,-10.0,15.0,0.0,-10.0,68.21682649033806,3.344386790431305
1760897735.9464827,11.09659719467163,15.346792127276586,54.97929165798417,31.044806639761706,26.63095068041513,48.00677745002376,-24.739399908370686,1.9656145496359891,2.7319846971508075,-0.8579982207580337,,,,,,,,,,,0.42000000000000004,0.3,-0.3,-0.2,2.6961894304249676,73.40648387898084,-34.680096767352914,32.19458811234684,120.74713197642308,-68.87782100598685,-1.5938219494859351,2.1110092926830224,0.6223496025593256,,,,,,,,,,,,,,,,,auto,85.0,True,0,False,-10.0,15.0,0.0,-10.0,78.41557757520482,2.7173420226874225
1760897736.0538907,11.204005241394043,17.995231845950368,58.02104071099288,28.806800213175652,14.498708318344168,25.14600066555733,-9.09311570185221,0.11499695418779583,-2.293102258839544,-1.3865725373592932,,,,,,,,,,,0.42000000000000004,0.3,-0.3,0.011097486034315237,9.919226791709004,75.18695276017077,-30.150548560654183,36.961276514847626,76.67500619991387,-28.841423223816687,-0.17281614511704,3.068737754069077,0.016006299198134094,,,,,,,,,,,,,,,,,auto,85.0,True,0,False,-10.0,15.0,0.0,-10.0,78.0060044422833,3.0736416552480637
1760897736.1617713,11.311885833740234,20.223348632564047,59.88857567840445,28.32137554067993,40.5607634788245,15.652218382831222,-20.21006421354773,-1.96448753883773,2.064030374783164,-1.191301469695534,,,,,,,,,,,0.42000000000000004,-0.06581881411642296,0.3,0.006706842898814443,13.574666999978918,83.32098623358839,-30.680588449252742,39.985591126486064,53.07377569534975,-37.9983152616437,0.3588238112372124,-2.146997244928723,-0.007604244117522224,,,,,,,,,,,,,,,,,auto,85.0,True,0,False,-10.0,15.0,0.0,-10.0,85.86096353818854,2.17678880963931
1760897736.2702587,11.42037320137024,23.746028272858304,61.53000380876443,26.30321080771716,17.295208022811337,51.7042015814681,-5.78282165950335,2.7158584249826636,-0.036429296783113935,-0.8197005345634312,,,,,,,,,,,0.42000000000000004,-0.3,0.3,-0.2,17.077264888685715,88.84518831049856,-28.125277634808967,29.644401403474063,38.55410867314538,-0.44763914785831993,0.6696326882767347,-0.758071207833938,0.5126383786432608,,,,,,,,,,,,,,,,,auto,85.0,True,0,False,-10.0,15.0,0.0,-10.0,90.69899781521636,1.133965608214607
1760897736.378984,11.529098510742188,26.077737503346267,66.27403345684287,25.850260117638346,27.373951043455655,30.96350679609438,-2.6189666027740053,1.2606520823615506,-0.8954573786010849,-1.8482584025585471,,,,,,,,,,,0.42000000000000004,0.3,0.3,0.2,20.027604554397946,94.14072821803325,-25.363278869243498,26.76414044511286,74.8793557281903,28.113215911769483,-1.87842519505399,-1.0655139056587744,-0.4457058443308959,,,,,,,,,,,,,,,,,auto,85.0,True,0,False,-10.0,15.0,0.0,-10.0,95.51850006460083,2.205097457310346
1760897736.4849327,11.635047197341919,27.585387121942567,69.37631018907581,24.650698232138936,13.130863503216471,28.64025502125145,-17.73532199184432,2.8555216342100618,-3.0156397382587654,-2.416127772411639,,,,,,,,,,,0.42000000000000004,-0.3,-0.3,0.2,22.335288693960987,103.31114950070211,-23.727549161682383,28.294770529625595,91.8161759346303,25.890436099002915,0.6805082586510866,2.181464271822945,-1.09343707049221,,,,,,,,,,,,,,,,,auto,85.0,True,0,False,-10.0,15.0,0.0,-10.0,104.47701028152835,2.5332750514815663
1760897736.592688,11.742802619934082,30.222263045414532,71.55345984162922,23.95260272552746,24.360596972877577,8.895926091802245,-4.213170436890311,-0.2794511270953916,0.028662348170234365,1.983210738402889,,,,,,,,,,,0.42000000000000004,-0.3,0.3,0.2,28.023599214174407,86.69211006973823,-21.39667415473863,9.403525994831014,18.93324026793597,19.795430795823638,0.9778439029103565,-0.9374677598418593,-2.9163568857699103,,,,,,,,,,,,,,,,,auto,85.0,True,0,False,-10.0,15.0,0.0,-10.0,88.40260327967917,3.2156122254369293
1760897736.6992543,11.849368810653687,33.53920478516188,73.4355084593809,23.53516539310953,35.843073638543146,27.662913506712158,-12.829833132531098,-2.8749682561346384,2.2692846724554614,-0.07935039070789694,,,,,,,,,,,0.42000000000000004,0.3,0.3,-0.2,30.348745797252942,80.9813237501893,-20.79415434536166,3.809132867342764,8.271787097693059,-3.1351176562008716,-1.1352308079886648,-2.3988011188356047,1.4454244705535828,,,,,,,,,,,,,,,,,auto,85.0,True,0,False,-10.0,15.0,0.0,-10.0,83.12684621656926,3.021960902329587
1760897736.8072722,11.95738673210144,37.683133791951946,76.55673180286279,22.80676848569539,38.545940996243736,22.765098984658188,-12.937216941129574,1.1493314392727643,2.942972613783749,-2.160107865489101,,,,,,,,,,,0.42000000000000004,0.3,0.3,0.2,32.90037260153832,77.77188397074886,-19.801501866973744,5.616385149759916,9.38630484382745,11.783489885947516,-1.9581131195089245,-1.5223166302472178,-0.7361822137655196,,,,,,,,,,,,,,,,,auto,85.0,True,0,False,-10.0,15.0,0.0,-10.0,80.40496697643634,2.587202961382218
1760897736.9142003,12.064314842224121,40.97271820544632,76.81911734755124,23.859096550101093,25.22078911644195,-11.258636059072682,9.804497116643518,2.0245831679279482,-0.7538921140452939,2.453125811230261,,,,,,,,,,,0.42000000000000004,-0.3,-0.3,0.2,34.07307579760101,77.52291694068691,-20.449580302748505,10.280599080124704,-15.173630208101184,56.67270039173826,2.8097121053605867,1.3424444909606872,-2.3854803295030393,,,,,,,,,,,,,,,,,auto,85.0,True,0,False,-10.0,15.0,0.0,-10.0,80.51570405751454,3.922646521006761
1760897737.0217798,12.171894311904907,42.04357422057567,74.57708991721275,24.472076733406972,10.107200802431786,-24.562042786878784,-0.8365615993212105,-1.931533953229077,-1.7299236643265588,0.6942731316692685,,,,,,,,,,,0.42000000000000004,0.3,0.3,-0.2,38.47372390016295,74.24948973579134,-17.495905079772474,-4.05681500213815,-44.89751871528457,15.99185354147546,-2.712019297117192,-1.117930878538534,2.1066824289196786,,,,,,,,,,,,,,,,,auto,85.0,True,0,False,-10.0,15.0,0.0,-10.0,78.23164981471005,3.6114995463719617
