timestamp,simulation_time,position_x,position_y,position_z,velocity_x,velocity_y,velocity_z,attitude_roll,attitude_pitch,attitude_yaw,angular_velocity_x,angular_velocity_y,angular_velocity_z,acceleration_x,acceleration_y,acceleration_z,motor_speed_1,motor_speed_2,motor_speed_3,motor_speed_4,control_throttle,control_roll,control_pitch,control_yaw,estimated_position_x,estimated_position_y,estimated_position_z,estimated_velocity_x,estimated_velocity_y,estimated_velocity_z,estimated_attitude_roll,estimated_attitude_pitch,estimated_attitude_yaw,sensor_accel_x,sensor_accel_y,sensor_accel_z,sensor_gyro_x,sensor_gyro_y,sensor_gyro_z,sensor_gps_x,sensor_gps_y,sensor_gps_z,sensor_gps_vx,sensor_gps_vy,sensor_gps_vz,sensor_baro_altitude,sensor_mag_x,sensor_mag_y,sensor_mag_z,flight_mode,battery_level,gps_fix,waypoint_index,mission_complete,setpoint_altitude,setpoint_position_x,setpoint_position_y,setpoint_position_z,position_error,attitude_error
1760882362.173534,0.10659122467041016,-9.648388013528494e-14,5.977060226847477e-14,0.05566007952339455,-3.5337188757335607e-12,1.9098122463340725e-12,1.0430753817681238,2.021534600362728e-06,4.739595019829319e-06,-8.086137833203684e-08,,,,,,,,,,,0.0,-0.00387968964872755,1.0,0.20478007543302146,-4.680753787728776e-05,3.765296969093573e-05,-0.8764888519951725,-0.0006958537400752177,0.0005876336397450837,0.8393821731428063,0.00045467534866753135,-0.003374038299880214,-0.08736688052867791,,,,,,,,,,,,,,,,,auto,85.0,True,0,False,-10.0,15.0,0.0,-10.0,17.556761087897545,0.08743318979331603
1760882362.2819932,0.21505045890808105,-1.4745655592701793e-12,5.767762689091674e-13,0.2246492741547574,-2.7050513272243297e-11,8.334600245124626e-12,2.083807266456061,3.769467993666389e-06,1.8349430750663982e-05,-1.507786785566161e-07,,,,,,,,,,,0.0,-0.08279305825618447,1.0,-0.2906168829213268,0.19391983448287958,-0.2188438199463439,0.10363004906174307,-0.012240064593490056,0.016831393816645418,1.9026101135778395,-0.0031731620058328106,-0.006102773062046102,0.14015484002701997,,,,,,,,,,,,,,,,,auto,85.0,True,0,False,-10.0,15.0,0.0,-10.0,17.926272413793995,0.14032352610721288
1760882362.3890007,0.32205796241760254,-7.297133487983103e-12,1.9724405458151e-12,0.5031022419957241,-8.964051786328545e-11,1.817222353093255e-11,3.0898310719138506,5.0686540642098055e-06,4.073916704616179e-05,-2.027460407021909e-07,,,,,,,,,,,0.0,-0.0675216446427113,1.0,0.13576540247217067,0.1925928903748413,-0.21685629384241534,0.35310664782779166,-0.012397858169127085,0.01993819687442554,2.9135699368582095,-0.0010834636431979266,-0.0034334385071569783,-0.06839066297158941,,,,,,,,,,,,,,,,,auto,85.0,True,0,False,-10.0,15.0,0.0,-10.0,18.06912142921323,0.06848536467846317
1760882362.498214,0.4312713146209717,-2.390156523246131e-11,4.569668023544122e-12,0.8943864006162341,-2.2837173694842909e-10,2.840854362099709e-11,4.067173485852067,2.346471543603489e-06,7.314486749772204e-05,-9.385868195968354e-08,,,,,,,,,,,0.0,0.08425050766666466,1.0,-0.07341780540616606,-0.16207673319195523,-0.02432870796333594,0.85019460974041,-0.008396766689839736,0.0416557328146876,3.913980883742571,0.0019120706006965195,0.0019297208622823902,0.033594858596864306,,,,,,,,,,,,,,,,,auto,85.0,True,0,False,-10.0,15.0,0.0,-10.0,18.644459922949547,0.03370451543534907
1760882362.6072502,0.5403075218200684,-5.871522617564053e-11,7.709397890246647e-12,1.3885530300306335,-4.258854937630519e-10,2.7506994644179362e-11,4.98699514615369,-2.030766453600965e-06,0.00011527652909922946,8.123063762893525e-08,,,,,,,,,,,0.0,-0.022679338113349514,1.0,-0.07805000179644778,0.3177471353564818,-0.1372179247539784,1.1019954725989638,-0.0042811286621090225,0.02728797456060835,4.845531014766628,0.002485636324548094,0.00741974642053834,0.05304986814952463,,,,,,,,,,,,,,,,,auto,85.0,True,0,False,-10,15.0,0.0,-10.0,18.40765279479745,0.05362387094909274
1760882362.7168932,0.6499505043029785,-1.208021760942754e-10,1.028072811858889e-11,1.9831222035177316,-7.197291089618189e-10,1.812699119260927e-11,5.847192047077935,-5.748295295636479e-06,0.00016695267262376937,2.2993130559736873e-07,,,,,,,,,,,0.0,-0.043801872363998115,1.0,0.09584893879553318,0.31722481477763154,-0.1341381706439463,1.694911627903334,-0.00532102500488129,0.028568217490261817,5.7125257919495525,0.00409617906234435,0.006893139674265007,-0.04237445606468802,,,,,,,,,,,,,,,,,auto,85.0,True,0,False,-10,15.0,0.0,-10.0,18.771596580287838,0.043126425591021214
1760882362.8257418,0.7587990760803223,-2.1892057786591487e-10,1.1358809268796498e-11,2.6595645118080173,-1.1100125151368762e-09,3.015080384447405e-13,6.6281100750772906,-1.0006350199713374e-05,0.00022701240678290374,4.002526517626344e-07,,,,,,,,,,,0.0,0.13677402876258987,1.0,-0.05044079761348194,-0.12966599316861369,0.26029680373992353,2.150885675198589,0.02186503888322266,0.039761773575064406,6.555554501245404,-0.002336810615014698,0.0064199464331356065,0.024435132205188156,,,,,,,,,,,,,,,,,auto,85.0,True,0,False,-10,15.0,0.0,-10.0,19.406663035736624,0.02537226994062217
1760882362.9336872,0.8667445182800293,-3.6638026647099004e-10,1.003522543063311e-11,3.4175597245682283,-1.626760937166868e-09,-2.601234415063908e-11,7.338516810637171,-1.4499754680175204e-05,0.0002961925216554436,5.799875564372219e-07,,,,,,,,,,,0.0,-0.03898603928505154,1.0,0.08435697863748863,-0.2480072924615503,-0.1632596180675276,3.1662172121025525,-0.004252386485791902,0.03108702079754024,7.308465688695618,-0.004730967675508416,0.001373736802468986,-0.05924444452746783,,,,,,,,,,,,,,,,,auto,85.0,True,0,False,-10,15.0,0.0,-10.0,20.14640552977423,0.05944891433253744
1760882363.0426316,0.9756889343261719,-5.762690261404824e-10,5.3214518957419274e-12,4.248577113255064,-2.264935229259699e-09,-6.272558001351466e-11,7.97741199663899,-2.0485701641862267e-05,0.0003744511372375111,8.194235011090826e-07,,,,,,,,,,,0.0,-0.02237844353184109,1.0,0.22712347131106286,-0.24846572219879415,-0.15995394211135205,4.435438278876146,-0.0035000733801063026,0.02973321948961746,7.953360828049279,-0.006308008834028203,-0.004418852114446767,-0.11399349413607981,,,,,,,,,,,,,,,,,auto,85.0,True,0,False,-10,15.0,0.0,-10.0,20.998170645270772,0.11425337603244813
1760882363.1502066,1.083263874053955,-8.642641352744305e-10,-4.124439362607039e-12,5.142112565984882,-3.0727104170614554e-09,-1.1390120874778541e-10,8.545090558168251,-2.8845649915813382e-05,0.00046174816489775875,1.1538185980903843e-06,,,,,,,,,,,0.0,-0.17068633279487766,1.0,0.11700724904913644,-0.26221571620498574,-0.580788252954048,4.962107227913907,-0.028887376205450992,0.0016124596458472569,8.560795121705759,-0.005851554623388811,-0.013522502340782588,-0.06728852736816593,,,,,,,,,,,,,,,,,auto,85.0,True,0,False,-10,15.0,0.0,-10.0,21.380766970862798,0.06888283295889759
1760882363.2609046,1.1939618587493896,-1.2542259383747039e-09,-2.037621827134601e-11,6.112467350692486,-4.017645513542382e-09,-1.8405568510430788e-10,9.056222435382754,-4.109643893092319e-05,0.0005602702617633263,1.643845714785639e-06,,,,,,,,,,,0.0,-0.19303794380077316,1.0,-0.060535456947801686,-0.3208491693166018,-0.6917672717950546,5.862241532701282,-0.01774460942157545,0.06593932953369265,9.028019137356853,-0.006811666950861259,-0.01408572692027142,0.021103171769774845,,,,,,,,,,,,,,,,,auto,85.0,True,0,False,-10,15.0,0.0,-10.0,22.063944970676246,0.026270713128244853
1760882363.3694358,1.3024930953979492,-1.7447853533234133e-09,-4.5045842238360714e-11,7.115059280100838,-5.178831467579965e-09,-2.8420409134659915e-10,9.495545547572794,-5.564718591978307e-05,0.0006660172657729103,2.2258690640359626e-06,,,,,,,,,,,0.0,-0.5435608811850517,1.0,0.1443551314028313,0.22300725082164427,-1.5728208181104608,6.799997026596469,-0.05358986673510494,0.0528800052426692,9.448969914411938,-0.003973329359007545,-0.010166022599863106,-0.053991606848051876,,,,,,,,,,,,,,,,,auto,85.0,True,0,False,-10,15.0,0.0,-10.0,22.429292903005248,0.05508383584801154
1760882363.4761908,1.4092481136322021,-2.3862531105759664e-09,-8.368015206716093e-11,8.159425873442952,-6.7124808912215534e-09,-4.3634341221819773e-10,9.877888569384845,-7.76427742829138e-05,0.0007821639257011986,3.105682907013411e-06,,,,,,,,,,,0.0,-0.4639392583316009,1.0,-0.08741285599027944,0.21759990768997106,-1.5672004406719304,8.203659138741488,-0.046191587023156046,0.052317115199227826,9.836543854026273,-0.0021273137937734402,-0.00800594414234935,0.054203872626729384,,,,,,,,,,,,,,,,,auto,85.0,True,0,False,-10,15.0,0.0,-10.0,23.50209939026419,0.054833205389821046
1760882363.5847058,1.5177631378173828,-3.2056977496624167e-09,-1.416929192826866e-10,9.249882613001617,-8.401239859982627e-09,-6.411355168176737e-10,10.21182496777395,-0.0001079245351786565,0.0009099397699568127,4.316938425242295e-06,,,,,,,,,,,0.0,-0.3472808911368211,1.0,0.019848963553958206,0.2991341169642962,-1.338399798778699,9.06069370683311,-0.052637881605821696,0.03104435579404928,10.182739771171526,-0.0032017786771726523,-0.013572375945538092,-0.01983018587251642,,,,,,,,,,,,,,,,,auto,85.0,True,0,False,-10,15.0,0.0,-10.0,24.108438695155712,0.024242463720570324
1760882363.693547,1.6266043186187744,-4.203627980868291e-09,-2.235977348244298e-10,10.377465759610491,-1.0079073080476469e-08,-8.895656577981847e-10,10.500727922243025,-0.00014407760455182903,0.0010481489262602977,5.763039075767895e-06,,,,,,,,,,,0.0,-0.34098947493000903,1.0,0.18059235029958834,0.2940465218745396,-1.3351029531946748,10.293548812140337,-0.04094217529711246,0.029502782650789674,10.474802455933714,-0.005255946544409385,-0.012095386956266883,-0.08275670512577618,,,,,,,,,,,,,,,,,auto,85.0,True,0,False,-10,15.0,0.0,-10.0,25.0973243790477,0.0838009284135575
1760882363.8012865,1.7343437671661377,-5.382200004894399e-09,-3.349798656228893e-10,11.522384587635567,-1.1878959087671396e-08,-1.1973869706104736e-09,10.74649663713583,-0.00018522304335100333,0.0011947203473303884,7.408825941602028e-06,,,,,,,,,,,0.0,-0.34582113532477016,1.0,0.14924568820149722,0.29022536927247183,-1.3321655175816833,11.270809031325172,-0.02954901573130706,0.025386553660806232,10.724500361572884,-0.005288604226156092,-0.013400033289417156,-0.055847499237858575,,,,,,,,,,,,,,,,,auto,85.0,True,0,False,-10,15.0,0.0,-10.0,25.895935038150938,0.057675587538758705
1760882363.9087577,1.8418149948120117,-6.7734929621820465e-09,-4.849492957753131e-10,12.688908608177211,-1.3919020859334462e-08,-1.58646127679824e-09,10.956641177886127,-0.0002317590305690058,0.0013507865927338376,9.270224199648697e-06,,,,,,,,,,,0.0,-0.18803394141780544,1.0,0.10685151412745192,1.0148583844034065,-0.8288539441805403,12.46333272733921,0.00659043265410439,0.0009223744122583716,10.939190394620393,0.0004163105747958917,-0.012688746286457954,-0.05148248624664385,,,,,,,,,,,,,,,,,auto,85.0,True,0,False,-10,15.0,0.0,-10.0,26.47399671542293,0.05302474881555462
1760882364.015734,1.948791265487671,-8.37487642415615e-09,-6.780916798271897e-10,13.870827286786088,-1.6058692542519434e-08,-2.0389221535382077e-09,11.13550153783323,-0.0002821394934552803,0.0015153885542790297,1.1285389265850295e-05,,,,,,,,,,,0.0,-0.3133106652246826,1.0,-0.00804519757491086,0.03099429299899493,-1.1574365437972993,13.692963807614046,-0.022144506200943652,0.0006355622836899689,11.182363800799415,-0.005324565288620986,-0.015522898398670847,0.008407314979271996,,,,,,,,,,,,,,,,,auto,85.0,True,0,False,-10,15.0,0.0,-10.0,28.049372991174955,0.018438934767739067
1760882364.123242,2.0562992095947266,-1.0241806716269248e-08,-9.28425218489017e-10,15.076443391697877,-1.8659980357473804e-08,-2.6242597669058823e-09,11.288802879146706,-0.00033847330377632977,0.0016905793654602333,1.3538673471711831e-05,,,,,,,,,,,0.0,-0.3602141164073267,1.0,0.054066301721673815,0.7731454384503625,-1.3595921472602661,14.895256519760599,0.0058664056325289605,-0.07200640068593114,11.285398785441764,-0.008156041521345195,-0.016416120619718796,-0.02257704317111238,,,,,,,,,,,,,,,,,auto,85.0,True,0,False,-10,15.0,0.0,-10.0,28.705847465404332,0.029081487373401924
1760882364.2320545,2.165111780166626,-1.2431023064686965e-08,-1.2523352069852321e-09,16.306253093975904,-2.1691719270808523e-08,-3.3510528241771588e-09,11.420084445474703,-0.0004027582870171325,0.0018775347025379654,1.6109986587561987e-05,,,,,,,,,,,0.0,-0.36158376793347546,1.0,-0.04871189441695606,0.7746049982478542,-1.3677185914389796,16.48009192102542,0.021501208736252022,-0.07765591775419907,11.418986705223166,-0.006641325839488571,-0.015843192676777192,0.008180099808712475,,,,,,,,,,,,,,,,,auto,85.0,True,0,False,-10,15.0,0.0,-10.0,30.09032710435695,0.01902703329424329
1760882364.3390374,2.2720947265625,-1.4907338372687463e-08,-1.6503062823909226e-09,17.54003881145466,-2.466419082814569e-08,-4.125904611506409e-09,11.530665266392118,-0.00047249497797641183,0.0020730073837310755,1.889934812510128e-05,,,,,,,,,,,0.0,-0.37367531068877125,1.0,0.21254102950439543,0.7778717727732568,-1.3762395972546189,17.556187915613048,0.039130090129800836,-0.0811831441805243,11.531137530288694,-0.003648606125245837,-0.0144648351369521,-0.1076384379499954,,,,,,,,,,,,,,,,,auto,85.0,True,0,False,-10,15.0,0.0,-10.0,31.04040043526033,0.1086672770732358
1760882364.4454849,2.378542184829712,-1.7686534701797107e-08,-2.132058096202662e-09,18.772528286929155,-2.7605662232354575e-08,-4.946594000888822e-09,11.62355835228795,-0.0005475206345403568,0.0022763704499619464,2.190024631979885e-05,,,,,,,,,,,0.0,0.27857297900720074,1.0,0.12402664854591607,0.20403703802372442,0.04127249714012904,18.580908336175224,-0.003914188315372637,-0.0018392000689809729,11.571916598572246,-0.006337142922846378,-0.009375489643921554,-0.05646215377915609,,,,,,,,,,,,,,,,,auto,85.0,True,0,False,-10,15.0,0.0,-10.0,32.18369998480666,0.057585015376128305
1760882364.5533128,2.486370086669922,-2.083712962238747e-08,-2.715798097393988e-09,20.030289532329316,-3.081494745581072e-08,-5.883188825836003e-09,11.703264732356862,-0.0006228927792271257,0.002491965373113045,2.4914976721787056e-05,,,,,,,,,,,0.0,0.10113742734356614,1.0,-0.05956063600839147,0.2042384033830558,0.04082561170258161,20.097279838557267,0.00901097178443579,-0.006069432771486003,11.65410418030144,-0.004215955753546321,-0.010863393777960436,0.051862481061605945,,,,,,,,,,,,,,,,,auto,85.0,True,0,False,-10,15.0,0.0,-10.0,33.53747876085681,0.0531554752509685
1760882364.6620722,2.5951294898986816,-2.4332899422501527e-08,-3.40144707942949e-09,21.300954543509302,-3.385021724473854e-08,-6.808583496811961e-09,11.770872708451753,-0.0006962185329596061,0.0027176521738459425,2.7847824724181403e-05,,,,,,,,,,,0.0,0.046688195709240154,1.0,-0.2183252850648188,0.20588255766523061,0.04004367296074822,21.146982277039672,0.02173191990836328,-0.008715749423411308,11.723096669111273,-0.00429379347162705,-0.008671102886979375,0.11743511987524591,,,,,,,,,,,,,,,,,auto,85.0,True,0,False,-10,15.0,0.0,-10.0,34.48190858058123,0.11783306865123622
1760882364.7691274,2.7021846771240234,-2.815184540130261e-08,-4.188136784480474e-09,22.57019558210728,-3.766319870488529e-08,-7.951997352125157e-09,11.827584913464227,-0.0007673554230689633,0.0029509139556794122,3.069309283265281e-05,,,,,,,,,,,0.0,0.6653588255870795,1.0,0.0063590264848310705,-0.04705306496989331,1.5965356598420004,22.69600270396202,0.008412745455303048,-0.06656527561728706,11.7215269331685,-0.0019713075389989217,-0.015293292173178564,0.0030580036439161722,,,,,,,,,,,,,,,,,auto,85.0,True,0,False,-10,15.0,0.0,-10.0,36.02764667405656,0.015720121665996206
1760882364.8756642,2.8087215423583984,-3.240858099653543e-08,-5.106996133523346e-09,23.832867641678295,-4.174345358968329e-08,-9.164802807798804e-09,11.87503078063603,-0.0008316894409856159,0.0031922842698860797,3.3266222437337785e-05,,,,,,,,,,,0.0,0.12870822633988002,1.0,-0.14651110290026498,-0.3913468792898647,0.5612619567493926,23.641254106043238,0.03387603565625265,-0.02406137211102599,11.791133560541384,-0.00047058600106869206,-0.012202404683851618,0.0744515708148793,,,,,,,,,,,,,,,,,auto,85.0,True,0,False,-10,15.0,0.0,-10.0,36.99922366172149,0.0754463818089103
1760882364.9838147,2.916872024536133,-3.712214198654556e-08,-6.157633372971729e-09,25.119418279985922,-4.545479595745304e-08,-1.026925458888178e-08,11.91566929398266,-0.0008940901142434159,0.003446431240200236,3.5761989496609505e-05,,,,,,,,,,,0.0,0.14753080184130207,1.0,-0.014781301068276267,-0.38680903949041506,0.5585384298022344,25.033506891525505,0.04951742806217534,-0.025985470589013075,11.833578505016016,-0.002391503974039882,-0.009059594187181722,0.0103519271662902,,,,,,,,,,,,,,,,,auto,85.0,True,0,False,-10,15.0,0.0,-10.0,38.26764250269247,0.013962733763502133
1760882365.0926828,3.025740146636963,-4.229627284227008e-08,-7.340830625882873e-09,26.418583133944928,-5.010767961835847e-08,-1.1593650240730031e-08,11.950100404569373,-0.000954212578155475,0.0037115662384661504,3.8166600843149425e-05,,,,,,,,,,,0.0,0.30884327437205455,1.0,-0.04706481627066037,-0.4868056165675053,1.0100212855048567,26.177199308110904,0.036830160968428435,0.051839788600929575,11.896428733811847,0.0006511562751379687,-0.0016968201095402123,0.03298567397370081,,,,,,,,,,,,,,,,,auto,85.0,True,0,False,-10,15.0,0.0,-10.0,39.365607336624436,0.03303570629603784
1760882365.2010565,3.1341137886047363,-4.793497227540431e-08,-8.656764389693244e-09,27.70891155491182,-5.4774794139143306e-08,-1.28829737286864e-08,11.978798928480266,-0.0010086038679647893,0.003984083434390967,4.034194341911725e-05,,,,,,,,,,,0.0,0.2931763894486285,1.0,-0.019813293073420432,-0.4825202301695356,1.0155594331705626,27.66450744067216,0.042102764725749454,0.0509444904927769,11.924408488137285,-0.0020376233702071446,0.0018578704037614524,0.014922455095531584,,,,,,,,,,,,,,,,,auto,85.0,True,0,False,-10,15.0,0.0,-10.0,40.73518030386461,0.015175086738274139
1760882365.3080826,3.2411398887634277,-5.4064409787678915e-08,-1.010634922620072e-08,28.99864335741165,-5.914575741070132e-08,-1.4049897016442149e-08,12.002898139529595,-0.0010602897482213088,0.004265402830075259,4.2409047244596866e-05,,,,,,,,,,,0.0,-0.05826047118268904,1.0,0.1627218569764402,-1.0331653504412424,0.029665921647741986,28.869155174469945,0.03399681214220479,0.03656292422288515,12.006586582955432,-0.004354421673104614,0.002042679358749328,-0.082259989950326,,,,,,,,,,,,,,,,,auto,85.0,True,0,False,-10,15.0,0.0,-10.0,42.04609964311221,0.08240048224189953
1760882365.4160578,3.3491151332855225,-6.064971023392135e-08,-1.1675415974266226e-08,30.28971015882166,-6.347499174266372e-08,-1.5159676874569036e-08,12.023171696812168,-0.0011125517244054682,0.004555354643962231,4.4499171349413915e-05,,,,,,,,,,,0.0,-0.01731679968567717,1.0,0.07539657524150743,-0.6856613406252376,0.007036222279982666,30.471752470697542,-0.025231827640189164,0.011009175125569589,12.026615374148443,-0.0070254978565358625,0.0019539641611407517,-0.0440475730112226,,,,,,,,,,,,,,,,,auto,85.0,True,0,False,-10,15.0,0.0,-10.0,43.405100728492975,0.044647108352660406
1760882365.5223148,3.4553720951080322,-6.767966051626665e-08,-1.3356617585301593e-08,31.56798913243746,-6.862093945795832e-08,-1.6421549030050606e-08,12.040057888998234,-0.001162082601357663,0.004851033665242528,4.6480031687853685e-05,,,,,,,,,,,0.0,0.23418637991165164,1.0,0.1619255143976297,-0.18653498057229045,0.7231802868806756,31.23537172515103,-0.039631742438273956,0.0024526289478390977,12.071359325905107,-0.0037041907761008602,-0.0024141186892539528,-0.09005061404101568,,,,,,,,,,,,,,,,,auto,85.0,True,0,False,-10,15.0,0.0,-10.0,43.94894442139496,0.09015909320482059
1760882365.6303227,3.563380002975464,-7.543633714788663e-08,-1.521194058550077e-08,32.87549929765878,-7.410269362675913e-08,-1.7706602366860025e-08,12.0545770940797,-0.001208678734878289,0.005162499442532683,4.83434706815748e-05,,,,,,,,,,,0.0,0.03791948027111023,1.0,0.1390821161398494,-0.07140332737991115,0.2835693005599247,32.82385267303163,-0.058110947361922474,-0.005386369415537973,12.047386294799775,-0.003975197617563723,0.0008198071219625415,-0.07432989359909356,,,,,,,,,,,,,,,,,auto,85.0,True,0,False,-10,15.0,0.0,-10.0,45.39944897866379,0.0744406297815143
1760882365.7388296,3.671886920928955,-8.377115524488242e-08,-1.7199313258254183e-08,34.18418504190191,-7.957503265859258e-08,-1.8925995847273083e-08,12.066770018389718,-0.0012535176404044903,0.005483207718487721,5.013659752390912e-05,,,,,,,,,,,0.0,-0.07567785678575638,1.0,0.14473215013516066,-0.5001684759915511,-0.06900727962796407,33.77683753548901,-0.05646985844357919,-0.011179840386919715,12.029463273768108,-0.005395910986144116,-0.002028652393265392,-0.05389575547453079,,,,,,,,,,,,,,,,,auto,85.0,True,0,False,-10,15.0,0.0,-10.0,46.43997727602118,0.05420317097802958
1760882365.8476732,3.7807304859161377,-9.273447534797781e-08,-1.9323794225129474e-08,35.498150470437984,-8.510677540176962e-08,-2.0096998254233753e-08,12.077038935287487,-0.001299204505107654,0.00581421436798428,5.1963618003163134e-05,,,,,,,,,,,0.0,-0.11450228588411666,1.0,0.14966480732060772,-0.4213452978773783,-0.2429331793010272,35.39504948403994,-0.050757669808571194,-0.006802571687866706,12.052666405843587,-0.000564276711818182,0.0024136580405716293,-0.06983796334967399,,,,,,,,,,,,,,,,,auto,85.0,True,0,False,-10,15.0,0.0,-10.0,47.94358585863603,0.0698819381397992
1760882365.9577575,3.890814781188965,-1.0236070372276519e-07,-2.1586946978233245e-08,36.82203331224631,-9.06217492512797e-08,-2.1207783693624627e-08,12.08571029234826,-0.0013463577369140778,0.006156630969669307,5.384926487776805e-05,,,,,,,,,,,0.0,-0.074016518005646,1.0,-0.18840916242983835,-0.42678531474906267,-0.2438528547984866,36.95001364381192,-0.04931947585761411,-0.00936571351759379,12.061887339777998,-0.0035150190744870228,0.005370310782541515,0.1176968377175287,,,,,,,,,,,,,,,,,auto,85.0,True,0,False,-10,15.0,0.0,-10.0,49.4201269779457,0.11787171503673548
1760882366.065945,3.99900221824646,-1.1253937441529902e-07,-2.395639717516535e-08,38.13606175161971,-9.670044910469587e-08,-2.2389181883720533e-08,12.092924190280867,-0.0013932564118910933,0.006505391093436347,5.572470761710179e-05,,,,,,,,,,,0.0,0.18182933727263095,1.0,0.1150044026135857,0.11993790652383303,0.3029360258749338,38.16339149922132,-0.10015043788513271,0.0004323202729996094,12.034721456951578,-0.0045935605480567805,0.00448445138864605,-0.04422954574121328,,,,,,,,,,,,,,,,,auto,85.0,True,0,False,-10,15.0,0.0,-10.0,50.41051774033613,0.04469299519208654
1760882366.1722271,4.1052844524383545,-1.2317840538922986e-07,-2.6404846418099176e-08,39.4216489364229,-1.0316377108627896e-07,-2.3604306133794488e-08,12.09885532104278,-0.0014372980578292824,0.006855514766910248,5.7485855022424975e-05,,,,,,,,,,,0.0,0.10943688808381008,1.0,0.03371370795547861,0.10952149703810009,0.3027393595268472,39.64405262367763,-0.09492968381904243,-0.0038428766330943316,12.040986131600846,-0.0019068133766888963,-0.0006745540560861704,-0.003955391696276571,,,,,,,,,,,,,,,,,auto,85.0,True,0,False,-10,15.0,0.0,-10.0,51.83001024570081,0.004442531249082629
1760882366.2799885,4.213045835494995,-1.346204983777399e-07,-2.9006436067215934e-08,40.725718874598805,-1.0929880289646682e-07,-2.469229584505638e-08,12.103915714032759,-0.0014807475975590235,0.007219345231922692,5.922328597781429e-05,,,,,,,,,,,0.0,-0.20908903239999005,1.0,-0.35112724955099195,-0.4639004632162998,-0.33911850564261614,40.594063713684726,-0.023029671259007498,-0.025455002043569142,12.05184128249147,0.0009098973638699647,-0.0026424987466294484,0.16351824958828454,,,,,,,,,,,,,,,,,auto,85.0,True,0,False,-10,15.0,0.0,-10.0,52.90563771434496,0.16354213115052413
1760882366.3886092,4.321666479110718,-1.4685083900261778e-07,-3.175026025132425e-08,42.04069342910803,-1.1588125192298819e-07,-2.5817546803980666e-08,12.108199338132863,-0.0015252560351243223,0.007595081251939924,6.1003042416231286e-05,,,,,,,,,,,0.0,-0.11344405248580386,1.0,-0.25644090052800894,-0.4657685751573411,-0.3416896768067445,42.05378875953129,-0.010686503833402843,-0.023373627734279825,12.055820026299502,-0.00486754888489603,-0.008280144848692517,0.13748747154980837,,,,,,,,,,,,,,,,,auto,85.0,True,0,False,-10,15.0,0.0,-10.0,54.30380901628786,0.13782256224588754
1760882366.496809,4.429866313934326,-1.597500840815807e-07,-3.460334831351213e-08,43.35099801741767,-1.226464305831635e-07,-2.693059743815967e-08,12.111781228283851,-0.0015708932366816806,0.0079783165738814,6.28279243521994e-05,,,,,,,,,,,0.0,-0.10967981497088648,1.0,0.06718351184128385,0.27918902990093186,-0.36816455046701513,43.1665367984775,-0.0009329474238971031,0.010609533092655814,12.090083760014956,-0.00445431801952278,-0.011790249998176442,-0.02673069597554151,,,,,,,,,,,,,,,,,auto,85.0,True,0,False,-10,15.0,0.0,-10.0,55.16809273391162,0.02955302101943854
1760882366.6045911,4.537648439407349,-1.7335474938728538e-07,-3.7568109014397265e-08,44.65659773649634,-1.298900533975275e-07,-2.8093262202615657e-08,12.114778220531269,-0.0016168631311090974,0.008369038899945924,6.466608782367903e-05,,,,,,,,,,,0.0,0.08410816688110298,1.0,0.0726432759943174,0.6006582961807484,0.1438154099886501,44.437227552437285,-0.036974609736653494,-0.006599700558164223,12.11283312213786,-0.005275279566075088,-0.011720579342249066,-0.025477998106729405,,,,,,,,,,,,,,,,,auto,85.0,True,0,False,-10,15.0,0.0,-10.0,56.309621451145766,0.02853644936120666
1760882366.7146327,4.647690057754517,-1.880771977440636e-07,-4.072690320632698e-08,45.98987292059759,-1.3763123843642336e-07,-2.9297471892664295e-08,12.117344559648217,-0.0016610579116854757,0.008777318351960911,6.643320440262348e-05,,,,,,,,,,,0.0,0.18138620166230673,1.0,-0.02042573106867319,0.4510543115382443,0.5699174241360984,45.803105956901945,0.02861049821210037,0.0012560070219831874,12.077713369668128,0.0006872111891400456,-0.01126741117504432,0.002407237474516516,,,,,,,,,,,,,,,,,auto,85.0,True,0,False,-10,15.0,0.0,-10.0,57.67133829688166,0.011542166437229606
1760882366.822463,4.755520343780518,-2.0335508402365842e-07,-4.3952576758898905e-08,47.29660664554184,-1.4551824031471971e-07,-3.0480681520240894e-08,12.119453370406134,-0.0017011593103639692,0.009186613489794437,6.803657195586891e-05,,,,,,,,,,,0.0,0.15031611844980955,1.0,0.08792800039325696,0.4551961050600926,0.5701655596951223,47.12705053399782,0.048213863574400384,0.003893396988792427,12.077957991791836,0.0025992260559161927,-0.01031732972404602,-0.047140859172943646,,,,,,,,,,,,,,,,,auto,85.0,True,0,False,-10,15.0,0.0,-10.0,58.952322361563176,0.048326637295468246
1760882366.932205,4.865262269973755,-2.197378730051909e-07,-4.735423962135303e-08,48.62055627787742,-1.5395983723527807e-07,-3.170277916911639e-08,12.121246019853668,-0.0017386701873907946,0.009610632021828436,6.953628371257684e-05,,,,,,,,,,,0.0,-0.07479463333607166,1.0,-0.15426562434141014,0.7994991617977857,0.08458905956692465,48.304437918984355,-0.012381712894124168,0.006120987752641977,12.1597702737056,0.0039622988502500895,-0.0063967210319483565,0.0752306875318284,,,,,,,,,,,,,,,,,auto,85.0,True,0,False,-10,15.0,0.0,-10.0,60.008906509063145,0.07560604604560978
1760882367.0399098,4.972967147827148,-2.3689731287300001e-07,-5.0855885685692846e-08,49.93232076862954,-1.6369783194920776e-07,-3.309682139984693e-08,12.122735606211839,-0.0017774206571774655,0.010040034524516657,7.108556044807415e-05,,,,,,,,,,,0.0,-0.37514836498548376,1.0,0.08393133898244473,0.3420689073931542,-0.7794910050772524,49.76961797534856,-0.002982278709270036,0.03624596493585618,12.149738888933854,0.006431344334883813,-0.008764264675369489,-0.05668642942592617,,,,,,,,,,,,,,,,,auto,85.0,True,0,False,-10,15.0,0.0,-10.0,61.54567233414317,0.05771937115314303
1760882367.1479766,5.081033945083618,-2.54951228984937e-07,-5.447488764100871e-08,51.23633607599105,-1.7186368623870175e-07,-3.416446649716539e-08,12.123979428095456,-0.0018202043383013585,0.010476304572131981,7.27961417680317e-05,,,,,,,,,,,0.0,-0.07382805513955196,1.0,0.06647649188429036,-0.03073650069158618,-0.17826764360758338,51.284552463957645,0.0142063873106903,0.02820436786327309,12.153581737689247,0.00563411702361386,-0.0015439058386756673,-0.04399971102708333,,,,,,,,,,,,,,,,,auto,85.0,True,0,False,-10,15.0,0.0,-10.0,63.101118768319445,0.044385825331307194
1760882367.2555828,5.188640117645264,-2.7391869241146576e-07,-5.821269834198727e-08,52.540991643634065,-1.815441069610966e-07,-3.545109532763058e-08,12.125025001700552,-0.0018650513137633661,0.010921747610156728,7.45892237864558e-05,,,,,,,,,,,0.0,-0.26734067939476996,1.0,0.04518612191495666,0.23664893872749507,-0.7543518960028873,52.53919206457921,0.0393653799694373,0.020018535729596085,12.140994706107945,0.002109664908189182,-0.009098899705603734,-0.03320700552836729,,,,,,,,,,,,,,,,,auto,85.0,True,0,False,-10,15.0,0.0,-10.0,64.26255616944992,0.03449559215375925
1760882367.363557,5.296614408493042,-2.939796401229225e-07,-6.209733194535298e-08,53.84999452797478,-1.9077091803122865e-07,-3.6623491210016146e-08,12.125906303545637,-0.0019139337231376967,0.011378030788715696,7.6543686684898e-05,,,,,,,,,,,0.0,-0.3880272128099181,1.0,-0.07273704178420087,0.12652560887435813,-1.1469996319589473,53.472650815696554,0.03304732184519969,0.028474489204082885,12.124820276943082,0.001332922843042279,-0.007570394346433406,0.048264573158513235,,,,,,,,,,,,,,,,,auto,85.0,True,0,False,-10,15.0,0.0,-10.0,65.20209544324882,0.04887286134491709
1760882367.4724832,5.405540466308594,-3.153869891929817e-07,-6.617004655097292e-08,55.17104856337715,-2.0350418563723938e-07,-3.835279259087604e-08,12.126652381760215,-0.001968757315808044,0.011848318590063713,7.873575089757086e-05,,,,,,,,,,,0.0,-0.41815901884932266,1.0,0.1029054221345172,0.01752807437094328,-1.2861260724427686,55.488895555278894,0.05195526627785497,0.04326997359998451,12.136820504750167,0.001283634756359727,-0.010480468480800904,-0.060353751690183796,,,,,,,,,,,,,,,,,auto,85.0,True,0,False,-10,15.0,0.0,-10.0,67.19318437406214,0.06127041113657685
1760882367.5818374,5.514894723892212,-3.3824980242518245e-07,-7.044330068459517e-08,56.497248584204264,-2.1368305180422162e-07,-3.9641809847666826e-08,12.127280379430287,-0.0020307909652945142,0.012330962340901145,8.121616921499459e-05,,,,,,,,,,,0.0,-0.14922868901622488,1.0,-0.09480935003611399,0.37236322423721285,-0.6046237723193378,56.48277292609555,0.06406484148471527,0.04339276076003333,12.183218277470308,0.008573063907043318,-0.007695365417398296,0.040264414822787004,,,,,,,,,,,,,,,,,auto,85.0,True,0,False,-10,15.0,0.0,-10.0,68.07563751807606,0.04188005700429511
1760882367.6897006,5.622757911682129,-3.6192132108646473e-07,-7.480298957873837e-08,57.81149162054823,-2.2319780755694362e-07,-4.082026948150006e-08,12.127802289033992,-0.0020954810601431085,0.012818522385516184,8.38028047638291e-05,,,,,,,,,,,0.0,-0.14982963339010105,1.0,-0.015006726801829528,0.38043243915437935,-0.5993122605895534,57.929641304208296,0.08543752013111518,0.05308234386214319,12.184589396625544,0.0023371356541819622,-0.010703690094671266,-0.0015626682871061476,,,,,,,,,,,,,,,,,auto,85.0,True,0,False,-10,15.0,0.0,-10.0,69.48760392019734,0.011066757288580049
1760882367.7996566,5.732713937759399,-3.868584447857853e-07,-7.933303267320046e-08,59.138914395827335,-2.3239677889151224e-07,-4.194446714626879e-08,12.128244356505126,-0.002163669908509168,0.013320257123027842,8.652932785707554e-05,,,,,,,,,,,0.0,-0.0701439824810291,1.0,-0.19905515353650627,0.6003067287342052,-0.38213573427137315,59.09689963864023,0.12361694738163718,0.0523496602056985,12.148393355119675,0.002492715589579389,-0.009595179860471594,0.10009438586103422,,,,,,,,,,,,,,,,,auto,85.0,True,0,False,-10,15.0,0.0,-10.0,70.58242510496692,0.10058412990359333
1760882367.90798,5.841037273406982,-4.1263890749287833e-07,-8.395732762592516e-08,60.4588342152161,-2.414470884790948e-07,-4.3049170228757485e-08,12.12861281682133,-0.002232380347465054,0.01382819612373405,8.927666524996437e-05,,,,,,,,,,,0.0,-0.09666483156762204,1.0,-0.03942356087167116,0.6150112950433586,-0.3761363191137761,60.669566701557194,0.1473591199553254,0.058438569991805675,12.148681825252899,0.0022900386862442935,-0.00893409455564351,0.029138639948734273,,,,,,,,,,,,,,,,,auto,85.0,True,0,False,-10,15.0,0.0,-10.0,72.11974096152957,0.03056342030558176
1760882368.0150168,5.948074102401733,-4.389865737390089e-07,-8.862787192862618e-08,61.757059227769375,-2.506989447717325e-07,-4.4194596531428613e-08,12.128917154944984,-0.0023014320140383954,0.014336581081158739,9.203761398399734e-05,,,,,,,,,,,0.0,-0.08533694103528068,1.0,-0.05808075063895906,1.5077220668958224,-0.32846087330594076,61.57433024788307,0.1295053605106133,0.03799154253852723,12.17219460533496,0.0007871273336913563,-0.012764233593076468,0.03874131570004987,,,,,,,,,,,,,,,,,auto,85.0,True,0,False,-10,15.0,0.0,-10.0,72.83566571949797,0.04079748485910616
1760882368.1243026,6.057359933853149,-4.6695536034209035e-07,-9.353045708377383e-08,63.08259269595555,-2.616179569210386e-07,-4.560107071825343e-08,12.129177959661863,-0.0023727005295497827,0.01486470915932844,9.488715456523054e-05,,,,,,,,,,,0.0,-0.10043180211542066,1.0,0.20167065915532967,1.523508239360623,-0.32398601945154126,63.03159846994337,0.15997382510885919,0.04298680387858326,12.171896500159612,0.0028741871091146377,-0.01138899728495656,-0.10154314367889467,,,,,,,,,,,,,,,,,auto,85.0,True,0,False,-10,15.0,0.0,-10.0,74.26530261293233,0.10222025356497406
1760882368.2326334,6.165690660476685,-4.959870568946808e-07,-9.856270722055265e-08,64.39656743781629,-2.7387429891574376e-07,-4.7227016976140444e-08,12.129394692286148,-0.0024475213951485426,0.015397813978011474,9.787873788994138e-05,,,,,,,,,,,0.0,0.10807300452034162,1.0,-0.12901660793982256,0.8603739134093146,0.14463425071580477,64.36550327880666,0.08562642274513108,0.005671953860262771,12.226945231487955,0.005093952812734866,-0.013646659705393423,0.06393459675850836,,,,,,,,,,,,,,,,,auto,85.0,True,0,False,-10,15.0,0.0,-10.0,75.69793935666466,0.06557295432605005
1760882368.3420718,6.275129079818726,-5.265076192850339e-07,-1.0380066232818288e-07,65.72399957182587,-2.84021890201361e-07,-4.8518021848498706e-08,12.129578441378893,-0.002522243928403107,0.0159456964398797,0.00010086630983102426,,,,,,,,,,,0.0,0.0876220768984514,1.0,-0.017423173359003855,0.9798600364365051,0.27671260872459835,65.71835973711823,0.07639309960377622,0.026902215504241263,12.17193574704552,0.008794374203753477,-0.013191272019977702,0.014865214524503552,,,,,,,,,,,,,,,,,auto,85.0,True,0,False,-10,15.0,0.0,-10.0,77.00591468027235,0.021733045759860778
1760882368.451211,6.384268283843994,-5.580594969538622e-07,-1.0916637204820218e-07,67.0478207348101,-2.9424266208035806e-07,-4.9820281306778623e-08,12.129732011708038,-0.0025960772274768494,0.016501145051096885,0.00010381825077326095,,,,,,,,,,,0.0,0.06413683833568795,1.0,0.06472740742774184,0.9896922785795372,0.2802047150324952,67.1115710762292,0.10532965134927205,0.037556372599904804,12.173254351176977,0.007416953507188604,-0.011993688835657951,-0.0507484148681419,,,,,,,,,,,,,,,,,auto,85.0,True,0,False,-10,15.0,0.0,-10.0,78.37449604926061,0.05267125765389915
1760882368.5600214,6.493078708648682,-5.907057908302181e-07,-1.1466965104537123e-07,68.36766921275776,-3.0640586428929927e-07,-5.1424896505396474e-08,12.129860282805303,-0.0026698346316923515,0.017064036879281978,0.0001067670940410314,,,,,,,,,,,0.0,0.20232411229172326,1.0,-0.09694633114061998,1.66083576992655,0.668832957864706,68.12571622798893,0.08479577459397673,0.03611884440169264,12.139025662209113,0.008340122285284602,-0.014679646102260614,0.03335799447598194,,,,,,,,,,,,,,,,,auto,85.0,True,0,False,-10,15.0,0.0,-10.0,79.2591204595323,0.037387236389986866
1760882368.6666846,6.5997419357299805,-6.23999814486929e-07,-1.2023449806119966e-07,69.66148505170123,-3.1758082236056936e-07,-5.2870688287315525e-08,12.129965965203212,-0.0027390524714619043,0.017624914925820138,0.0001095343198110097,,,,,,,,,,,0.0,0.15439151884690427,1.0,0.23354409736371395,1.6716396261463449,0.6733041088905725,69.50657476228635,0.11634710646853352,0.047560166801018385,12.137446798239637,0.011668129796000187,-0.00955324133831086,-0.13258890823755828,,,,,,,,,,,,,,,,,auto,85.0,True,0,False,-10,15.0,0.0,-10.0,80.61881888932255,0.133443726943727
1760882368.7756386,6.708695888519287,-6.591942208530759e-07,-1.2607015346765503e-07,70.98309787824424,-3.2854908339802605e-07,-5.426158427729637e-08,12.130056687033749,-0.002808928694657235,0.018206778821096437,0.00011232778490689585,,,,,,,,,,,0.0,0.061592449979063546,1.0,-0.09979592243852489,2.365622938341953,0.43579998386405483,70.67327539393827,0.07287390769387449,0.025237374974370844,12.160766242300003,0.013769260536660378,-0.013319773727896396,0.029527234161611605,,,,,,,,,,,,,,,,,auto,85.0,True,0,False,-10,15.0,0.0,-10.0,81.65779061515376,0.03519753492964295
1760882368.8837101,6.816767454147339,-6.95337028477382e-07,-1.320154489112185e-07,72.29401629229778,-3.4033410402747816e-07,-5.576254466639617e-08,12.130132156930513,-0.002877708381991059,0.018792890461794328,0.00011507733695487035,,,,,,,,,,,0.0,-0.046822279549892654,1.0,0.014835622577605055,1.1492555378778373,0.09946775902442921,71.91431250484224,0.0773942278060123,0.04161445985563571,12.15080141907706,0.010726196377985161,-0.014369787699892056,-0.01487592596202933,,,,,,,,,,,,,,,,,auto,85.0,True,0,False,-10,15.0,0.0,-10.0,83.07711844503905,0.023298825303153144
1760882368.9913578,6.924415111541748,-7.325895135455322e-07,-1.3809537467863507e-07,73.59980010125099,-3.523071549822783e-07,-5.727366194193237e-08,12.13019529736318,-0.0029468610627459767,0.01938557569581104,0.0001178417503213738,,,,,,,,,,,0.0,-0.1769793286653763,1.0,0.043189382695357464,1.5035442824478975,-0.2788944600878264,73.21973565034587,0.07463159141734461,0.06364829582492873,12.138302108947869,0.00844502103954858,-0.01381892258969048,-0.03059594016361391,,,,,,,,,,,,,,,,,auto,85.0,True,0,False,-10,15.0,0.0,-10.0,84.30751153230156,0.034617806926403046
1760882369.099701,7.0327582359313965,-7.713983171400428e-07,-1.4438003341208805e-07,74.9140263357904,-3.6419567857491004e-07,-5.875228466283899e-08,12.130248683527055,-0.0030180898056640375,0.019991080458586122,0.00012068912775642722,,,,,,,,,,,0.0,-0.13615374786148626,1.0,0.07637532643072222,1.513444586806108,-0.2711921457349502,74.43864871694203,0.1067514466399382,0.08011739219798157,12.13819088754383,0.010481388814542638,-0.012666785092002596,-0.024172967834301562,,,,,,,,,,,,,,,,,auto,85.0,True,0,False,-10,15.0,0.0,-10.0,85.5093335211788,0.029234215056450148
1760882369.2102668,7.143324136734009,-8.121685683618111e-07,-1.5093158230556132e-07,76.24910114939952,-3.771001426411099e-07,-6.036252536390733e-08,12.130294112227334,-0.003091153298576975,0.020615352677256258,0.00012360979542992101,,,,,,,,,,,0.0,0.09647746493558548,1.0,-0.09366321452516793,1.6361918101463844,0.26426444976443236,76.12832925941335,0.07900351336095043,0.04302295407590815,12.073763313993808,0.007135217711258732,-0.01613982222062781,0.06314532223083091,,,,,,,,,,,,,,,,,auto,85.0,True,0,False,-10,15.0,0.0,-10.0,87.15933860495113,0.06556475358556607
1760882369.317719,7.250776290893555,-8.535888497731498e-07,-1.5753650142988725e-07,77.55864911382453,-3.9040490108358923e-07,-6.20189383298597e-08,12.130331449982968,-0.0031602574078774654,0.021236815648935876,0.00012637205335331545,,,,,,,,,,,0.0,0.18995731556663925,1.0,-0.062258772269149436,1.5276273941631284,0.5642769609165178,77.39445653900465,0.07423742445582251,0.009631967749230134,12.056921241496605,0.004370441521876367,-0.019457960397495925,0.04364033426265085,,,,,,,,,,,,,,,,,auto,85.0,True,0,False,-10,15.0,0.0,-10.0,88.4285828556983,0.04798116043284654
1760882369.425654,7.358711242675781,-8.965137193460164e-07,-1.6432888564226503e-07,78.86793759241985,-4.0517853742144947e-07,-6.386638144903612e-08,12.130362744722309,-0.003227329976659649,0.02186732038990724,0.00012905298220307674,,,,,,,,,,,0.0,-0.21780432426151566,1.0,-0.08687434836752744,1.1064442814763278,-0.34932420595720076,78.84072966183533,0.08988635038654783,0.027686620530841755,12.060372781705688,0.006585267631808174,-0.019564279109132804,0.04350157288419781,,,,,,,,,,,,,,,,,auto,85.0,True,0,False,-10,15.0,0.0,-10.0,89.9212331140532,0.04815094609913459
1760882369.5349367,7.467993974685669,-9.414738947856465e-07,-1.713872260616567e-07,80.18729949422809,-4.2222418364091347e-07,-6.601793900772681e-08,12.130389124829938,-0.003298588494697702,0.02251222068108791,0.00013190126344171478,,,,,,,,,,,0.0,-0.23042300498953816,1.0,0.059471018740124934,0.9522053774491939,-0.5915233575865212,80.0738689080139,0.0945000214793161,0.043179464154228415,12.075263656023465,0.002952045557272438,-0.02526881228810765,-0.04340443800593883,,,,,,,,,,,,,,,,,auto,85.0,True,0,False,-10,15.0,0.0,-10.0,91.16464387962041,0.0503107611355187
1760882369.6435177,7.576575040817261,-9.882421286435225e-07,-1.7867300252670476e-07,81.51071010488913,-4.353278989112148e-07,-6.75708813937671e-08,12.13041148226083,-0.0033722748536275907,0.023168631998940998,0.00013484657576456863,,,,,,,,,,,0.0,0.06626451892539427,1.0,-0.0757198315389048,0.5895202571406759,0.04636576070130135,81.23563375554723,0.08495905956022273,0.015486219636072785,12.111612448147715,-0.0005424624876521967,-0.02450538254699084,0.03183461087465761,,,,,,,,,,,,,,,,,auto,85.0,True,0,False,-10,15.0,0.0,-10.0,92.36668740936568,0.04017773623371209
1760882369.7525592,7.685616493225098,-1.0362007040137418e-06,-1.8609017778482762e-07,82.82728887236196,-4.485625987910644e-07,-6.912452292994181e-08,12.130430138838816,-0.003443446217410309,0.02383070155220413,0.00013769122335827928,,,,,,,,,,,0.0,0.04545598727787813,1.0,0.2596414507355416,0.6015690809269008,0.04814827064849655,82.65596197565026,0.13764270318950128,0.015419773424892933,12.112722950384573,-0.004897476966806081,-0.022751457332303056,-0.13744517087066116,,,,,,,,,,,,,,,,,auto,85.0,True,0,False,-10,15.0,0.0,-10.0,93.76803517628187,0.1394015390411786
1760882369.8601232,7.793180465698242,-1.0854334773365863e-06,-1.9364951942415584e-07,84.13822696226488,-4.622536439956935e-07,-7.072457832024206e-08,12.130445722384891,-0.0035161226741664423,0.024498944933089368,0.00014059600806227865,,,,,,,,,,,0.0,-0.11065134986188542,1.0,-0.15539395374047554,-0.2543121816979592,-0.3585511875865152,83.7802864498694,0.11657810936742324,0.008847884124623997,12.151142101356623,-0.005441823202924081,-0.02143177329910872,0.06669286633446245,,,,,,,,,,,,,,,,,auto,85.0,True,0,False,-10,15.0,0.0,-10.0,95.01349759750124,0.07026288327718089
1760882369.969812,7.90286922454834,-1.1369536993181834e-06,-2.0150319668355844e-07,85.46880124515408,-4.7662977394822763e-07,-7.239955939021933e-08,12.130458978715088,-0.0035918546969164913,0.02518640778790539,0.00014362290031956574,,,,,,,,,,,0.0,-0.09009075080084175,1.0,-0.16094005951239115,-0.23881108073718213,-0.35785531279435,85.29489274086006,0.16555842575284538,0.004097184852249955,12.152060421835758,-0.006734582072510617,-0.020632876207244175,0.07447109585703318,,,,,,,,,,,,,,,,,auto,85.0,True,0,False,-10,15.0,0.0,-10.0,96.50630034392219,0.07756941597319313
1760882370.0778286,8.010885953903198,-1.189006663558793e-06,-2.0938200437414737e-07,86.77297171851299,-4.915375527638405e-07,-7.414271185970643e-08,12.130469857261241,-0.0036679887214670095,0.025869249198926757,0.00014666583773856833,,,,,,,,,,,0.0,-0.08795612281388954,1.0,-0.35463557327979844,-0.2183547042046126,-0.35770103324033653,86.72889681265676,0.21491491538786067,-0.0010820506794221466,12.151878947179487,-0.0063363499781661555,-0.021492615302293704,0.16815824448659386,,,,,,,,,,,,,,,,,auto,85.0,True,0,False,-10,15.0,0.0,-10.0,97.91938392640023,0.16964456086886862
1760882370.1849997,8.118057012557983,-1.242879290166386e-06,-2.174789014527167e-07,88.07913015525519,-5.099846194520994e-07,-7.637353813155647e-08,12.130478891022076,-0.0037464715977317754,0.026562331772588262,0.00014980264071735728,,,,,,,,,,,0.0,-0.3161622972806329,1.0,0.06608687608789793,-0.16193241394810165,-0.9620279857259845,87.77286407039665,0.07909615762008301,-0.03972358785557533,12.115040352684893,-0.004803741917577766,-0.016790307838600832,-0.035940705478781886,,,,,,,,,,,,,,,,,auto,85.0,True,0,False,-10,15.0,0.0,-10.0,98.9461603140754,0.039959037576475946
1760882370.2922485,8.225305795669556,-1.298382863261399e-06,-2.2576162562200183e-07,89.37383952368575,-5.29326500761508e-07,-7.872713232620078e-08,12.130486385517244,-0.0038299388048390493,0.027258975175085957,0.00015313874933697283,,,,,,,,,,,0.0,-0.2811730571301364,1.0,0.21593272288381665,-0.15114872420257444,-0.9664701134166527,88.93833175523167,0.12104453523473299,-0.04200680468651472,12.113995312847647,-0.0038060713493518338,-0.012884740318144409,-0.10977584839414056,,,,,,,,,,,,,,,,,auto,85.0,True,0,False,-10,15.0,0.0,-10.0,100.09637786978766,0.11059493479737535
1760882370.39904,8.332097291946411,-1.3560147243604166e-06,-2.3430682076782368e-07,90.67554281777831,-5.438093493627639e-07,-8.039747187217559e-08,12.130492895612113,-0.003917464891634007,0.027968659038938432,0.00015663710242050982,,,,,,,,,,,0.0,-0.05415240701066284,1.0,0.11907686760375782,-0.35299580845312767,-0.36777897748699484,90.55543448274807,0.10102719797069967,-0.02912224817865165,12.166148714974055,-0.0043816852895447525,-0.015316853664693857,-0.06789094003105661,,,,,,,,,,,,,,,,,auto,85.0,True,0,False,-10,15.0,0.0,-10.0,101.72140947551259,0.06973510529469922
1760882370.5069084,8.439965724945068,-1.4154683787087545e-06,-2.4307116997082313e-07,91.9840403832639,-5.582315824383637e-07,-8.206292527299008e-08,12.1304984090182,-0.004007169083762115,0.028690932338244095,0.00016022246403448817,,,,,,,,,,,0.0,0.061489428935601095,1.0,0.14225748851583359,-0.8519323532299036,0.008657337652260379,91.67924539933419,0.12620853996651543,-0.04877982554320449,12.185369741896968,-0.0014308668873299942,-0.015439018455893377,-0.08919208821401403,,,,,,,,,,,,,,,,,auto,85.0,True,0,False,-10,15.0,0.0,-10.0,102.90749622480811,0.090529770080936
1760882370.614171,8.547228336334229,-1.4761015857023177e-06,-2.519606531589537e-07,93.28518957520357,-5.724355224826611e-07,-8.370480699932651e-08,12.130503030898874,-0.004096199512461748,0.029417936521877082,0.0001637807873734905,,,,,,,,,,,0.0,-0.005579831896623125,1.0,0.1292634404038751,-0.835889220802279,0.00364436707544684,93.22317133999434,0.1732437423722633,-0.04312395446753028,12.185429479295301,0.004312510052411707,-0.012609456808317992,-0.07033615488057463,,,,,,,,,,,,,,,,,auto,85.0,True,0,False,-10,15.0,0.0,-10.0,104.43083118591349,0.07158750468718106
1760882370.7229693,8.656026601791382,-1.5392009306037983e-06,-2.6116325186665725e-07,94.60496748388478,-5.872419643558953e-07,-8.542794467077997e-08,12.130506966387903,-0.004187051476020733,0.030164325041336607,0.00016741182414207567,,,,,,,,,,,0.0,0.03647342713817881,1.0,0.22685600888471755,-0.1767585934788471,0.07971927373728524,94.53383281075449,0.08493014820584378,-0.035348596702726234,12.187568864342728,-0.000715463953723753,-0.011176746564509179,-0.12617295105059853,,,,,,,,,,,,,,,,,auto,85.0,True,0,False,-10,15.0,0.0,-10.0,105.62983744508041,0.1266690377687187
1760882370.8326602,8.765717506408691,-1.6041268920336257e-06,-2.705846944821193e-07,95.92942815940181,-6.020658487073091e-07,-8.715311005080971e-08,12.130510289194707,-0.00427876958841589,0.030922381033617875,0.000171077386118781,,,,,,,,,,,0.0,-0.015300044268875528,1.0,-0.051505720472669145,0.9376066928096981,-0.06417352699651983,95.78020231899225,0.10095711831156924,-0.02321106601837337,12.192008608521567,-0.003426184403965836,-0.010150004401243695,0.010714451929063881,,,,,,,,,,,,,,,,,auto,85.0,True,0,False,-10,15.0,0.0,-10.0,106.71085336747434,0.015151264272510921
1760882370.9420202,8.875077486038208,-1.6711064309944167e-06,-2.8025525963653743e-07,97.25597439056837,-6.232858466767264e-07,-8.976033981026513e-08,12.13051289381885,-0.0043687271086584245,0.031691061769842516,0.00017467240794696677,,,,,,,,,,,0.0,0.3404524908360812,1.0,-0.15564326756190325,-0.09001415583249964,0.9072777191752568,97.13524102380353,0.12913916931017003,0.006419141065964647,12.13571438075366,-0.001980016918037391,-0.002058383772858039,0.06785457960221064,,,,,,,,,,,,,,,,,auto,85.0,True,0,False,-10,15.0,0.0,-10.0,108.19654130013312,0.06791466250924627
1760882371.0515244,8.984581708908081,-1.7405282909257746e-06,-2.9022749980753305e-07,98.58441523394227,-6.434025546922136e-07,-9.219844449053936e-08,12.130515113942632,-0.004453513748393564,0.032470767340436434,0.00017806048172969402,,,,,,,,,,,0.0,0.17556979828077302,1.0,-0.046284309989841066,0.40357363878481195,0.6526812841190986,98.79731408448303,0.14822208142799342,0.02770153468416578,12.119904684828557,-0.0025112616276422215,-0.0009016045771398352,0.019371299894271738,,,,,,,,,,,,,,,,,auto,85.0,True,0,False,-10,15.0,0.0,-10.0,109.77402792725914,0.01955419610645756
1760882371.159072,9.092129230499268,-1.811171845792259e-06,-3.0032531927804873e-07,99.8951159100712,-6.639833679859664e-07,-9.467542675480885e-08,12.130516931042424,-0.004532661304737032,0.03324961126542197,0.00018122293606993395,,,,,,,,,,,0.0,0.21604627191466008,1.0,-0.15139535054169545,0.8754874398151063,0.7686149568691611,99.9044026273559,0.11070455315780703,0.006054751183625098,12.099796880003236,-0.0029004092715880178,-0.0036920207322491973,0.08036830131994023,,,,,,,,,,,,,,,,,auto,85.0,True,0,False,-10,15.0,0.0,-10.0,110.81096669955866,0.08050532434617463
1760882371.2668123,9.199869632720947,-1.8833973467695304e-06,-3.105981751565042e-07,101.19592853889785,-6.813042722078632e-07,-9.667285123757172e-08,12.130518537500906,-0.004607507964239108,0.034031959799592934,0.00018421328531835983,,,,,,,,,,,0.0,0.04534893938206097,1.0,0.22738463302028522,1.1543934453347366,0.2917236886600661,101.31520142382995,0.06380580075141898,-0.01924382078558644,12.091168622337253,-0.004123408863136635,-0.0030140734296934353,-0.10932014397163424,,,,,,,,,,,,,,,,,auto,85.0,True,0,False,-10,15.0,0.0,-10.0,112.1733479557642,0.10943939426582648
1760882371.3744643,9.30752158164978,-1.9575351561772615e-06,-3.2109215227161593e-07,102.5018083646075,-6.9625404230458e-07,-9.830893596930823e-08,12.13051996636156,-0.0046826521397665645,0.03482617631520556,0.00018721542676975277,,,,,,,,,,,0.0,0.06447761018713355,1.0,-0.04549013922145011,1.1633913737358115,0.28970928851683125,102.17436088100658,0.10229083942660792,-0.018336371657689084,12.089971450682764,-0.002922563500825698,0.003531178162513224,0.021487112159902157,,,,,,,,,,,,,,,,,auto,85.0,True,0,False,-10,15.0,0.0,-10.0,113.02487738905343,0.021970584553078782
1760882371.482386,9.415443420410156,-2.033537703681098e-06,-3.317957610027242e-07,103.8108581174103,-7.12087835683426e-07,-1.0002629745247763e-07,12.130521158321063,-0.004756753468368586,0.03563118917905278,0.0001901757500717087,,,,,,,,,,,0.0,0.08738998526189799,1.0,0.07087058844272184,1.1764395658075835,0.2878062409980149,103.7909573645459,0.13971098040393648,-0.017430413462525305,12.090059306781841,-0.005806179789158116,0.002504459075458481,-0.038687504113039464,,,,,,,,,,,,,,,,,auto,85.0,True,0,False,-10,15.0,0.0,-10.0,114.62790076351408,0.03920085475472595
1760882371.5897028,9.522760152816772,-2.1113537509248757e-06,-3.4269383479987396e-07,105.11277016827,-7.368182582675037e-07,-1.0289153289177892e-07,12.130521926320478,-0.004827060315113956,0.03644117253977654,0.0001929842209699146,,,,,,,,,,,0.0,0.26150048274472004,1.0,0.16999330573220112,1.0868198640335855,0.7587996487294592,105.28185724307595,0.11949719612573177,-0.023462205279123207,12.09842316501783,-0.007427590450372713,0.007537032138148026,-0.0684129205798994,,,,,,,,,,,,,,,,,auto,85.0,True,0,False,-10,15.0,0.0,-10.0,116.12088084326481,0.06922646643893914
1760882371.698444,9.631501197814941,-2.1932222747238076e-06,-3.5408807780180475e-07,106.43158107111405,-7.702590146262522e-07,-1.068392213557337e-07,12.130522355657423,-0.004891456275499815,0.0372720150195537,0.00019555611796876689,,,,,,,,,,,0.0,0.5460609524941034,1.0,0.024511761522060995,0.5054410845983266,1.700942068526401,106.35573070238226,0.14213227570019954,0.0010381561678882237,12.147154716898719,-0.003541503135923942,0.012385603447236482,-0.022688592442413377,,,,,,,,,,,,,,,,,auto,85.0,True,0,False,-10,15.0,0.0,-10.0,117.26739320611605,0.02609056619224452
1760882371.8055346,9.73859190940857,-2.2765326649798994e-06,-3.6561081285895476e-07,107.7309221393574,-7.859792670077851e-07,-1.0838964472424405e-07,12.130523133102553,-0.0049497300616171205,0.038100481032201525,0.00019788310617512136,,,,,,,,,,,0.0,0.20179260093569507,1.0,0.03201231948594927,0.6544643199930626,0.836238037800166,107.67881457671118,0.12658340901824464,0.015822799035511165,12.129864993686722,-0.003827825078734873,0.010505830119980337,-0.02978350283843954,,,,,,,,,,,,,,,,,auto,85.0,True,0,False,-10,15.0,0.0,-10.0,118.55292947954592,0.031813232351815705
1760882371.9121978,9.845255136489868,-2.361987199926346e-06,-3.773561666985408e-07,109.03092557472843,-8.0764785578051e-07,-1.1064285097552857e-07,12.130523652190174,-0.005003814398863028,0.0389386332348109,0.0002000424394005642,,,,,,,,,,,0.0,0.22449294701037095,1.0,-0.03692619138869085,0.6695296173403175,0.8381607322761083,108.83979979348798,0.15378054917527761,0.019645909550712354,12.132363286406319,-0.004150517719902639,0.015375812070932844,0.025166312458036796,,,,,,,,,,,,,,,,,auto,85.0,True,0,False,-10,15.0,0.0,-10.0,119.70364618405624,0.029782304761710565
1760882372.0203323,9.953389644622803,-2.450407836350037e-06,-3.8942729988498665e-07,110.34265381019485,-8.280158158365868e-07,-1.1263995484102065e-07,12.130524130150638,-0.005054058265693599,0.039793783887537494,0.00020204804682688094,,,,,,,,,,,0.0,-0.16200592356942947,1.0,0.1870620549867141,0.161774882876193,-0.09657420795694083,109.96072511836552,0.07674617918346113,0.060628031672627855,12.077952706789564,-0.0030411108786220623,0.017716866248766807,-0.08967420214642681,,,,,,,,,,,,,,,,,auto,85.0,True,0,False,-10,15.0,0.0,-10.0,120.87496772337992,0.09145817752202909
1760882372.127997,10.061054229736328,-2.5411580465617548e-06,-4.0172304060669994e-07,111.64868166796784,-8.515665127379459e-07,-1.1496824278365866e-07,12.130524461927294,-0.005107296077103283,0.0406551272571655,0.0002041733598110109,,,,,,,,,,,0.0,-0.06562333753991192,1.0,-0.020195560670380343,0.17127355292624197,-0.08999641645328706,111.57552540958841,0.09965896283728748,0.061389326008423735,12.078068197634183,-0.0035873384971908838,0.018233860208374985,-0.0054461481497740105,,,,,,,,,,,,,,,,,auto,85.0,True,0,False,-10,15.0,0.0,-10.0,122.47655941450428,0.019364998973954925
1760882372.2376509,10.170708179473877,-2.635487446013224e-06,-4.144105183009127e-07,112.97884161199379,-8.693409423324974e-07,-1.1648168718757527e-07,12.13052488582744,-0.0051613731159026,0.04154171589418777,0.00020633208829745172,,,,,,,,,,,0.0,0.08494294788269816,1.0,-0.2793164265763193,-1.2103698085865258,0.19380825704586827,112.62296652557946,0.1424919840873135,0.09298880477353075,12.12113842531989,-0.00381281630038548,0.016508218253878482,0.14549143127053218,,,,,,,,,,,,,,,,,auto,85.0,True,0,False,-10,15.0,0.0,-10.0,123.68995743594148,0.14647462377902243
1760882372.3471596,10.280216932296753,-2.7310789576406917e-06,-4.27169861583692e-07,114.30091227854605,-8.851590700890977e-07,-1.1769169733150733e-07,12.130525291188471,-0.00521327466483127,0.04243212958182678,0.0002084037486490813,,,,,,,,,,,0.0,0.07904261114308783,1.0,0.18798057900129933,-1.193382007629762,0.20406437622191995,114.12963235018967,0.16996235439531246,0.09583011961219404,12.120423111378805,-0.005316611953190615,0.016610738299366986,-0.0797730046245167,,,,,,,,,,,,,,,,,auto,85.0,True,0,False,-10,15.0,0.0,-10.0,125.18159964830264,0.08165730375376123
1760882372.4555995,10.388656854629517,-2.8286133737887613e-06,-4.400842940224981e-07,115.62267352152647,-9.054424591010417e-07,-1.1938577779957736e-07,12.130525543874286,-0.005262659684924647,0.04333158819887567,0.00021037467623665363,,,,,,,,,,,0.0,0.24657810015983767,1.0,0.22964062972822946,-1.1514463902349643,0.733231675254272,115.59007718268519,0.11214506143229526,0.037863110295644944,12.122004509095962,-0.001087650927744356,0.01551622411728476,-0.10685796892104052,,,,,,,,,,,,,,,,,auto,85.0,True,0,False,-10,15.0,0.0,-10.0,126.62651513778248,0.10798408085143149
1760882372.5626247,10.495682001113892,-2.9264675711034033e-06,-4.5293337971666314e-07,116.9209448091688,-9.232883692226185e-07,-1.2073053389895773e-07,12.13052580412198,-0.00531046089600023,0.04422416525176273,0.00021228226277255485,,,,,,,,,,,0.0,0.12508473126574443,1.0,-0.17801806237696494,-0.507583021887825,0.4385496006620331,116.66647108785932,0.028694036933084227,0.05499696092248598,12.037539657333085,0.0007936491001669003,0.01811025091946208,0.06829720688244605,,,,,,,,,,,,,,,,,auto,85.0,True,0,False,-10,15.0,0.0,-10.0,127.61297878658145,0.07066200913647806
1760882372.6711516,10.604208946228027,-3.027621666323989e-06,-4.6610353272658753e-07,118.2374337307673,-9.417454955102369e-07,-1.2207519964469604e-07,12.130526026877376,-0.005358531463152139,0.04513830732380607,0.00021420049126563465,,,,,,,,,,,0.0,-0.3875689941365718,1.0,-0.12255004368728452,-1.2804882131990454,-0.7351472889479562,118.11363907091291,0.019037721880528283,0.07912612079643822,12.030263602584878,0.006329155146664232,0.017052372359147392,0.05449551664223405,,,,,,,,,,,,,,,,,auto,85.0,True,0,False,-10,15.0,0.0,-10.0,129.14603847578408,0.057450874162623226
1760882372.7803407,10.713397979736328,-3.1318402952346345e-06,-4.795486004593303e-07,119.56195414652132,-9.699302428547907e-07,-1.2450804663049625e-07,12.130526020804773,-0.005410575400946018,0.04606758471540252,0.00021627755336238786,,,,,,,,,,,0.0,-0.2964916471828879,1.0,-0.041706754604715596,-1.2768862067830595,-0.7255650552630212,119.2972436755832,0.04699316022875565,0.09498049707108192,12.029852500648223,0.010854899021372847,0.017437857786742637,0.013282440792008722,,,,,,,,,,,,,,,,,auto,85.0,True,0,False,-10,15.0,0.0,-10.0,130.3197632415787,0.02446080436837839
1760882372.8882596,10.821316957473755,-3.2375614376979034e-06,-4.930592352352257e-07,120.87106812330234,-9.909683780793403e-07,-1.2606092049204838e-07,12.130526153377556,-0.005467059752551221,0.04699573339965979,0.00021853220632190158,,,,,,,,,,,0.0,-0.2643242844026694,1.0,0.16052512960367668,-1.2703590690293116,-0.714288879255278,120.6720733979375,0.07262421148051,0.11537308679156481,12.030011919374731,0.01394197059154748,0.021548664072774212,-0.07200476802480321,,,,,,,,,,,,,,,,,auto,85.0,True,0,False,-10,15.0,0.0,-10.0,131.68304962657166,0.076442200946876
1760882372.9958038,10.928861141204834,-3.3452056265125786e-06,-5.066916015556287e-07,122.175635664337,-1.0090833464518575e-06,-1.2724561560110906e-07,12.130526329974863,-0.005527016752440054,0.04792989667493802,0.00022092569488270215,,,,,,,,,,,0.0,-0.0239387294425202,1.0,0.022012063808334266,0.2721482544992699,-0.13862976099268606,121.89957396551755,0.012015287643003875,0.0394219858000799,12.055276854811034,0.01445270783687501,0.02295519907424347,-0.0029412064739503634,,,,,,,,,,,,,,,,,auto,85.0,True,0,False,-10,15.0,0.0,-10.0,132.7193521967807,0.02728502563456051
1760882373.102617,11.035674333572388,-3.453906665940687e-06,-5.203398040762079e-07,123.47133591607847,-1.026114744158793e-06,-1.2828631849444432e-07,12.130526504914805,-0.005587640172049272,0.04886642380753644,0.00022334578304915835,,,,,,,,,,,0.0,-0.05694328952673648,1.0,-0.07098400067151417,0.2749917356798654,-0.13335222455289536,123.37563692475344,0.04238953098978956,0.059779055126650556,12.055244956340367,0.013274302902725752,0.020862778608227737,0.03537911650094962,,,,,,,,,,,,,,,,,auto,85.0,True,0,False,-10,15.0,0.0,-10.0,134.1860804118063,0.043164157969280526
