timestamp,simulation_time,position_x,position_y,position_z,velocity_x,velocity_y,velocity_z,attitude_roll,attitude_pitch,attitude_yaw,control_throttle,control_roll,control_pitch,control_yaw,estimated_position_x,estimated_position_y,estimated_position_z,flight_mode,battery_level,setpoint_altitude,setpoint_position_x,setpoint_position_y,setpoint_position_z,position_error,attitude_error,waypoint_index,mission_complete
1761126575.450699,0.10697770118713379,0.0,0.0,-0.0,0.0,0.0,-0.0,0.0,0.0,0.0,0.0,0.0,0.0,0.0,0.0,0.0,-0.0,manual,85.0,0.0,0.0,0.0,0.0,0.0,0.0,0,0
1761126575.5532184,0.20949697494506836,0.0,0.0,-0.0,0.0,0.0,-0.0,0.0,0.0,0.0,0.0,0.0,0.0,0.0,0.0,0.0,-0.0,manual,85.0,0.0,0.0,0.0,0.0,0.0,0.0,0,0
1761126575.6575296,0.3138082027435303,0.0,0.0,-0.0,0.0,0.0,-0.0,0.0,0.0,0.0,0.0,0.0,0.0,0.0,0.0,0.0,-0.0,manual,85.0,0.0,0.0,0.0,0.0,0.0,0.0,0,0
1761126575.7610738,0.41735243797302246,0.0,0.0,-0.0,0.0,0.0,-0.0,0.0,0.0,0.0,0.0,0.0,0.0,0.0,0.0,0.0,-0.0,manual,85.0,0.0,0.0,0.0,0.0,0.0,0.0,0,0
1761126575.8624618,0.5187404155731201,0.0,0.0,-0.0,0.0,0.0,-0.0,0.0,0.0,0.0,0.0,0.0,0.0,0.0,0.0,0.0,-0.0,manual,85.0,0.0,0.0,0.0,0.0,0.0,0.0,0,0
1761126575.9646957,0.6209743022918701,0.0,0.0,-0.0,0.0,0.0,-0.0,0.0,0.0,0.0,0.0,0.0,0.0,0.0,0.0,0.0,-0.0,manual,85.0,0.0,0.0,0.0,0.0,0.0,0.0,0,0
1761126576.0683491,0.7246277332305908,0.0,0.0,-0.0,0.0,0.0,-0.0,0.0,0.0,0.0,0.0,0.0,0.0,0.0,0.0,0.0,-0.0,manual,85.0,0.0,0.0,0.0,0.0,0.0,0.0,0,0
1761126576.1714425,0.827721118927002,0.0,0.0,-0.0,0.0,0.0,-0.0,0.0,0.0,0.0,0.0,0.0,0.0,0.0,0.0,0.0,-0.0,manual,85.0,0.0,0.0,0.0,0.0,0.0,0.0,0,0
1761126576.2770438,0.9333224296569824,0.0,0.0,-0.0,0.0,0.0,-0.0,0.0,0.0,0.0,0.0,0.0,0.0,0.0,0.0,0.0,-0.0,manual,85.0,0.0,0.0,0.0,0.0,0.0,0.0,0,0
1761126576.3797836,1.036062240600586,0.0,0.0,-0.0,0.0,0.0,-0.0,0.0,0.0,0.0,0.0,0.0,0.0,0.0,0.0,0.0,-0.0,manual,85.0,0.0,0.0,0.0,0.0,0.0,0.0,0,0
1761126576.4826226,1.1389012336730957,0.0,0.0,-0.0,0.0,0.0,-0.0,0.0,0.0,0.0,0.0,0.0,0.0,0.0,0.0,0.0,-0.0,manual,85.0,0.0,0.0,0.0,0.0,0.0,0.0,0,0
1761126576.5961423,1.2524209022521973,0.0,0.0,-0.0,0.0,0.0,-0.0,0.0,0.0,0.0,0.0,0.0,0.0,0.0,0.0,0.0,-0.0,manual,85.0,0.0,0.0,0.0,0.0,0.0,0.0,0,0
1761126576.699905,1.3561835289001465,0.0,0.0,-0.0,0.0,0.0,-0.0,0.0,0.0,0.0,0.0,0.0,0.0,0.0,0.0,0.0,-0.0,manual,85.0,0.0,0.0,0.0,0.0,0.0,0.0,0,0
1761126576.8026772,1.4589557647705078,0.0,0.0,-0.0,0.0,0.0,-0.0,0.0,0.0,0.0,0.0,0.0,0.0,0.0,0.0,0.0,-0.0,manual,85.0,0.0,0.0,0.0,0.0,0.0,0.0,0,0
1761126576.90555,1.56182861328125,0.0,0.0,-0.0,0.0,0.0,-0.0,0.0,0.0,0.0,0.0,0.0,0.0,0.0,0.0,0.0,-0.0,manual,85.0,0.0,0.0,0.0,0.0,0.0,0.0,0,0
1761126577.0086362,1.664914846420288,0.0,0.0,-0.0,0.0,0.0,-0.0,0.0,0.0,0.0,0.0,0.0,0.0,0.0,0.0,0.0,-0.0,manual,85.0,0.0,0.0,0.0,0.0,0.0,0.0,0,0
1761126577.1121018,1.7683804035186768,0.0,0.0,-0.0,0.0,0.0,-0.0,0.0,0.0,0.0,0.0,0.0,0.0,0.0,0.0,0.0,-0.0,manual,85.0,0.0,0.0,0.0,0.0,0.0,0.0,0,0
1761126577.2150693,1.8713479042053223,0.0,0.0,-0.0,0.0,0.0,-0.0,0.0,0.0,0.0,0.0,0.0,0.0,0.0,0.0,0.0,-0.0,manual,85.0,0.0,0.0,0.0,0.0,0.0,0.0,0,0
1761126577.3190172,1.9752957820892334,0.0,0.0,-0.0,0.0,0.0,-0.0,0.0,0.0,0.0,0.0,0.0,0.0,0.0,0.0,0.0,-0.0,manual,85.0,0.0,0.0,0.0,0.0,0.0,0.0,0,0
1761126577.421694,2.077972650527954,0.0,0.0,-0.0,0.0,0.0,-0.0,0.0,0.0,0.0,0.0,0.0,0.0,0.0,0.0,0.0,-0.0,manual,85.0,0.0,0.0,0.0,0.0,0.0,0.0,0,0
1761126577.5239222,2.1802008152008057,0.0,0.0,-0.0,0.0,0.0,-0.0,0.0,0.0,0.0,0.0,0.0,0.0,0.0,0.0,0.0,-0.0,manual,85.0,0.0,0.0,0.0,0.0,0.0,0.0,0,0
1761126577.6285052,2.2847838401794434,0.0,0.0,-0.0,0.0,0.0,-0.0,0.0,0.0,0.0,0.0,0.0,0.0,0.0,0.0,0.0,-0.0,manual,85.0,0.0,0.0,0.0,0.0,0.0,0.0,0,0
1761126577.7303643,2.3866429328918457,0.0,0.0,-0.0,0.0,0.0,-0.0,0.0,0.0,0.0,0.0,0.0,0.0,0.0,0.0,0.0,-0.0,manual,85.0,0.0,0.0,0.0,0.0,0.0,0.0,0,0
1761126577.8391662,2.4954447746276855,0.0,0.0,-0.0,0.0,0.0,-0.0,0.0,0.0,0.0,0.0,0.0,0.0,0.0,0.0,0.0,-0.0,manual,85.0,0.0,0.0,0.0,0.0,0.0,0.0,0,0
1761126577.9417005,2.5979790687561035,0.0,0.0,-0.0,0.0,0.0,-0.0,0.0,0.0,0.0,0.0,0.0,0.0,0.0,0.0,0.0,-0.0,manual,85.0,0.0,0.0,0.0,0.0,0.0,0.0,0,0
1761126578.0443876,2.7006661891937256,0.0,0.0,-0.0,0.0,0.0,-0.0,0.0,0.0,0.0,0.0,0.0,0.0,0.0,0.0,0.0,-0.0,manual,85.0,0.0,0.0,0.0,0.0,0.0,0.0,0,0
1761126578.1489725,2.805251121520996,0.0,0.0,-0.0,0.0,0.0,-0.0,0.0,0.0,0.0,0.0,0.0,0.0,0.0,0.0,0.0,-0.0,manual,85.0,0.0,0.0,0.0,0.0,0.0,0.0,0,0
1761126578.2514555,2.9077341556549072,0.0,0.0,-0.0,0.0,0.0,-0.0,0.0,0.0,0.0,0.0,0.0,0.0,0.0,0.0,0.0,-0.0,manual,85.0,0.0,0.0,0.0,0.0,0.0,0.0,0,0
1761126578.354576,3.010854721069336,0.0,0.0,-0.0,0.0,0.0,-0.0,0.0,0.0,0.0,0.0,0.0,0.0,0.0,0.0,0.0,-0.0,manual,85.0,0.0,0.0,0.0,0.0,0.0,0.0,0,0
1761126578.4591594,3.1154379844665527,0.0,0.0,-0.0,0.0,0.0,-0.0,0.0,0.0,0.0,0.0,0.0,0.0,0.0,0.0,0.0,-0.0,manual,85.0,0.0,0.0,0.0,0.0,0.0,0.0,0,0
1761126578.5636978,3.2199764251708984,0.0,0.0,-0.0,0.0,0.0,-0.0,0.0,0.0,0.0,0.0,0.0,0.0,0.0,0.0,0.0,-0.0,manual,85.0,0.0,0.0,0.0,0.0,0.0,0.0,0,0
1761126578.667628,3.323906660079956,0.0,0.0,-0.0,0.0,0.0,-0.0,0.0,0.0,0.0,0.0,0.0,0.0,0.0,0.0,0.0,-0.0,manual,85.0,0.0,0.0,0.0,0.0,0.0,0.0,0,0
1761126578.7702732,3.4265518188476562,0.0,0.0,-0.0,0.0,0.0,-0.0,0.0,0.0,0.0,0.0,0.0,0.0,0.0,0.0,0.0,-0.0,manual,85.0,0.0,0.0,0.0,0.0,0.0,0.0,0,0
1761126578.878209,3.534487724304199,0.0,0.0,-0.0,0.0,0.0,-0.0,0.0,0.0,0.0,0.0,0.0,0.0,0.0,0.0,0.0,-0.0,manual,85.0,0.0,0.0,0.0,0.0,0.0,0.0,0,0
1761126578.9805098,3.6367883682250977,0.0,0.0,-0.0,0.0,0.0,-0.0,0.0,0.0,0.0,0.0,0.0,0.0,0.0,0.0,0.0,-0.0,manual,85.0,0.0,0.0,0.0,0.0,0.0,0.0,0,0
1761126579.0839424,3.7402210235595703,0.0,0.0,0.004407893628425952,0.0,0.0,0.2072145777529078,0.0,0.0,0.0,0.8,0.0,0.0,0.0,0.0,0.0,0.004407893628425952,stabilize,85.0,2.0,0.0,0.0,-2.0,1.995592106371574,0.0,0,0
1761126579.1891766,3.8454551696777344,0.0,0.0,0.05024266417681145,0.0,0.0,0.5312316917931786,0.0,0.0,0.0,0.3,0.0,0.0,0.0,0.0,0.0,0.05024266417681145,stabilize,85.0,2.0,0.0,0.0,-2.0,1.9497573358231886,0.0,0,0
1761126579.2925847,3.9488632678985596,0.0,0.0,0.10943354267143016,0.0,0.0,0.566679963233642,0.0,0.0,0.0,0.3,0.0,0.0,0.0,0.0,0.0,0.10943354267143016,stabilize,85.0,2.0,0.0,0.0,-2.0,1.8905664573285699,0.0,0,0
1761126579.4017282,4.058006763458252,0.0,0.0,0.1785577547704226,0.0,0.0,0.6471508403533341,0.0,0.0,0.0,0.3,0.0,0.0,0.0,0.0,0.0,0.1785577547704226,stabilize,85.0,2.0,0.0,0.0,-2.0,1.8214422452295773,0.0,0,0
1761126579.5051012,4.161379814147949,0.0,0.0,0.24943887232684106,0.0,0.0,0.6780825693787611,0.0,0.0,0.0,0.3,0.0,0.0,0.0,0.0,0.0,0.24943887232684106,stabilize,85.0,2.0,0.0,0.0,-2.0,1.750561127673159,0.0,0,0
1761126579.6085377,4.2648162841796875,0.0,0.0,0.3238068480676065,0.0,0.0,0.7132921492214723,0.0,0.0,0.0,0.3,0.0,0.0,0.0,0.0,0.0,0.3238068480676065,stabilize,85.0,2.0,0.0,0.0,-2.0,1.6761931519323934,0.0,0,0
1761126579.7116003,4.3678789138793945,0.0,0.0,0.400678165744986,0.0,0.0,0.71259377858101,0.0,0.0,0.0,0.3,0.0,0.0,0.0,0.0,0.0,0.400678165744986,stabilize,85.0,2.0,0.0,0.0,-2.0,1.599321834255014,0.0,0,0
1761126579.8179345,4.474213123321533,0.0,0.0,0.4794878504223123,0.0,0.0,0.715220039856542,0.0,0.0,0.0,0.3,0.0,0.0,0.0,0.0,0.0,0.4794878504223123,stabilize,85.0,2.0,0.0,0.0,-2.0,1.5205121495776877,0.0,0,0
1761126579.920217,4.57649564743042,0.0,0.0,0.5555866100502969,0.0,0.0,0.7265514816145842,0.0,0.0,0.0,0.3,0.0,0.0,0.0,0.0,0.0,0.5555866100502969,stabilize,85.0,2.0,0.0,0.0,-2.0,1.4444133899497031,0.0,0,0
1761126580.0235324,4.679811000823975,0.0,0.0,0.6321914073359838,0.0,0.0,0.7154312964672629,0.0,0.0,0.0,0.3,0.0,0.0,0.0,0.0,0.0,0.6321914073359838,stabilize,85.0,2.0,0.0,0.0,-2.0,1.3678085926640162,0.0,0,0
1761126580.1271243,4.783402919769287,0.0,0.0,0.7074030334225925,0.0,0.0,0.7114268587142376,0.0,0.0,0.0,0.3,0.0,0.0,0.0,0.0,0.0,0.7074030334225925,stabilize,85.0,2.0,0.0,0.0,-2.0,1.2925969665774075,0.0,0,0
1761126580.2298663,4.8861448764801025,0.0,0.0,0.7794621262446852,0.0,0.0,0.7082643594200886,0.0,0.0,0.0,0.8,0.0,0.0,0.0,0.0,0.0,0.7794621262446852,stabilize,85.0,2.0,0.0,0.0,-2.0,1.2205378737553148,0.0,0,0
1761126580.3332152,4.9894938468933105,0.0,0.0,0.8503203669965315,0.0,0.0,0.6661734739325362,0.0,0.0,0.0,0.3,0.0,0.0,0.0,0.0,0.0,0.8503203669965315,stabilize,85.0,2.0,0.0,0.0,-2.0,1.1496796330034686,0.0,0,0
1761126580.437749,5.094027519226074,0.0,0.0,0.919145527861056,0.0,0.0,0.6318387861142625,0.0,0.0,0.0,0.3,0.0,0.0,0.0,0.0,0.0,0.919145527861056,stabilize,85.0,2.0,0.0,0.0,-2.0,1.080854472138944,0.0,0,0
1761126580.540958,5.19723653793335,0.0,0.0,0.98465830995557,0.0,0.0,0.6052221750355675,0.0,0.0,0.0,0.3,0.0,0.0,0.0,0.0,0.0,0.98465830995557,stabilize,85.0,2.0,0.0,0.0,-2.0,1.0153416900444299,0.0,0,0
1761126580.6500993,5.30637788772583,0.0,0.0,1.0497566949656765,0.0,0.0,0.60798087768421,0.0,0.0,0.0,0.8,0.0,0.0,0.0,0.0,0.0,1.0497566949656765,stabilize,85.0,2.0,0.0,0.0,-2.0,0.9502433050343235,0.0,0,0
1761126580.7536163,5.409894943237305,0.0,0.0,1.1098324067089596,0.0,0.0,0.6008663195279127,0.0,0.0,0.0,0.7724654286621122,0.0,0.0,0.0,0.0,0.0,1.1098324067089596,stabilize,85.0,2.0,0.0,0.0,-2.0,0.8901675932910404,0.0,0,0
1761126580.86021,5.516488552093506,0.0,0.0,1.1689063019817374,0.0,0.0,0.5125130274231595,0.0,0.0,0.0,0.3,0.0,0.0,0.0,0.0,0.0,1.1689063019817374,stabilize,85.0,2.0,0.0,0.0,-2.0,0.8310936980182626,0.0,0,0
1761126580.9647892,5.621067762374878,0.0,0.0,1.224015730737505,0.0,0.0,0.5275697260573068,0.0,0.0,0.0,0.8,0.0,0.0,0.0,0.0,0.0,1.224015730737505,stabilize,85.0,2.0,0.0,0.0,-2.0,0.775984269262495,0.0,0,0
1761126581.0688236,5.725102186203003,0.0,0.0,1.2765018555128667,0.0,0.0,0.5235598074410698,0.0,0.0,0.0,0.8,0.0,0.0,0.0,0.0,0.0,1.2765018555128667,stabilize,85.0,2.0,0.0,0.0,-2.0,0.7234981444871333,0.0,0,0
1761126581.1725912,5.828869819641113,0.0,0.0,1.3273016368767439,0.0,0.0,0.5022832847402147,0.0,0.0,0.0,0.7356529000479219,0.0,0.0,0.0,0.0,0.0,1.3273016368767439,stabilize,85.0,2.0,0.0,0.0,-2.0,0.6726983631232561,0.0,0,0
1761126581.2766893,5.932967901229858,0.0,0.0,1.3761929828656745,0.0,0.0,0.4807366271703797,0.0,0.0,0.0,0.8,0.0,0.0,0.0,0.0,0.0,1.3761929828656745,stabilize,85.0,2.0,0.0,0.0,-2.0,0.6238070171343255,0.0,0,0
1761126581.3794458,6.035724401473999,0.0,0.0,1.4226536516706627,0.0,0.0,0.4694088776522291,0.0,0.0,0.0,0.8,0.0,0.0,0.0,0.0,0.0,1.4226536516706627,stabilize,85.0,2.0,0.0,0.0,-2.0,0.5773463483293373,0.0,0,0
1761126581.4846208,6.140899419784546,0.0,0.0,1.4679401896439368,0.0,0.0,0.4141975140230076,0.0,0.0,0.0,0.5998900940115406,0.0,0.0,0.0,0.0,0.0,1.4679401896439368,stabilize,85.0,2.0,0.0,0.0,-2.0,0.5320598103560632,0.0,0,0
1761126581.5898585,6.2461371421813965,0.0,0.0,1.5099906438295072,0.0,0.0,0.40367550060535845,0.0,0.0,0.0,0.6537660759482238,0.0,0.0,0.0,0.0,0.0,1.5099906438295072,stabilize,85.0,2.0,0.0,0.0,-2.0,0.4900093561704928,0.0,0,0
1761126581.6930828,6.349361419677734,0.0,0.0,1.5487259893165655,0.0,0.0,0.3909466627176451,0.0,0.0,0.0,0.8,0.0,0.0,0.0,0.0,0.0,1.5487259893165655,stabilize,85.0,2.0,0.0,0.0,-2.0,0.45127401068343453,0.0,0,0
1761126581.7970886,6.453367233276367,0.0,0.0,1.5857994961210313,0.0,0.0,0.3320171887015798,0.0,0.0,0.0,0.3,0.0,0.0,0.0,0.0,0.0,1.5857994961210313,stabilize,85.0,2.0,0.0,0.0,-2.0,0.4142005038789687,0.0,0,0
1761126581.8999355,6.556214094161987,0.0,0.0,1.6195410708734996,0.0,0.0,0.2920114864546077,0.0,0.0,0.0,0.3,0.0,0.0,0.0,0.0,0.0,1.6195410708734996,stabilize,85.0,2.0,0.0,0.0,-2.0,0.38045892912650037,0.0,0,0
1761126582.0035553,6.659833908081055,0.0,0.0,1.651305466178473,0.0,0.0,0.27632825167793723,0.0,0.0,0.0,0.3,0.0,0.0,0.0,0.0,0.0,1.651305466178473,stabilize,85.0,2.0,0.0,0.0,-2.0,0.34869453382152704,0.0,0,0
1761126582.112534,6.768812656402588,0.0,0.0,1.6812780132699165,0.0,0.0,0.289030827830859,0.0,0.0,0.0,0.8,0.0,0.0,0.0,0.0,0.0,1.6812780132699165,stabilize,85.0,2.0,0.0,0.0,-2.0,0.31872198673008345,0.0,0,0
1761126582.2166405,6.872919082641602,0.0,0.0,1.7088371894652439,0.0,0.0,0.28962557963020175,0.0,0.0,0.0,0.8,0.0,0.0,0.0,0.0,0.0,1.7088371894652439,stabilize,85.0,2.0,0.0,0.0,-2.0,0.2911628105347561,0.0,0,0
1761126582.3206656,6.976944208145142,0.0,0.0,1.7338700853849014,0.0,0.0,0.21883701373500047,0.0,0.0,0.0,0.3,0.0,0.0,0.0,0.0,0.0,1.7338700853849014,stabilize,85.0,2.0,0.0,0.0,-2.0,0.2661299146150986,0.0,0,0
1761126582.4243598,7.080638408660889,0.0,0.0,1.7587557904285396,0.0,0.0,0.19897978264365437,0.0,0.0,0.0,0.3,0.0,0.0,0.0,0.0,0.0,1.7587557904285396,stabilize,85.0,2.0,0.0,0.0,-2.0,0.24124420957146042,0.0,0,0
1761126582.5281706,7.184449195861816,0.0,0.0,1.7827457382646223,0.0,0.0,0.25811068630609096,0.0,0.0,0.0,0.8,0.0,0.0,0.0,0.0,0.0,1.7827457382646223,stabilize,85.0,2.0,0.0,0.0,-2.0,0.21725426173537765,0.0,0,0
1761126582.6319218,7.288200378417969,0.0,0.0,1.8067748108568367,0.0,0.0,0.21861396019857146,0.0,0.0,0.0,0.5664894948891923,0.0,0.0,0.0,0.0,0.0,1.8067748108568367,stabilize,85.0,2.0,0.0,0.0,-2.0,0.19322518914316333,0.0,0,0
1761126582.735478,7.391756534576416,0.0,0.0,1.8294792419075177,0.0,0.0,0.2002003873380347,0.0,0.0,0.0,0.3,0.0,0.0,0.0,0.0,0.0,1.8294792419075177,stabilize,85.0,2.0,0.0,0.0,-2.0,0.17052075809248235,0.0,0,0
1761126582.8421535,7.498432159423828,0.0,0.0,1.8505629313764398,0.0,0.0,0.2203914206291342,0.0,0.0,0.0,0.8,0.0,0.0,0.0,0.0,0.0,1.8505629313764398,stabilize,85.0,2.0,0.0,0.0,-2.0,0.1494370686235602,0.0,0,0
1761126582.9449744,7.601253032684326,0.0,0.0,1.8697519672489202,0.0,0.0,0.2126767179759413,0.0,0.0,0.0,0.8,0.0,0.0,0.0,0.0,0.0,1.8697519672489202,stabilize,85.0,2.0,0.0,0.0,-2.0,0.13024803275107977,0.0,0,0
1761126583.050313,7.706591606140137,0.0,0.0,1.8878522701360607,0.0,0.0,0.19145909022419214,0.0,0.0,0.0,0.8,0.0,0.0,0.0,0.0,0.0,1.8878522701360607,stabilize,85.0,2.0,0.0,0.0,-2.0,0.11214772986393928,0.0,0,0
1761126583.1539893,7.810267925262451,0.0,0.0,1.905010948521798,0.0,0.0,0.18690864215792363,0.0,0.0,0.0,0.8,0.0,0.0,0.0,0.0,0.0,1.905010948521798,stabilize,85.0,2.0,0.0,0.0,-2.0,0.09498905147820191,0.0,0,0
1761126583.2584147,7.914693355560303,0.0,0.0,1.9212107391336626,0.0,0.0,0.18141612156881262,0.0,0.0,0.0,0.8,0.0,0.0,0.0,0.0,0.0,1.9212107391336626,stabilize,85.0,2.0,0.0,0.0,-2.0,0.07878926086633742,0.0,0,0
1761126583.3613386,8.017617225646973,0.0,0.0,1.9352682268208414,0.0,0.0,0.16653299660456186,0.0,0.0,0.0,0.8,0.0,0.0,0.0,0.0,0.0,1.9352682268208414,stabilize,85.0,2.0,0.0,0.0,-2.0,0.06473177317915857,0.0,0,0
1761126583.4639473,8.12022590637207,0.0,0.0,1.9492397023488899,0.0,0.0,0.16366304024294992,0.0,0.0,0.0,0.8,0.0,0.0,0.0,0.0,0.0,1.9492397023488899,stabilize,85.0,2.0,0.0,0.0,-2.0,0.05076029765111012,0.0,0,0
1761126583.5723956,8.228674173355103,0.0,0.0,1.9631429989706914,0.0,0.0,0.08450664294678983,0.0,0.0,0.0,0.36720835225069876,0.0,0.0,0.0,0.0,0.0,1.9631429989706914,stabilize,85.0,2.0,0.0,0.0,-2.0,0.036857001029308556,0.0,0,0
1761126583.675674,8.331952571868896,0.0,0.0,1.9748934913649105,0.0,0.0,0.09438432954878365,0.0,0.0,0.0,0.3,0.0,0.0,0.0,0.0,0.0,1.9748934913649105,stabilize,85.0,2.0,0.0,0.0,-2.0,0.025106508635089453,0.0,0,0
1761126583.7794006,8.435679197311401,0.0,0.0,1.987086486281712,0.0,0.0,0.08531086747323594,0.0,0.0,0.0,0.3,0.0,0.0,0.0,0.0,0.0,1.987086486281712,stabilize,85.0,2.0,0.0,0.0,-2.0,0.012913513718288083,0.0,0,0
1761126583.8882368,8.544515371322632,0.0,0.0,1.9977250179404762,0.0,0.0,0.09258117116521379,0.0,0.0,0.0,0.6193632287611516,0.0,0.0,0.0,0.0,0.0,1.9977250179404762,stabilize,85.0,2.0,0.0,0.0,-2.0,0.0022749820595238113,0.0,0,0
1761126583.9911132,8.64739179611206,0.0,0.0,2.006195647688862,0.0,0.0,0.11577328571353346,0.0,0.0,0.0,0.7847273703436588,0.0,0.0,0.0,0.0,0.0,2.006195647688862,stabilize,85.0,2.0,0.0,0.0,-2.0,0.006195647688862049,0.0,0,0
1761126584.092629,8.748907566070557,0.0,0.0,2.015099089351249,0.0,0.0,0.110501437316364,0.0,0.0,0.0,0.8,0.0,0.0,0.0,0.0,0.0,2.015099089351249,stabilize,85.0,2.0,0.0,0.0,-2.0,0.015099089351248818,0.0,0,0
1761126584.1984727,8.854751348495483,0.0,0.0,2.024265861333545,0.0,0.0,0.06657566002600704,0.0,0.0,0.0,0.3,0.0,0.0,0.0,0.0,0.0,2.024265861333545,stabilize,85.0,2.0,0.0,0.0,-2.0,0.024265861333545136,0.0,0,0
1761126584.3005214,8.956799983978271,0.0,0.0,2.0319550048654778,0.0,0.0,0.11128625260591687,0.0,0.0,0.0,0.8,0.0,0.0,0.0,0.0,0.0,2.0319550048654778,stabilize,85.0,2.0,0.0,0.0,-2.0,0.031955004865477754,0.0,0,0
1761126584.4039948,9.06027340888977,0.0,0.0,2.040308197431314,0.0,0.0,0.07496407624167704,0.0,0.0,0.0,0.5979523783147354,0.0,0.0,0.0,0.0,0.0,2.040308197431314,stabilize,85.0,2.0,0.0,0.0,-2.0,0.040308197431313975,0.0,0,0
1761126584.5077868,9.16406536102295,0.0,0.0,2.0470618956229747,0.0,0.0,0.09925920325514861,0.0,0.0,0.0,0.8,0.0,0.0,0.0,0.0,0.0,2.0470618956229747,stabilize,85.0,2.0,0.0,0.0,-2.0,0.04706189562297469,0.0,0,0
1761126584.6107879,9.267066478729248,0.0,0.0,2.054636012777835,0.0,0.0,0.10014260049016799,0.0,0.0,0.0,0.7919187749531091,0.0,0.0,0.0,0.0,0.0,2.054636012777835,stabilize,85.0,2.0,0.0,0.0,-2.0,0.05463601277783514,0.0,0,0
1761126584.7171578,9.373436450958252,0.0,0.0,2.0623100543048807,0.0,0.0,0.09239164515660439,0.0,0.0,0.0,0.8,0.0,0.0,0.0,0.0,0.0,2.0623100543048807,stabilize,85.0,2.0,0.0,0.0,-2.0,0.06231005430488068,0.0,0,0
1761126584.8198242,9.476102828979492,0.0,0.0,2.0691188004216072,0.0,0.0,0.08324640858392608,0.0,0.0,0.0,0.7365972406309982,0.0,0.0,0.0,0.0,0.0,2.0691188004216072,stabilize,85.0,2.0,0.0,0.0,-2.0,0.06911880042160723,0.0,0,0
1761126584.9236465,9.579925060272217,0.0,0.0,2.0759409470857486,0.0,0.0,0.08820147473886286,0.0,0.0,0.0,0.8,0.0,0.0,0.0,0.0,0.0,2.0759409470857486,stabilize,85.0,2.0,0.0,0.0,-2.0,0.07594094708574861,0.0,0,0
1761126585.0289629,9.685241460800171,0.0,0.0,2.0823622769297927,0.0,0.0,0.08650119089557307,0.0,0.0,0.0,0.8,0.0,0.0,0.0,0.0,0.0,2.0823622769297927,stabilize,85.0,2.0,0.0,0.0,-2.0,0.0823622769297927,0.0,0,0
1761126585.134755,9.791033506393433,0.0,0.0,2.087377153942708,0.0,0.0,0.08070243269590477,0.0,0.0,0.0,0.8,0.0,0.0,0.0,0.0,0.0,2.087377153942708,stabilize,85.0,2.0,0.0,0.0,-2.0,0.08737715394270795,0.0,0,0
1761126585.2401752,9.896453857421875,0.0,0.0,2.091972943840696,0.0,0.0,0.07443613185373824,0.0,0.0,0.0,0.8,0.0,0.0,0.0,0.0,0.0,2.091972943840696,stabilize,85.0,2.0,0.0,0.0,-2.0,0.09197294384069599,0.0,0,0
1761126585.3459032,10.002181768417358,0.0,0.0,2.0968133167979377,0.0,0.0,0.07403892982822396,0.0,0.0,0.0,0.8,0.0,0.0,0.0,0.0,0.0,2.0968133167979377,stabilize,85.0,2.0,0.0,0.0,-2.0,0.0968133167979377,0.0,0,0
1761126585.449836,10.106114625930786,0.0,0.0,2.1019238274828966,0.0,0.0,0.07196269387958223,0.0,0.0,0.0,0.8,0.0,0.0,0.0,0.0,0.0,2.1019238274828966,stabilize,85.0,2.0,0.0,0.0,-2.0,0.10192382748289663,0.0,0,0
1761126585.552776,10.209054708480835,0.0,0.0,2.106929790943629,0.0,0.0,0.011188250757824349,0.0,0.0,0.0,0.3,0.0,0.0,0.0,0.0,0.0,2.106929790943629,stabilize,85.0,2.0,0.0,0.0,-2.0,0.10692979094362887,0.0,0,0
1761126585.657892,10.314170598983765,0.0,0.0,2.1107911721587356,0.0,0.0,0.017563958231850897,0.0,0.0,0.0,0.3,0.0,0.0,0.0,0.0,0.0,2.1107911721587356,stabilize,85.0,2.0,0.0,0.0,-2.0,0.11079117215873557,0.0,0,0
1761126585.7644043,10.420682907104492,0.0,0.0,2.114021350334583,0.0,0.0,-0.0006543543186716058,0.0,0.0,0.0,0.3,0.0,0.0,0.0,0.0,0.0,2.114021350334583,stabilize,85.0,2.0,0.0,0.0,-2.0,0.11402135033458283,0.0,0,0
1761126585.869522,10.525800704956055,0.0,0.0,2.116478731799896,0.0,0.0,-0.000598383076686082,0.0,0.0,0.0,0.3,0.0,0.0,0.0,0.0,0.0,2.116478731799896,stabilize,85.0,2.0,0.0,0.0,-2.0,0.1164787317998961,0.0,0,0
1761126585.9725835,10.628862142562866,0.0,0.0,2.1186456215576133,0.0,0.0,0.002789202421137109,0.0,0.0,0.0,0.3,0.0,0.0,0.0,0.0,0.0,2.1186456215576133,stabilize,85.0,2.0,0.0,0.0,-2.0,0.11864562155761327,0.0,0,0
