timestamp,simulation_time,position_x,position_y,position_z,velocity_x,velocity_y,velocity_z,attitude_roll,attitude_pitch,attitude_yaw,control_throttle,control_roll,control_pitch,control_yaw,estimated_position_x,estimated_position_y,estimated_position_z,flight_mode,battery_level,setpoint_altitude,setpoint_position_x,setpoint_position_y,setpoint_position_z,position_error,attitude_error
1760988951.9582953,0.14219260215759277,0.0002573702140825744,0.0001245761864261411,10.068891534191183,0.010666140462848858,0.011080173743380752,0.9750853355232181,0.028051331989069176,-0.020677919614548398,-0.011457572670004681,0.65,0.012275050857902937,-0.00838161546942981,-0.07975512702827711,-0.3371100185505986,-0.08256733329624247,8.77915272970355,stabilize,85.0,10.0,0.0,0.0,-10.0,18.782359749900095,0.047152577187800485
1760988952.0592558,0.24315309524536133,0.003297899137656896,0.004134203152925687,10.203267761061438,0.04410610555960175,0.0616605494072789,1.6740180803295397,0.01650819356404663,-0.012556803585974536,-0.020970438238731282,0.65,0.03339388004531602,-0.029477348449716383,0.15,-0.240088247958516,-0.39829699178494665,9.399633855083325,stabilize,85.0,10.0,0.0,0.0,-10.0,19.4052074601579,0.16546444930466042
1760988952.1609657,0.3448629379272461,0.009739607789440429,0.012810009701064226,10.410250866745502,0.08240385938011903,0.11427887236699603,2.3753901025334105,0.02709554553393673,-0.01071745018052461,-0.017671711046392372,0.65,-0.01595572214575429,-0.011099589183047895,-0.15,-0.4104373196388141,-0.30881542154636205,9.318726365491225,stabilize,85.0,10.0,0.0,0.0,-10.0,19.325553398096076,0.05114125658733649
1760988952.270736,0.4546332359313965,0.02007385068492462,0.02709448879793098,10.710569280716026,0.11876380200231061,0.15540514038958636,3.120517834797111,0.03940271019432276,-0.03222559270728621,-0.013082711114754925,0.65,-0.04362313772450145,0.04947418711364167,-0.07795987915326937,-0.48658283975187994,-0.3727895236216715,9.986820804220372,stabilize,85.0,10.0,0.0,0.0,-10.0,19.996218161164357,0.03040751973031684
1760988952.3777013,0.561598539352417,0.034218232358548484,0.046224787036890265,11.084980982272883,0.14257282853027942,0.19762264723933712,3.8459215352785887,0.03633258438933275,-0.02729224638436956,-0.011043389766272333,0.65,-0.018286992306568144,0.026191293186660303,0.001407756946221972,-0.7405695377021799,-0.3876657674815996,10.289479034885314,stabilize,85.0,10.0,0.0,0.0,-10.0,20.30669070760916,0.011176853836027293
1760988952.4857574,0.6696546077728271,0.05193826565775599,0.07081619355854983,11.539565386206577,0.17436686964266737,0.24675377754380967,4.567036212279668,0.019989911745462975,-0.007578112905590113,-0.010291301962766921,0.65,0.04143821281223543,-0.03480287247162456,0.12237261569766514,0.04999129990314469,-0.33921588849381723,10.867574569820858,stabilize,85.0,10.0,0.0,0.0,-10.0,20.87039134698022,0.05401008554758386
1760988952.5931463,0.7770435810089111,0.07250086360927781,0.10075849514451016,12.068060781727427,0.20735413953333504,0.308201021580549,5.273892456325895,0.01472630226058639,-0.007846457871567767,-0.0039001337455345886,0.65,0.036644402477965,-0.030020720267886714,-0.13988446661779194,-0.24281369892013263,-0.3319498110049124,10.514758669418246,stabilize,85.0,10.0,0.0,0.0,-10.0,20.51888087674083,0.05701465666256499
1760988952.6993685,0.8832657337188721,0.09579853211642442,0.13502312935267713,12.661905383138372,0.24058989279529924,0.3486436544170254,5.959918813142183,0.02763832609432235,-0.018990777540651982,-0.0008067855320122707,0.65,-0.030392714759704516,0.01717424714512953,0.15,-0.2553903756651845,0.537887908436311,10.291084352042215,stabilize,85.0,10.0,0.0,0.0,-10.0,20.299819009728065,0.08207415912262764
1760988952.807327,0.9912242889404297,0.12257526522812585,0.1743592335527207,13.346060432082567,0.25791992573129097,0.3845772479782198,6.652151186983605,0.04470768430749474,-0.029024143264237467,0.004015082639495841,0.65,-0.05248745140478741,0.0368842405988421,0.12052752322723842,0.1253613038414676,0.4216618259508182,11.403355089822725,stabilize,85.0,10.0,0.0,0.0,-10.0,21.407875262459033,0.05550164208729266
1760988952.907538,1.091435194015503,0.14995658921932073,0.21543656368442635,14.044262831922016,0.27960477315100973,0.42335385136818365,7.281238229783317,0.01905273309718316,-0.01237977992177669,0.005345414888071169,0.65,0.03336854009597632,-0.03203169239343787,-0.15,1.2205627996095298,1.0187610125744082,10.826628153356749,stabilize,85.0,10.0,0.0,0.0,-10.0,20.887223075045767,0.21781941661156354
1760988953.0171723,1.2010695934295654,0.18294788421929323,0.26479799452497116,14.87955863918455,0.3159600290386363,0.47100436445094296,7.954299197787181,0.00891296180224569,-0.0024839659541483674,0.007132053481855164,0.65,0.04562127481194535,-0.04284547120815948,-0.09655941559218889,0.12246501981380636,1.4454160757958407,12.372011930817107,stabilize,85.0,10.0,0.0,0.0,-10.0,22.418990680801624,0.044512147650196364
1760988953.124636,1.3085331916809082,0.21790183331243518,0.31712403272007156,15.769177134317815,0.3408496752405528,0.5114857260421721,8.599428687977715,0.02205606264356555,-0.01154861767420217,0.014861022514256077,0.65,-0.018363122672854004,0.011186778803050567,-0.1005214242640517,0.1533808109860965,1.4902937674187147,14.738131529852254,stabilize,85.0,10.0,0.0,0.0,-10.0,24.783455222681443,0.05132530684613797
1760988953.232408,1.4163053035736084,0.25478021736103906,0.3728621495627936,16.73018614366623,0.3529360871605956,0.5308407900761096,9.231197747445112,0.03514725627894519,-0.029421875398679055,0.014227542685365852,0.65,-0.061629981390079205,0.061633533374559214,-0.04723177511561234,-0.1664616640265952,0.8214154352598125,14.380026163146372,stabilize,85.0,10.0,0.0,0.0,-10.0,24.394427816994913,0.0422416752007748
1760988953.3419251,1.525822401046753,0.29364922326068127,0.4317258309605904,17.765697759882762,0.35528784726290097,0.5458997914282566,9.85153143590226,0.024207300432987317,-0.016869857320815654,0.017126878649591733,0.65,-0.0045921578234888304,0.0060665032135101375,-0.0345471889091515,-0.1271488984194915,0.8734324788303295,16.352781718980985,stabilize,85.0,10.0,0.0,0.0,-10.0,26.367558769550573,0.016308286896735132
1760988953.449615,1.633512258529663,0.3338804868094714,0.49359692256096277,18.869459939046166,0.3677400559773147,0.5772532471921534,10.455369280355924,-0.0033367622434652047,0.01491942899776235,0.01568393484666174,0.65,0.06983775227987847,-0.06924366662369562,0.15,0.038179166758369854,0.7543054402743219,16.3806252067496,stabilize,85.0,10,0.0,0.0,-10.0,26.3914346075577,0.08137191768167804
1760988953.5579548,1.741852045059204,0.37420975156056274,0.5575909844010447,20.034013924174506,0.3809445041220263,0.6121446777112156,11.039308649499329,0.011658305075637983,0.007499597977046057,0.009041140756946064,0.65,0.013405481242900438,-0.028536449061623975,-0.08901244630094633,0.545520815648693,0.9471973351719941,17.18678375959283,stabilize,85.0,10,0.0,0.0,-10.0,27.208748353111055,0.05883881692524314
1760988953.6677282,1.8516254425048828,0.415541996681413,0.6252600599202328,21.277475694111956,0.390266418238088,0.6373206708647833,11.61199939166335,0.039058032845705005,-0.022460120350693114,0.003815493346406554,0.65,-0.06745405203803362,0.048472752281498666,0.06355440511300442,0.8572542220751287,1.1929907151288253,18.222879324392263,stabilize,85.0,10,0.0,0.0,-10.0,28.261086833433307,0.029161465361557403
1760988953.7769723,1.960869550704956,0.4582981185177735,0.6957680657376453,22.57631360791058,0.40161458295704155,0.6523035983283634,12.162957772721116,0.03684656577526811,-0.04232739116722614,-0.0004234934507062003,0.65,-0.04232095284866012,0.07073616865808006,0.017628108689128376,0.4801402435523872,1.190690047353536,20.60827575258397,stabilize,85.0,10,0.0,0.0,-10.0,30.63518927619944,0.027101847398629503
1760988953.886971,2.0708682537078857,0.5042470214248116,0.7696828695637571,23.943918941706244,0.41446663284385105,0.6738228766341955,12.69984456641086,0.00970916337207882,-0.009537913889228734,-0.005383354349410282,0.65,0.05617844973056994,-0.03858400397364462,-0.0376048676615175,0.5260146702641877,1.2607610794201014,22.373181882839877,stabilize,85.0,10,0.0,0.0,-10.0,32.401992456516396,0.0318661696927554
1760988953.9966354,2.180532693862915,0.5519839758703883,0.8461714216552355,25.36504116159324,0.441504654307117,0.7134452101523502,13.21459892287128,-0.0018847188385503234,0.01248066930910531,-0.004792418389313951,0.65,0.0804769073655545,-0.08480019547513636,-0.08741880149272,0.5718303920066267,1.3302465799042844,23.685777621975184,stabilize,85.0,10,0.0,0.0,-10.0,33.716882417532815,0.049666177833693065
1760988954.1056974,2.2895946502685547,0.6013630765655212,0.9253001960606925,26.833324027470653,0.47701074740334554,0.7536717754365435,13.707137770448703,0.023324019044927338,-0.008190763525244752,-0.0014392551100550714,0.65,-0.022316070251794214,-0.0022662259791134606,-0.15,0.7186677813552259,1.0499636832779993,24.76969350167241,stabilize,85.0,10,0.0,0.0,-10.0,34.792966147145336,0.05944223395149129
1760988954.2145681,2.398465394973755,0.6526604264501366,1.0068804037813457,28.344567896722463,0.4920344595039522,0.768444557326907,14.179964811046629,0.04929704856498204,-0.04669035554592492,0.0009261919040467164,0.65,-0.09069082412890589,0.09834377079669154,0.09197562639263016,1.0516449680752946,1.7271397734038807,24.68201475256917,stabilize,85.0,10,0.0,0.0,-10.0,34.74091415367732,0.05967027418238241
1760988954.3221724,2.5060696601867676,0.706706261307889,1.0907346027728675,29.894572753747003,0.5091767056665811,0.7809381801816245,14.628565832232878,0.03589892599350445,-0.04203149517029147,0.009321375110584671,0.65,-0.020091094000496496,0.03677365301350709,-0.08164721474382808,1.1083894774610188,1.8024219694901977,27.795075098277156,stabilize,85.0,10,0.0,0.0,-10.0,37.85425938879609,0.033717942158153186
1760988954.4305363,2.614433526992798,0.7645584707315829,1.177645828390147,31.489934516364098,0.5451465111759378,0.8161289427622167,15.058255114112987,0.0040516238251811065,-0.0018089641539483841,0.014289555838715128,0.65,0.08852642820897118,-0.08484549595980197,-0.02347100831356498,0.8898049361778171,1.7510806506076972,26.79130898358791,stabilize,85.0,10,0.0,0.0,-10.0,36.843703030439485,0.04012681813071366
1760988954.536995,2.7208921909332275,0.8257897215095136,1.2681677820512913,33.13647560496679,0.5915334749451089,0.8628397207265037,15.468333482116874,0.0032578838236838633,-0.00777175239762188,0.02576955885453549,0.65,0.05248295261021141,-0.0505430522190463,0.015195894400356182,0.9449490878133917,1.8304180271715071,30.937069688351638,stabilize,85.0,10,0.0,0.0,-10.0,40.988864751316456,0.03037526837410179
1760988954.6461573,2.830054521560669,0.8907088795004201,1.3618616940467054,34.829070046174756,0.6272114854474931,0.8985398836205514,15.863349939816175,0.05058067949929204,-0.03617476268321909,0.04002742394717693,0.65,-0.07676771387349852,0.05468242233697213,-0.005319855566343429,1.3786644366870342,1.8366718434950586,30.49947974286027,stabilize,85.0,10,0.0,0.0,-10.0,40.56454040824354,0.031000827412214754
1760988954.7532027,2.9370999336242676,0.9587882135334413,1.459719297372354,36.557527317405125,0.6467290115264896,0.9250090063334764,16.238990900340305,0.06028172524596064,-0.05328291877265083,0.051008205828086337,0.65,-0.07681303096279546,0.07931869876583393,-0.08297005137754626,0.5895674373659809,1.6871923306073022,32.68400253860765,stabilize,85.0,10,0.0,0.0,-10.0,42.721403071991055,0.059002685400671065
1760988954.8597083,3.0436055660247803,1.0296236678011115,1.5611932962652637,38.306106370560315,0.66829315303177,0.95934485857316,16.594808848363137,0.026654843941910568,-0.02638455313997584,0.055423541205427015,0.65,0.04791202460019478,-0.033522377335359975,-0.15,0.6504558125589004,1.7823356025904682,36.19725818176697,stabilize,85.0,10,0.0,0.0,-10.0,46.23620309321677,0.1049245597101501
1760988954.9722664,3.1561636924743652,1.1081492847525916,1.672754520089075,40.18577052064194,0.7197763992786838,1.0168666015165522,16.948669305711054,0.006223591893369257,-0.006938764005184946,0.050414232951404875,0.65,0.09724764479110504,-0.10037407744443816,-0.07409557702522558,1.3505513232601634,0.9620558041485902,36.34444295903178,stabilize,85.0,10,0.0,0.0,-10.0,46.374097656234845,0.08151872972866338
1760988955.0789864,3.2628836631774902,1.188090793000739,1.784298361418432,42.02909209791086,0.7742604813859951,1.067128606792903,17.27227175464989,0.02581309556038634,-0.02343750389298894,0.046465061926714346,0.65,-0.006824712548653083,-0.012657392106543947,-0.04597064848547974,1.16884586103605,1.0837512949271915,36.524100001114896,stabilize,85.0,10,0.0,0.0,-10.0,46.55139738428758,0.03333705163125463
1760988955.1882422,3.3721394538879395,1.2733193825914046,1.9009836039846686,43.93359037458578,0.8050017921786924,1.0902512478994413,17.58693884512344,0.06215005166212705,-0.055095626889183034,0.03851887915365014,0.65,-0.09806862825512144,0.08534350981877503,-0.15,0.5427323008151791,1.3516479279767697,41.05683354243907,stabilize,85.0,10,0.0,0.0,-10.0,51.0776052869737,0.1375478393397523
1760988955.296655,3.4805521965026855,1.3619640895613163,2.0209395442581495,45.856381969891906,0.8286392756826695,1.1127468743211446,17.882483830004386,0.04460285741657345,-0.05260189848921765,0.023523184397533224,0.65,-0.015624161725588379,0.03579183881217811,-0.0944620094762614,0.5044460621582246,1.5350712401104605,37.71588903186215,stabilize,85.0,10,0.0,0.0,-10.0,47.74324010415321,0.08328414922980924
1760988955.403515,3.5874123573303223,1.4538994228411113,2.1429001078590213,47.7820885437765,0.8717125650866723,1.149809636051095,18.157989838920045,0.008646168137529022,-0.014687163338549959,0.007104054286428015,0.65,0.07810682370527225,-0.0706319215120465,0.01364291085398928,0.982245907489562,2.555364832103764,41.14060763124876,stabilize,85.0,10,0.0,0.0,-10.0,51.21383060601181,0.03514965989040436
1760988955.5044413,3.6883385181427,1.544113319779565,2.26017083928386,49.62724864982436,0.9172599093754725,1.1776011855993997,18.404619901115822,0.013001406963459469,-0.016114027295363986,-0.0035105106909548555,0.65,0.011306195569540354,-0.034413535578623485,0.10191069912890836,1.4340423128961128,2.9797063766691525,45.41067008114398,stabilize,85.0,10,0.0,0.0,-10.0,55.50925586141219,0.04157617357569013
1760988955.6138308,3.7977280616760254,1.6453951663391821,2.388441219205116,51.6547126304731,0.955904957797448,1.186799765940579,18.66050993893711,0.04254293692255065,-0.051863514460196186,-0.007852805169511104,0.65,-0.07963478942884857,0.06900026090660101,-0.014145522141887988,1.5266283977662987,3.103192225866465,49.49881369717413,stabilize,85.0,10,0.0,0.0,-10.0,59.59923848193516,0.03404340932770399
1760988955.7219803,3.9058775901794434,1.7499248688058626,2.516043753374504,53.68592082523432,0.9819854834587302,1.169322057165987,18.900015093055377,0.03458557254545955,-0.06188893871156563,-0.01657599592874756,0.65,-0.03409417874608474,0.0716662967494027,-0.0810300424497851,1.618715948836309,3.2243085183441424,51.600280034714224,stabilize,85.0,10,0.0,0.0,-10.0,61.70584175829462,0.04540000860369927
1760988955.8318243,4.015721559524536,1.8601156880206475,2.644837640718045,55.76509404951561,1.0110162041388362,1.1635596076619885,19.130772699369366,-0.00241033658111548,-0.026094797027008742,-0.0260780871003127,0.65,0.0808577903472053,-0.046825064194265395,-0.06630439133588048,1.7120783957387566,3.344294239715053,53.4413750612782,stabilize,85.0,10,0.0,0.0,-10.0,63.55252619731743,0.05132877389400096
1760988955.9391031,4.123000383377075,1.9719871324143543,2.7703270282134893,57.82824727095751,1.0646481491949433,1.1713339577539919,19.342169229992457,-0.009157157709496076,-0.010555349658273714,-0.030640499704430096,0.65,0.07701630477261387,-0.07807886022978291,-0.019027785541882884,2.3319306479981536,1.4903536556024977,54.15045199551148,stabilize,85.0,10,0.0,0.0,-10.0,64.21012027550067,0.03536925659343455
1760988956.0407894,4.224686622619629,2.0822213582777693,2.8891565339447385,59.815406044323794,1.1098183231559777,1.172047342142974,19.5337376388854,0.029156939286895972,-0.044416741009626,-0.029757973046270147,0.65,-0.06233135937381534,0.04201128419816125,0.05301803982502756,2.09413862193995,0.6651362673686336,50.78206759164425,stabilize,85.0,10,0.0,0.0,-10.0,60.821768829402515,0.041112871842775886
1760988956.1475139,4.331411123275757,2.2014802521108474,3.0129047337237966,61.91043615923043,1.1390366557581901,1.156669729424624,19.72444357726358,0.05127355000889252,-0.06953686345170272,-0.02881582712674502,0.65,-0.08232145521712562,0.09125282534994734,-0.15,1.9648206680556408,1.267329555011778,56.96875851981693,stabilize,85.0,10,0.0,0.0,-10.0,67.00956097561136,0.08197559658019966
1760988956.2554283,4.439325571060181,2.3266361651607927,3.13862166355406,64.04889940360458,1.1627825783946333,1.148025258687453,19.907578838991316,0.004247675103055997,-0.04142302298374957,-0.029359096664618282,0.65,0.06678749351386505,-0.013594968846518443,-0.11382564830133873,2.0761471931643576,1.3864563552573328,61.538446725541675,stabilize,85.0,10,0.0,0.0,-10.0,71.58199500080926,0.06303326452000353
1760988956.363683,4.547580242156982,2.4560438309338357,3.264131821421309,66.21334506525614,1.206176065585325,1.159564983407601,20.080101201865055,-0.013787489992381316,-0.004413266400862221,-0.03496021317773255,0.65,0.09846719515610776,-0.11007774714796484,0.023326413101265212,2.1871046224174666,1.5028300655187439,64.13226701687586,stabilize,85.0,10,0.0,0.0,-10.0,74.17974749145894,0.04943437450358004
1760988956.4704046,4.654301881790161,2.586962297425898,3.387310116119001,68.36503866042665,1.261164465023059,1.1671913938618537,20.240833062602064,0.01694439698245256,-0.028370243825132934,-0.031015006670414243,0.65,-0.03447695764430969,-0.008769167475193315,0.15,2.6404615760770214,2.9046300588745555,62.1370917317558,stabilize,85.0,10,0.0,0.0,-10.0,72.24381576736799,0.13509875033400148
1760988956.580515,4.76441216468811,2.7253093356775757,3.5131337662650566,70.59217987616064,1.2896070356194762,1.148048955727425,20.39732771342735,0.0444247772953434,-0.07016944749648653,-0.019577092182603267,0.65,-0.11203983421342123,0.10418743553613541,-0.04308113469231279,1.3481318656538703,1.6649395615141531,54.31714754115629,stabilize,85.0,10,0.0,0.0,-10.0,64.35281618625213,0.04938915747730854
1760988956.6897213,4.8736186027526855,2.8674448093233202,3.637525501670995,72.82777381076788,1.3086410532913961,1.1234014377620065,20.54322539618933,0.03698354834809231,-0.0642169557166891,-0.010322102446311862,0.65,-0.035199956390155406,0.0411610864580525,0.0027312255658599096,2.2182400147311108,1.970874428433998,67.36961756619142,stabilize,85.0,10,0.0,0.0,-10.0,77.42649841697819,0.023205076399049143
1760988956.7959244,4.979821681976318,3.0108644739683834,3.75912581372556,75.02707709600512,1.3545204434244513,1.129643828824378,20.677052398602548,-0.008610610146284798,-0.022991316048641266,0.0019371112021043886,0.65,0.10492454872121235,-0.09072114071043287,0.15,2.35036776237421,2.090996005826529,72.19754051869542,stabilize,85.0,10,0.0,0.0,-10.0,82.25771793720857,0.08949545089518357
1760988956.9033027,5.087199926376343,3.158541352861086,3.8807378548534968,77.24366301396817,1.4070511468492635,1.1500343878497847,20.80258340401123,-0.0011963797911149678,-0.020687332222524404,0.006629027089202925,0.65,0.04557037071148343,-0.0652978637598314,0.15,2.481677726284691,2.208822065054717,75.07957466596383,stabilize,85.0,10,0.0,0.0,-10.0,85.1444164029182,0.11683057737414115
1760988957.0123644,5.196261644363403,3.313454658627884,4.004772846298509,79.51910369818039,1.457939022081954,1.1514553411762303,20.92316280221717,0.04575425978516719,-0.06348888455488971,0.007392582209552301,0.65,-0.08835132814821313,0.06278641262539444,0.12236470556469191,2.8426282020217672,3.3462958674882928,75.86834885955528,stabilize,85.0,10,0.0,0.0,-10.0,85.98053016232214,0.053336281817434765
1760988957.1222813,5.306178569793701,3.4748454352020235,4.130835495799799,81.82532416556788,1.4904953160670016,1.1455549249536043,21.037255935552135,0.05039422474523191,-0.08526587272858041,0.01662728632246816,0.65,-0.07593396695192497,0.10215371173175153,-0.15,3.599197544272333,3.938568065974276,64.85384696728988,stabilize,85.0,10,0.0,0.0,-10.0,75.04375355201431,0.10281976443905728
1760988957.229237,5.413134336471558,3.637408265837778,4.254779856972308,84.08072438015859,1.5286613849461688,1.1489325563128527,21.142993162711964,0.011008281107066501,-0.04896586045652365,0.019944490815574506,0.65,0.06373445833153867,-0.04340941557265259,0.15,3.7546544897528085,4.062328027341272,79.71247404947628,stabilize,85.0,10,0.0,0.0,-10.0,89.88285676043624,0.0627087744869469
1760988957.3371181,5.521015405654907,3.8075386714543877,4.381241631486089,86.37798330280992,1.5915958008119264,1.170308658255739,21.241714571453052,-0.012322611346584147,-0.01784017618283956,0.020021651915966866,0.65,0.10468466666242762,-0.11552210368470202,0.03656575135602759,3.2165329142035946,4.313107795559183,77.71710996598158,stabilize,85.0,10,0.0,0.0,-10.0,87.88196836455344,0.05032942725558366
1760988957.4446778,5.628575086593628,3.980888284574394,4.506892421452833,88.66786404896158,1.643698323205655,1.1857882764265004,21.334810995243096,0.019801611173540852,-0.03767210851864568,0.027252970774133915,0.65,-0.03405916326208672,-0.0045504007855273025,-0.12697269194534924,3.8972979948259177,4.416850281489659,81.10222666193845,stabilize,85.0,10,0.0,0.0,-10.0,91.29245971509792,0.06416243646260608
1760988957.5534072,5.737304449081421,4.159702460085372,4.633731021065841,90.99254128586804,1.666942469019543,1.1668340551847762,21.424768891177077,0.04987448466582462,-0.07222988855587305,0.030933780459932947,0.65,-0.11968802506218422,0.10820699526755898,0.15,4.064032542529114,4.538320011961841,88.37054268151232,stabilize,85.0,10,0.0,0.0,-10.0,98.55899946982491,0.09684555059610905
1760988957.6615758,5.845473051071167,4.340275449132668,4.759556678894094,93.31462620025331,1.663855380812937,1.1464873994498495,21.50906034615633,0.028793568163254235,-0.0558920617741215,0.0389537667413433,0.65,-0.016808820159389122,0.04260040374383714,-0.016953081993186694,4.8610328921618535,3.709003972649333,88.52241405105062,stabilize,85.0,10,0.0,0.0,-10.0,98.71196696294965,0.015120821081984996
1760988957.7711816,5.955078840255737,4.524786293522748,4.886817079288238,95.67654568852846,1.6755680012059257,1.14852064118086,21.589743978845764,-0.015624895621273213,-0.007036376428730761,0.04469980009973204,0.65,0.10970880583553094,-0.1049631436105189,-0.1278042385517424,5.021092150968268,3.8287143908104535,92.87541150785266,stabilize,85.0,10,0.0,0.0,-10.0,103.0690094702813,0.08886891303026281
1760988957.879589,6.063486337661743,4.708041119143446,5.011781511464981,98.02099441389743,1.7068941956406396,1.1646367089135525,21.661590438587385,-0.0030245492448435427,-0.01105492486740544,0.039812556854789745,0.65,0.035473499941793496,-0.05594343941654184,0.0925943129332454,5.175926444305822,3.943851370383908,95.63215769869832,stabilize,85.0,10,0.0,0.0,-10.0,105.83240013469984,0.02299170148158085
1760988957.9885354,6.1724326610565186,4.892273470468875,5.136268719201829,100.37404098121311,1.7177104775691228,1.163245814599033,21.73406401106174,0.052339549745532045,-0.057149316737947715,0.027231427109805022,0.65,-0.10931399300518371,0.09902301394933868,-0.01177775520578745,4.938612329553467,2.8729992768716737,81.39729301939647,stabilize,85.0,10,0.0,0.0,-10.0,91.5757019512269,0.07867448330573626
1760988958.0931132,6.277010440826416,5.070701898498757,5.257318911155157,102.65031578730463,1.697507359804522,1.1494913561247484,21.79766308279274,0.04762598050914551,-0.06178157564831014,0.014250456315074942,0.65,-0.059291326789201265,0.07645652589789356,0.029981620440632028,4.806740282364279,3.5664655511010084,96.53519628228943,stabilize,85.0,10,0.0,0.0,-10.0,106.70319805692438,0.03873878450749047
1760988958.2014148,6.385312080383301,5.2569131247479195,5.384065586694549,105.02549924342625,1.6972791412443062,1.1515337533791135,21.861702159106244,0.0012372719108438984,-0.016241624426186613,0.009290991270949074,0.65,0.08427144446654103,-0.07595276251862221,-0.15,4.978357296143616,3.6826779703370094,102.21844878347625,stabilize,85.0,10,0.0,0.0,-10.0,112.38917388152186,0.16498669440876648
1760988958.3082936,6.492190837860107,5.439982750612236,5.508599212175182,107.36505661609358,1.7184037388606261,1.1728095849165325,21.91723881501776,-0.009468751449846805,0.0008688297283613918,-0.000880042199315126,0.65,0.08277519407172743,-0.09037407799884903,0.11697709494136878,5.621675670810576,4.30124771414749,100.00669202222157,stabilize,85.0,10,0.0,0.0,-10.0,110.23418824900989,0.042576248923874335
1760988958.4156468,6.599544048309326,5.6237073221288085,5.633808839763354,109.7209614040091,1.7271168828728218,1.1890153367827494,21.971375864126983,0.04379855030693434,-0.03624545663440264,-0.004784445071221452,0.65,-0.07108466008978113,0.04527671240717326,-0.060354063498413775,5.789900162609438,4.420092000566503,106.59796646786207,stabilize,85.0,10,0.0,0.0,-10.0,116.82527954867963,0.03465544735214701
1760988958.523949,6.707846164703369,5.808202329311957,5.761248518151646,112.09218284524606,1.7118831678459916,1.18555176920674,22.022356079766137,0.05837638978099421,-0.06303009092741392,-0.0009789156422256853,0.65,-0.10018329884700178,0.10301297693489411,-0.15,6.1836037599963865,4.976536710478421,106.57975999319336,stabilize,85.0,10,0.0,0.0,-10.0,116.84966115980802,0.10936558981665885
1760988958.6319966,6.815893888473511,5.993436466218886,5.890330306228769,114.47416917693293,1.6973983675252469,1.1816533703274177,22.069650744194586,0.020944314321747346,-0.029608928285090205,-0.0029896826683714506,0.65,0.03768562139179245,-0.015971311263928686,-0.15,6.357163635496664,5.09851420488418,111.79287268185143,stabilize,85.0,10,0.0,0.0,-10.0,122.06519656594816,0.15157702222111183
1760988958.7392688,6.923166036605835,6.177537129759551,6.019653085004623,116.85505500770725,1.6952213410522383,1.1995000321277176,22.11280703806326,-0.011303131444686748,0.01419198247691806,-0.005642289388509332,0.65,0.11305691036218288,-0.11292404760966296,-0.02167336072751746,6.631818796319227,5.518254608492674,96.87330375903372,stabilize,85.0,10,0.0,0.0,-10.0,107.22096441854109,0.05658504577216347
1760988958.8460312,7.02992844581604,6.357738814795984,6.147938253914606,119.21813358574734,1.6947329314081048,1.2217440941448423,22.15433457430538,0.020448301281412305,-0.008666045426860895,-0.008071458676186092,0.65,-0.01640725934120495,-0.009572429733070393,0.15,6.966853995176898,6.15155672498171,108.61400420087153,stabilize,85.0,10,0.0,0.0,-10.0,118.97756383997427,0.09213214253067421
1760988958.9538064,7.1377036571502686,6.537687654277479,6.27794305004042,121.60816361544047,1.672683983239973,1.2153133760505457,22.19666142225217,0.06558913655386431,-0.055481054450481716,-0.007016878913821614,0.65,-0.12537798552310067,0.12290939659127406,0.15,7.20960383599522,5.307439441586343,107.37006214781023,stabilize,85.0,10,0.0,0.0,-10.0,117.71099689272425,0.10069338475724887
1760988959.0619593,7.245856523513794,6.716891610433768,6.409630939029709,124.01088855825797,1.6350273019137302,1.201514049958072,22.235358543491493,0.03153776353021802,-0.04540275743259427,0.002245652089026756,0.65,-0.000454381947934552,0.05091195028569936,0.1258677703244997,7.032784681733657,5.9177060977924825,111.18866491904812,stabilize,85.0,10,0.0,0.0,-10.0,121.53670972467867,0.07417529242177982
1760988959.1705325,7.354429721832275,6.895492929949951,6.54184171729838,126.42709240294523,1.6237866506238692,1.2039181637387608,22.273833491631393,-0.01947013789246032,0.006307557507531853,0.008325864788996615,0.65,0.12259120303955987,-0.11764931002252488,0.15,7.867110113129015,5.9636055012205516,119.76134611264872,stabilize,85.0,10,0.0,0.0,-10.0,130.13632451038757,0.14975032481432052
1760988959.2794082,7.463305473327637,7.07294906730611,6.672933776409341,128.85400219154113,1.630281197773413,1.2092276133848903,22.30647053497742,-0.010712593079521052,0.0164598210005198,0.017103069817626437,0.65,0.06303538361893078,-0.09503916824122882,-0.06577421784241196,8.036947891502024,6.089539815901082,125.67475253061905,stabilize,85.0,10,0.0,0.0,-10.0,136.04893788936718,0.04258934758133638
1760988959.388968,7.57286524772644,7.247873829047994,6.802820806570663,131.28846709386076,1.6039934310066117,1.2046906962276451,22.340533313841338,0.04026022814904293,-0.025410536557271907,0.021925244087134234,0.65,-0.10000088736291415,0.08149123000999536,-0.15,8.202937319597906,6.212238029430672,128.6421432338414,stabilize,85.0,10,0.0,0.0,-10.0,139.0234655102388,0.14568120319531483
1760988959.495412,7.679309368133545,7.415838467858775,6.929624515252101,133.67954185390835,1.548927620155632,1.1735465191424788,22.371958213208885,0.05310784298016803,-0.04733112384654198,0.019663379492544274,0.65,-0.08938326256508744,0.10710072639765847,0.15,8.412465659993043,7.889964527119972,125.79455659134604,stabilize,85.0,10,0.0,0.0,-10.0,136.2834645823185,0.13155858016444463
1760988959.5978465,7.781743764877319,7.573939999456213,7.051049258684855,135.972644575638,1.5131505464835773,1.1682248710101728,22.400027672234984,-0.0010110134899746718,0.002171022492243184,0.026743341637020204,0.65,0.10518546106552035,-0.07359409752537682,0.03117110123349682,7.946331176512439,8.201774369563587,129.82280005359942,stabilize,85.0,10,0.0,0.0,-10.0,140.2883769127182,0.04460883852994003
1760988959.7074137,7.891310930252075,7.739633506566077,7.1810722197101144,138.42830931275893,1.4968030727036528,1.1982560232211654,22.425359386025647,-0.009298670206643262,0.025400061379043957,0.03224723479395929,0.65,0.09174524045970471,-0.11176565414044665,0.018910302301401224,7.439244085425302,7.181236373972099,127.47703045393781,stabilize,85.0,10,0.0,0.0,-10.0,137.8653198264681,0.049778281195055125
1760988959.8148952,7.998792409896851,7.898542466228195,7.309090359583149,140.84007842680379,1.4822483023291466,1.21424841522157,22.450315040779103,0.04277388268924273,-0.01578360760962904,0.03463662986817288,0.65,-0.07860108994498143,0.04459076750932813,-0.04795807029117492,7.021516440766123,7.601008324682087,134.82294749551252,stabilize,85.0,10,0.0,0.0,-10.0,145.19215936808646,0.0397690367495146
1760988959.9229512,8.10684847831726,8.055405112781832,7.439173708532719,143.267236005782,1.4419395728316993,1.2083749390023313,22.473269364052925,0.06808411545093519,-0.053453119839384874,0.03521684661666273,0.65,-0.1108260753804034,0.12758188628013037,-0.036927097848702815,7.168064936002313,7.719178448256636,140.2862570149386,stabilize,85.0,10,0.0,0.0,-10.0,150.6549896896978,0.060768388009295946
1760988960.0317557,8.21565294265747,8.210345625917943,7.5716509206592075,145.7023206623193,1.4006849199180382,1.2117846808485655,22.496769957028253,0.027564457013639895,-0.022681976986029567,0.030989071138338608,0.65,0.04753258555249988,-0.009352247489792995,0.013775079481386197,7.4948711606527825,8.146476493595168,130.61651387850083,stabilize,85.0,10,0.0,0.0,-10.0,141.05155847532524,0.016987083909396936
1760988960.139779,8.323676347732544,8.363387620446003,7.7063242500202565,148.1448934857361,1.389910541550752,1.2456172065543825,22.517513429004513,-0.010966453206113787,0.030476901063425717,0.02969973986000047,0.65,0.14007494827037098,-0.14485278445851263,0.05279148697588324,7.397736060749566,8.420247179150019,140.71343322234205,stabilize,85.0,10,0.0,0.0,-10.0,151.12963314667266,0.06552229771300287
1760988960.2490635,8.432960748672485,8.514364870934774,7.843493219171233,150.6067951686612,1.3860848554407263,1.2838836476259416,22.53560765317061,0.020259494227617653,0.006525160223935727,0.03165197352456684,0.65,0.005350173701680342,-0.03328524980041976,0.09676791631680232,7.6018108937539015,8.568627561609448,144.0178349229335,stabilize,85.0,10,0.0,0.0,-10.0,154.44320115013792,0.043981613603358664
1760988960.3560133,8.539910554885864,8.65956517270384,7.9795948824620435,153.01811022867062,1.3594759227620754,1.294173944622466,22.555559407407994,0.07621542288194681,-0.04724479464424138,0.04020657736720318,0.65,-0.14500276505194354,0.12197753637356346,-0.01277602519032983,8.335213415531607,9.350058473227449,142.5258848374812,stabilize,85.0,10,0.0,0.0,-10.0,153.03935742674759,0.06089013761201853
1760988960.4626017,8.646498918533325,8.802422425176598,8.118297499299548,155.42315680555564,1.3165177477870538,1.2998268934884352,22.57219890091574,0.06460656078688166,-0.036281498034557824,0.045111386321172696,0.65,-0.03633598746128157,0.047107307213950816,-0.031110555203569604,9.555994983788922,8.315524469553,135.29143405024783,stabilize,85.0,10,0.0,0.0,-10.0,145.8426062428653,0.03775697370026514
1760988960.5696938,8.753591060638428,8.943018619376591,8.261041045009481,157.8294191385976,1.2932583320192672,1.3453186280743974,22.588748186862848,0.009581671686782586,0.01590263416041027,0.04447457232050123,0.65,0.13207357385504945,-0.12113078012161163,0.15,9.902807118185903,8.106405149749305,143.70211680376937,stabilize,85.0,10,0.0,0.0,-10.0,154.2339784328714,0.08442275967599426
1760988960.6716354,8.8555326461792,9.075511451380514,8.401628956683458,160.14456920086775,1.291251006911477,1.4063296634824938,22.59943429259005,0.028251166541302525,0.016145661281763146,0.04419082304506729,0.65,0.03007927020635357,-0.0642944760029048,-0.02810126288013831,10.031048970727804,8.23688870278619,155.69334215562694,stabilize,85.0,10,0.0,0.0,-10.0,166.20093836575316,0.041099750962221286
1760988960.7790382,8.962935447692871,9.211401251563107,8.552692476889016,162.57270132987085,1.2692808726101086,1.4362565218102903,22.613541623812612,0.0782808445449884,-0.04047519809070688,0.03766617135125907,0.65,-0.1126584514748286,0.10597099329833154,-0.07785745695445523,9.747096601403364,7.893321269900039,152.22999836644973,stabilize,85.0,10,0.0,0.0,-10.0,162.71411365583882,0.07492866247426268
1760988960.8868537,9.070750951766968,9.34600390740227,8.708862410887166,165.0113903554619,1.2317919295004196,1.4538695840355642,22.62458634092829,0.06373792270222911,-0.0485667016014201,0.032249254293737054,0.65,-0.04208017435052962,0.08464345572934984,-0.08318030745490132,9.878921899026766,8.034008348072332,161.472646741864,stabilize,85.0,10,0.0,0.0,-10.0,171.94477883519477,0.06308963488263528
1760988960.9928215,9.176718711853027,9.477242479773029,8.865854476285914,167.4094315329099,1.214529449995289,1.478758099655996,22.63664077888548,0.010584722159764193,0.010409714238183179,0.02432932033311807,0.65,0.1098542390144697,-0.09746488406440787,-0.11428908016779935,9.221517624695482,7.1312562061277145,153.4173003232442,stabilize,85.0,10,0.0,0.0,-10.0,163.8325524653675,0.07812164629479881
1760988961.1009834,9.284880638122559,9.608811676587084,9.028115675466385,169.85835604666013,1.21147243360784,1.5192396659284373,22.646219704640153,0.006683755746658498,0.01990560448640427,0.019066173060842562,0.65,0.0788438290691717,-0.09163271041471531,0.14717837547671037,9.347620136168667,7.273598708994057,165.83193185516825,stabilize,85.0,10,0.0,0.0,-10.0,176.23039323655303,0.06062571946024808
1760988961.2095609,9.393458127975464,9.738055514951714,9.192132044255825,172.30636998116273,1.205263901515751,1.5484954613478892,22.656604701818118,0.06563933789417907,-0.024918398564378455,0.010632781204643626,0.65,-0.09840090868031931,0.058030546651378134,0.0479190381155947,9.283778303980428,9.65330539397974,155.19622166088183,stabilize,85.0,10,0.0,0.0,-10.0,165.73824693068917,0.03687009546812561
1760988961.3167193,9.500616550445557,9.86567347839735,9.358766777818687,174.74622268343057,1.1812680741618766,1.553597988071636,22.66450026401005,0.07788737780636919,-0.05427029602705526,-0.001119183927581111,0.65,-0.08410326371281401,0.10959696609330366,-0.02262764216032187,10.671911247448692,9.53066266311323,140.23000193967383,stabilize,85.0,10,0.0,0.0,-10.0,150.90982971054564,0.05337204909189817
1760988961.423468,9.607365369796753,9.992186589473217,9.52777895693691,177.16596803214745,1.1679069421424635,1.5870268135483556,22.672467963628588,0.035437688395283086,-0.017610780346793614,-0.012639029984444543,0.65,0.07378718590808676,-0.03322691430903713,0.15,10.876870453393218,9.769597538096408,166.332737720261,stabilize,85.0,10,0.0,0.0,-10.0,176.93780189331684,0.09607886068389998
1760988961.5318937,9.71579098701477,10.120083837251148,9.70259117213069,179.61258643467517,1.1848401961249035,1.6425812189325948,22.677226710587128,0.02001686877717651,0.012255578213142274,-0.018080421964135965,0.65,0.1013623883065122,-0.11215473273201099,0.15,10.587094202614889,9.947003779496145,173.39402383355238,stabilize,85.0,10,0.0,0.0,-10.0,183.9684685637893,0.09436948239155378
1760988961.6389947,9.8228919506073,10.248184795345379,9.881245842351412,182.05353384852506,1.219801111421902,1.7001871658771934,22.68175270816405,0.061191660461772435,-0.032194839082195545,-0.02147147300225009,0.65,-0.042300605490147886,0.03013863072258906,-0.05101235936384528,10.862927560437473,10.030189772170184,159.15022216451268,stabilize,85.0,10,0.0,0.0,-10.0,169.79518709419608,0.023177409821758754
1760988961.749817,9.933714151382446,10.38211882563684,10.069653130520281,184.55616145575658,1.2349136226220014,1.735079552627128,22.687939773080263,0.09250630931911677,-0.07116364176264979,-0.025413137161798688,0.65,-0.1036629015674261,0.12416255985078675,-0.07347623140565446,10.19006356493717,9.690840018088721,137.66085766746158,stabilize,85.0,10,0.0,0.0,-10.0,148.32895422945583,0.053853382553531545
1760988961.8563774,10.040274620056152,10.51524457500095,10.258093493030664,186.98542407902846,1.2418711313509903,1.7695377042899398,22.692199025948646,0.06580824371268147,-0.054851133921599744,-0.02342312747780556,0.65,0.011822342766528375,0.031081933773371095,0.15,10.3125503246924,9.866027737139662,178.4797130248049,stabilize,85.0,10,0.0,0.0,-10.0,189.0192831946575,0.09557416234736539
1760988961.9628465,10.146743774414062,10.650737488947057,10.450842649096272,189.40142261102616,1.2743904759822575,1.8308250646760071,22.694674108200175,0.029289895710702625,-0.0036326018658652316,-0.01443882905563966,0.65,0.1137168276124021,-0.12137596590249655,-0.15,10.525653940849972,9.846271707628606,180.955200262085,stabilize,85.0,10,0.0,0.0,-10.0,191.49837326869374,0.11123546456313632
1760988962.0713665,10.255263805389404,10.791346481722472,10.65264411664202,191.8642792325166,1.3238723532551926,1.901639466101417,22.69422621952698,0.0508138450724661,-0.015744476374046152,-0.010032833330958732,0.65,0.011667696275747779,-0.056186271590114675,-0.09917621138420238,11.355585656863695,10.70593945710473,164.14467051141492,stabilize,85.0,10,0.0,0.0,-10.0,174.84259416057296,0.05083040748336439
1760988962.1791599,10.363057136535645,10.933253514223725,10.857453728139323,194.29932082867037,1.3504572317960484,1.9405760107242422,22.69819620531916,0.08980780836518298,-0.06308306209119142,-0.005189094819639486,0.65,-0.10973524419295208,0.10003718106002472,-0.04018084267395444,11.479991138399116,10.8916387491877,188.24825309455156,stabilize,85.0,10,0.0,0.0,-10.0,198.8788270435591,0.04775259656410638
1760988962.2857342,10.469631433486938,11.077850403058015,11.06697136332373,196.73005330230967,1.3528566133866482,1.9679751521380313,22.700351759992767,0.08248666164822056,-0.0676581953639895,0.003707679398045111,0.65,-0.05091764562948564,0.07826393477156687,-0.147987804702128,11.980077239695225,10.752863686505075,191.00673852767994,stabilize,85.0,10,0.0,0.0,-10.0,201.65032918808913,0.0687291738733226
1760988962.3928096,10.576706886291504,11.225021753320219,11.281458818133057,199.16076982323295,1.3648974703788155,2.00952164435233,22.70413888431326,0.03096953928694017,-0.011704125126494257,0.01406253342909985,0.65,0.09819744373542966,-0.09454190895633442,-0.006826519419851431,12.130711887784392,10.101868245882041,193.25085930413553,stabilize,85.0,10,0.0,0.0,-10.0,203.8629778082109,0.05705994784704354
1760988962.5002222,10.684119462966919,11.373866332127406,11.50014956247036,201.59940525770344,1.3986020174158589,2.0592197911493586,22.702840391646667,0.023898409909340897,-0.00010065149560063019,0.029216891945402307,0.65,0.07176757483289956,-0.10295400982524475,0.03483511523841759,10.573886527050956,11.125163178671798,173.81787498599468,stabilize,85.0,10,0.0,0.0,-10.0,184.4575493071666,0.051243848515271855
1760988962.6092997,10.7931969165802,11.525793997131927,11.724175744806818,204.06463732303195,1.4266151169060173,2.0982780363200937,22.706030854099986,0.07599003984253165,-0.046749783092883995,0.04286680113814524,0.65,-0.08959550071910835,0.06256052383298105,-0.15,10.559573509535703,11.125399132317998,188.2353010610566,stabilize,85.0,10,0.0,0.0,-10.0,198.82784937056581,0.09584549007774146
1760988962.7093134,10.893210649490356,11.667497403326966,11.934241397780411,206.33548183244497,1.4200612355666147,2.10721839682598,22.709454599288836,0.08358332009267995,-0.07526260406419835,0.04724150973153482,0.65,-0.0674215768604023,0.0960239580957581,0.15,11.959794139827855,11.840471000009975,187.42601607856662,stabilize,85.0,10,0.0,0.0,-10.0,198.1420330319228,0.07156431664162059
1760988962.8167765,11.000673770904541,11.823024173193824,12.16523914934041,208.787632296249,1.4313446025358765,2.1406743758041347,22.71160158744999,0.03324131583028532,-0.021253446975335055,0.05677929886873449,0.65,0.0920420490163544,-0.08089196237258703,0.03978191635456002,11.83810300405472,11.642093378622116,196.96685991025325,stabilize,85.0,10,0.0,0.0,-10.0,207.6317897675632,0.040083771402800894
1760988962.9268713,11.110768556594849,11.98316171785698,12.404159868049053,211.28796916585299,1.4661286850861688,2.191140420812681,22.71087464000327,0.020175718143531123,-0.004647347966538135,0.05916785893663033,0.65,0.08875502574074123,-0.10569868365507826,-0.10847439290084758,12.33970526643861,12.277487835584397,194.17312336743876,stabilize,85.0,10,0.0,0.0,-10.0,204.9138095376465,0.10698896993124393
1760988963.0343754,11.218272686004639,12.1405484900589,12.639212770873685,213.7181433418299,1.4971578322260775,2.2325870981998386,22.711762834211132,0.0715784559269952,-0.04309608483816469,0.05770172383454673,0.65,-0.07670972734096825,0.04351965001751265,0.12474917978395533,11.52397316792155,12.34956296094056,194.65199763066346,stabilize,85.0,10,0.0,0.0,-10.0,205.34788481287626,0.05091940929413068
1760988963.1427102,11.326607465744019,12.302421604188984,12.882117039816166,216.1903386413869,1.4981333017729388,2.2486432689649,22.714880348256553,0.10011782944237316,-0.07904540757175511,0.06121330092063437,0.65,-0.13140502615215158,0.1299042556861512,-0.15,12.830147762509327,12.004850341895523,195.7339463379267,stabilize,85.0,10,0.0,0.0,-10.0,206.482894688921,0.13172647938678755
1760988963.2439535,11.427850723266602,12.453484463011081,13.109701580403685,218.46724878284977,1.4970314553911483,2.2607571604289083,22.717763852233972,0.03334880972878289,-0.034729702892939376,0.06328584047365782,0.65,0.08603224205810692,-0.041448941867109935,-0.15,12.96816804806879,12.213129734336361,212.79108247043675,stabilize,85.0,10,0.0,0.0,-10.0,223.50212604979762,0.09963316059500757
1760988963.3516426,11.535539865493774,12.61797938604243,13.35731575043863,220.92434111322842,1.5265275942339165,2.3028706435840216,22.71627010797618,0.010945365400342832,-0.005499717702561656,0.06193911307632043,0.65,0.12227468045983458,-0.12351616386191161,0.042508222276527285,14.04891031003375,13.257755539659525,201.22264000039502,stabilize,85.0,10,0.0,0.0,-10.0,212.10408673947143,0.05654631600554249
1760988963.4592597,11.643157005310059,12.783646061556986,13.605581772504678,223.36964154145878,1.5654039201909644,2.3349248317682756,22.7161503899523,0.04956483038554017,-0.03070129224653651,0.06299292090738724,0.65,-0.041621064646854486,-0.006684227180188194,-0.11901787331187633,14.545694629981906,12.786497014953502,205.7378889961419,stabilize,85.0,10,0.0,0.0,-10.0,216.6054211849134,0.057095277226734464
1760988963.567865,11.75176215171814,12.953827485973628,13.858941638078152,225.84861585772276,1.5835505832799897,2.33694658383439,22.71975814859168,0.0916514776279226,-0.08455720543926844,0.06168280054485259,0.65,-0.14561493801807002,0.14391522022889655,0.004978754028775905,13.477275732774903,13.791945240267504,198.23893635530789,stabilize,85.0,10,0.0,0.0,-10.0,209.12988626467944,0.06619064941693056
1760988963.6756322,11.859529495239258,13.124166310657293,14.110189346486885,228.28559339856224,1.5861905646177625,2.33114648485643,22.722634532513474,0.0637307499880917,-0.07115849050962057,0.056760534994906124,0.65,-0.010656806616247103,0.05534589627648692,-0.15,13.636198421716191,14.026578662229914,222.007051348288,stabilize,85.0,10,0.0,0.0,-10.0,232.830330265821,0.14242628004591482
1760988963.778056,11.961953163146973,13.289204170016708,14.351775353427543,230.61308816420697,1.601343537502079,2.351654382984087,22.726880087780195,-0.0009429928916062429,0.0015589363104786848,0.04426549223955961,0.65,0.16507613976743601,-0.15428784344999538,-0.08143966000759191,13.785907642241748,14.246538011772715,227.43342465951258,stabilize,85.0,10,0.0,0.0,-10.0,238.25961940787562,0.0981691717989777
1760988963.885816,12.069713354110718,13.46482819758673,14.607287772255212,233.07363871602442,1.6503124462931171,2.3848604637145967,22.725491296080204,0.02784000149698277,-0.014380375138670194,0.024203667587407725,0.65,0.020807806687869267,-0.07146647257296124,-0.013004400690098238,14.024486689926476,14.086192683609278,219.62366085538443,stabilize,85.0,10,0.0,0.0,-10.0,230.4823912490156,0.04659503949389999
1760988963.9947593,12.178656578063965,13.644295977447214,14.865055190447784,235.54989887272708,1.6818422315526773,2.379853888161508,22.73052413949753,0.07374940365580282,-0.07480729322657517,0.011298543707641872,0.65,-0.13602983937658547,0.11950030100255553,-0.017467558332000088,13.737560492387058,14.100582706322022,213.01701332987338,stabilize,85.0,10,0.0,0.0,-10.0,223.88420050444992,0.05813657554540133
1760988964.102568,12.286465167999268,13.82526873817217,15.119800230532539,238.00062614713698,1.6827782500443071,2.3446436350905606,22.73440076776462,0.06880058470082197,-0.08369541516025017,-0.0012012593510546455,0.65,-0.0884489176696716,0.11078498307585474,-0.15,14.108695128406778,13.83130317554749,212.23362465631678,stabilize,85.0,10,0.0,0.0,-10.0,223.1101614755476,0.16101645105683488
1760988964.2162366,12.400133848190308,14.01578138334582,15.382364641219013,240.53940007652957,1.6955924905174977,2.3235569986419824,22.737928274970514,0.016268464712901574,-0.03138801740059409,-0.020755529134521545,0.65,0.09160938682488706,-0.07541662565596773,-0.13706012209753193,13.899164409935045,15.23721760473388,196.74546017668268,stabilize,85.0,10,0.0,0.0,-10.0,207.7716171070936,0.08635093006530516
1760988964.3214874,12.505384683609009,14.201148388998323,15.632526215479237,242.97798150789,1.7409174554383757,2.32785402776077,22.738132454844408,-0.006871924908989594,0.002943057993847375,-0.038367265455765145,0.65,0.12621868411010262,-0.14665715753834513,0.15,14.136859926881376,15.77684764538361,222.31072497114263,stabilize,85.0,10,0.0,0.0,-10.0,233.27458641445662,0.15596596561083975
1760988964.4305918,12.614489078521729,14.392012838445067,15.885209495158485,245.4591061864743,1.7841085249740078,2.3320540170668225,22.740215099145754,0.039875811921694634,-0.034025111757001174,-0.043600916976740324,0.65,-0.04362807122571698,0.026179909380021703,-0.15,14.306983999521481,15.93451701636645,236.92739246509856,stabilize,85.0,10,0.0,0.0,-10.0,247.854263173584,0.052941906874778094
1760988964.5390496,12.722946882247925,14.583728361627365,16.13559492216376,247.92583401008318,1.7862580160609491,2.3147947517071272,22.744668542540342,0.09338300619454072,-0.09052354972878539,-0.04244076172587624,0.65,-0.15813730528392214,0.16374260524126416,-0.12198142404093042,14.480498190844825,16.16984011597342,244.74911852042598,stabilize,85.0,10,0.0,0.0,-10.0,255.67217671104777,0.08214458092306819
1760988964.649156,12.833053350448608,14.7811859527797,16.390357220149465,250.43029229821389,1.7838752504635689,2.293709377485627,22.747687069540596,0.06207361825240912,-0.06434771616401365,-0.04067052225668585,0.65,-0.024198055551233066,0.0532369538878639,0.05599447960045878,14.654617731789797,16.40436193128105,248.1055449622995,stabilize,85.0,10,0.0,0.0,-10.0,259.0411806094216,0.053458103419623794
1760988964.7579591,12.941856384277344,14.97742663197683,16.6411889932357,252.89370608252773,1.8036666661634257,2.303910558930123,22.749607372354394,-5.127786765320337e-05,-0.004227201188232566,-0.032176741198772243,0.65,0.14803288937186385,-0.12693604833166172,-0.09499701518275826,16.369904974750515,15.77854596983359,234.047521450187,stabilize,85.0,10,0.0,0.0,-10.0,245.10432274397772,0.0759196635654319
1760988964.864561,13.048458337783813,15.172321569662266,16.888506262333756,255.3302879146086,1.8363245167087694,2.321031431993763,22.74699377018068,0.010431005765216272,-0.005572501372002589,-0.025437973834046782,0.65,0.0641960109012244,-0.08214938077335246,-0.025301149573844304,16.544842450604364,16.005658621887672,250.77682682644854,stabilize,85.0,10,0.0,0.0,-10.0,261.7908828231175,0.033774939039368346
1760988964.9725096,13.156406879425049,15.36968927864861,17.1370232232299,257.786161564294,1.8547107346740477,2.3226210103614893,22.750677408779328,0.07900304099701969,-0.06136380546627604,-0.007917810092505688,0.65,-0.13884457896761393,0.1038202162201676,0.11114403871157097,16.71751684950371,16.22951644401727,254.9083627985762,stabilize,85.0,10,0.0,0.0,-10.0,265.9310310103771,0.09142331186099296
1760988965.0816112,13.26550841331482,15.57059078341929,17.38879082786957,260.2684820966091,1.8405770091078832,2.296969892647281,22.753774972575492,0.08663188907897335,-0.08126122910080379,0.005832191246316987,0.65,-0.11219251327669666,0.12058952660336202,-0.1216472258493495,15.83906915308769,16.362444360762222,229.88302589604032,stabilize,85.0,10,0.0,0.0,-10.0,240.96155670591043,0.08341957296777905
1760988965.189318,13.373215198516846,15.769183067367523,17.63711591236517,262.7074500922056,1.8334281940836263,2.2996935897663473,22.75736088265409,0.026674169182515573,-0.026718756575195346,0.01551311155044315,0.65,0.10191439532694399,-0.06855615370953447,0.15,16.01929918649918,16.59704972224336,256.3579731394918,stabilize,85.0,10,0.0,0.0,-10.0,267.3549136651268,0.12125035696095737
