timestamp,simulation_time,position_x,position_y,position_z,velocity_x,velocity_y,velocity_z,attitude_roll,attitude_pitch,attitude_yaw,control_throttle,control_roll,control_pitch,control_yaw,estimated_position_x,estimated_position_y,estimated_position_z,flight_mode,battery_level,setpoint_altitude,setpoint_position_x,setpoint_position_y,setpoint_position_z,position_error,attitude_error
1761039541.427392,0.11287188529968262,-0.00013361776190326437,-0.00010120005440658379,9.971681563204772,-0.00469595604659336,-0.0035429913992445655,-0.502594337421125,-0.01735521614940827,0.02209502733338265,-0.012450190079731775,0.62,-0.0009486157322935936,-0.009679991016057895,0.11551025616208638,-0.08815434754916396,-0.004410941048207189,-7.864458660186884,stabilize,85.0,10.0,0.0,0.0,-10.0,2.1373646061080804,0.04540261532051161
1761039541.5355008,0.22098064422607422,-0.00138404590472762,-0.001128307641914833,9.89070894413495,-0.01728588788496172,-0.015172575790453894,-0.9939384807557575,-0.01644201745345395,0.013481828334921677,-0.03048444745374453,0.62,-0.003636183720457027,0.01628070882442044,0.15,-0.08719197671452095,-0.0033741274595345586,0.4023289671865491,stabilize,85.0,10.0,0.0,0.0,-10.0,10.402694928099539,0.06617729335188588
1761039541.6446438,0.3301236629486084,-0.0036883506381693806,-0.0032647815830005073,9.7560540170349,-0.02519008889991392,-0.024337315576440092,-1.4856804935529646,-0.015799184735338687,0.012800449837918495,-0.04261242549993608,0.62,0.007000586838016006,0.0006493755244481039,0.06892545523206743,-0.05971910572647357,-0.008163008358489621,4.9885422038867455,stabilize,85.0,10.0,0.0,0.0,-10.0,14.988663396180073,0.03848442297639651
1761039541.7524083,0.43788814544677734,-0.0068700094162999,-0.006238972314162833,9.568840326328683,-0.0350954874978669,-0.0300829075131049,-1.9697438460074317,-0.01196071876777035,0.02719957890124312,-0.05283516417846108,0.62,-0.000265104625074297,-0.010574644763276471,0.15,-0.17466086478021883,-0.03170234513195324,7.165722310245828,stabilize,85.0,10.0,0.0,0.0,-10.0,17.16664014560927,0.08987956887703225
1761039541.8604958,0.5459756851196289,-0.01156576053304854,-0.009871447182241717,9.329920432099264,-0.0508883668868291,-0.03733072876027521,-2.451648206354447,-0.014424160034222692,0.020156184611127573,-0.04975157804220397,0.62,-0.0009912401506530406,0.009293940225262328,0.12487539891834394,-0.17090096552909945,-0.02839060629827754,8.36462529841204,stabilize,85.0,10.0,0.0,0.0,-10.0,18.36544242640564,0.08373604661667397
1761039541.9703481,0.6558279991149902,-0.017642233333757817,-0.014311922961719747,9.034229070632527,-0.05868483346466615,-0.042847599660724996,-2.9331132418884973,-0.009460234837258616,0.011698700197864387,-0.02977430377707614,0.62,-0.01212479546172756,0.011265803215324829,0.052095215719585496,0.047555387035456274,0.18802459508870462,8.392836645535471,stabilize,85.0,10.0,0.0,0.0,-10.0,18.393859155504778,0.08327550203301738
1761039542.0791912,0.7646710872650146,-0.024540216863169255,-0.019358770118390666,8.690541433286029,-0.06968482660182361,-0.05079523716969417,-3.4103073043791015,-0.012500811967086864,0.020759711929963235,-0.0012898121583604706,0.62,0.017431977631280786,-0.003077616625995952,-0.15,0.02967744777357286,0.20064695251861359,8.728284078391825,stabilize,85.0,10.0,0.0,0.0,-10.0,18.72938238360801,0.03338835281802273
1761039542.186334,0.8718137741088867,-0.03250358819790122,-0.02497707156689477,8.298052183907714,-0.07658390758019495,-0.05341244520827972,-3.880727850619857,-0.010907091516631834,0.0063678766156630194,0.017248247090815384,0.62,0.0010480561919117511,0.017982269619259323,-0.034033829009225976,0.4310230474486781,0.028322871758126575,8.692243279121175,stabilize,85.0,10.0,0.0,0.0,-10.0,18.697233534893535,0.015731323657301913
1761039542.2947812,0.9802610874176025,-0.041112344787532513,-0.031144753676523466,7.851890749304039,-0.08246671723564503,-0.05901818238359507,-4.345541611329869,-0.0006775124572523529,0.004628473133538029,0.02852616636213509,0.62,-0.012324219768147507,-0.010016746262237452,-0.07671918620663948,0.8083517519846344,0.1825087091534588,8.181092142527108,stabilize,85.0,10.0,0.0,0.0,-10.0,18.19996850214072,0.04741292826735229
1761039542.4048293,1.0903091430664062,-0.050036499579578106,-0.03771550959252997,7.347782290717918,-0.08040168382492531,-0.0627372508288852,-4.814426492105156,-0.019145769833498777,0.010670364515245421,0.03378480199357612,0.62,0.020216585395322985,-0.01586937278487556,-0.07615207765882873,0.6160128198524302,0.231251177157094,7.313293487433655,stabilize,85.0,10.0,0.0,0.0,-10.0,17.325792342146194,0.04176807408991051
1761039542.5132751,1.1987550258636475,-0.05907131162556771,-0.04495553967514834,6.801024725611062,-0.0839795907635853,-0.06867306098485003,-5.267434593261406,-0.004051248241286025,-0.006787882795961408,0.03404180504035706,0.62,-0.02574460907158048,0.03019657554804088,-0.08595932963964709,0.6152626589517308,0.2251626596193563,7.534823992420838,stabilize,85.0,10.0,0.0,0.0,-10.0,17.547059548766704,0.06342631251233741
1761039542.6224682,1.307948112487793,-0.06813845842202026,-0.05272652951445728,6.201366963692706,-0.08427838593735162,-0.07449966065432732,-5.716778435139174,-0.012286106103297943,0.009176876582874157,0.02078471388234943,0.62,0.0042509545078258035,-0.021054982478724497,0.016268245808538775,0.8232301874526636,0.23926587298493165,7.299505294802577,stabilize,85.0,10.0,0.0,0.0,-10.0,17.320734382364133,0.034055637068047845
1761039542.7324178,1.4178977012634277,-0.07730365648152063,-0.061200140634343946,5.54853723966765,-0.08007129294012796,-0.07992379992077017,-6.159590469138548,-0.017758464324282932,-0.008525399171050965,0.012967141450384936,0.62,0.005798983481367043,0.025637691409900944,0.06768352050115169,1.1361473336762302,0.2650856166145658,6.7059939374253785,stabilize,85.0,10.0,0.0,0.0,-10.0,16.746681300641303,0.04449886561060661
1761039542.8414989,1.5269787311553955,-0.08604670360575382,-0.07054720687107131,4.852903575156865,-0.08082598068454729,-0.09088206748120951,-6.594563101754265,-0.014299583192490145,-0.0027748516280116384,0.010316845337241183,0.62,-0.005144315041961165,0.002404293187730162,0.0077943172018390865,1.1396065693186093,0.26303994896726246,6.513214106285746,stabilize,85.0,10.0,0.0,0.0,-10.0,16.554580431639494,0.023165230094276287
1761039542.950331,1.6358108520507812,-0.0946229622802643,-0.0807841071521109,4.115340072586906,-0.08002445632171408,-0.10023935320163592,-7.0216253949457785,-0.033064431335334814,0.016994387168654475,0.005510602711517322,0.62,0.0033033501350134774,-0.03829265019213516,0.04162513021676883,0.877656334901566,-0.5707402888789759,5.452015248596565,stabilize,85.0,10.0,0.0,0.0,-10.0,15.487440084223191,0.021004933744935242
1761039543.0592546,1.744734525680542,-0.10383790473049441,-0.09284761860119739,3.3239431986487356,-0.08760807445603848,-0.11849258634010039,-7.441484348225376,-0.016232800499592234,0.01226824079075986,0.008038633065816033,0.62,-0.01250223077340398,0.02790259210151899,0.0015868246628298176,0.1509847108925114,-0.3643445826011466,4.431280071061271,stabilize,85.0,10.0,0.0,0.0,-10.0,14.436668169879235,0.022873586275110925
1761039543.1701303,1.8556101322174072,-0.11413709000729175,-0.10633803724504122,2.4755391977193897,-0.09929400660966911,-0.1270905135752275,-7.859094336029923,-0.030681056951960328,0.021437331638312726,0.01639806031076247,0.62,0.03244571244175955,-0.003659175606472081,-0.15,0.1496282944277104,-0.3730185522605939,4.397599060919473,stabilize,85.0,10.0,0.0,0.0,-10.0,14.403207635308643,0.07840980186599354
1761039543.2771635,1.9626433849334717,-0.12525162269979126,-0.12060571930163179,1.6132262455670805,-0.10914874348263723,-0.13608078804509036,-8.253091492552583,-0.0017263856941120738,0.028029781286879114,0.017730093609898707,0.62,-0.03410594477818879,-0.014218576647273615,0.019865368660612122,-0.19521638986816858,-0.0186345981015438,3.593785469551625,stabilize,85.0,10.0,0.0,0.0,-10.0,13.595199891112763,0.013293946965033778
1761039543.3862672,2.071747064590454,-0.13794868642134692,-0.13569905211644148,0.6914017246852966,-0.12281343315983641,-0.1434781316181224,-8.642971797356886,-0.02472035420376044,0.024529845746915933,0.015193941492504815,0.62,0.024515433889238963,0.009705579253024937,-0.006310550734629046,-0.19636824111528187,-0.029672858388541376,3.021252913279385,stabilize,85.0,10.0,0.0,0.0,-10.0,13.022767309455796,0.019390370576135546
1761039543.4949756,2.180455446243286,-0.15201522966458036,-0.15172419756654387,0.5,-0.13717668596494717,-0.1516824230037848,-0.0,-0.010098864026861585,0.019211579064249147,0.0024793809514549103,0.62,-0.007064230252131867,-0.002584094447977926,0.008127537258248153,-0.19650238890879004,-0.03958476328756561,2.3172107083065643,stabilize,85.0,10.0,0.0,0.0,-10.0,12.318841657199483,0.01915601088620299
1761039543.6012077,2.2866876125335693,-0.16704030463061678,-0.1681803003513582,0.5,-0.14584715273973203,-0.15833245054357442,-0.0,-0.013520940129700938,0.02092140551288357,-0.01560893345641893,0.62,0.004590550255229643,-0.004931562875388616,0.15,-0.1958456665169343,-0.04873328403077693,2.088317648192652,stabilize,85.0,10.0,0.0,0.0,-10.0,12.090002234146684,0.05069544521713106
1761039543.7095199,2.3949997425079346,-0.18357359465626671,-0.18572872967828277,0.5,-0.15701328221067024,-0.16352867596967793,-0.0,-0.008713836224302305,0.013419047407865953,-0.026170962805555927,0.62,-0.008876422110710814,0.0065304350368076336,0.06621235800540576,-0.20504867277696257,-0.12172755189897241,2.0688711171849845,stabilize,85.0,10.0,0.0,0.0,-10.0,12.071226640168797,0.03784091700424817
1761039543.8172042,2.5026841163635254,-0.2009716347199993,-0.20362551591957342,0.5,-0.1674177112043738,-0.16779596051849274,-0.0,0.001867560078415587,0.023087613991919026,-0.026278026444185885,0.62,-0.020061729267436827,-0.012026996306001299,-0.018277573459839984,-0.424819412772268,0.32454187567775455,1.8929861757508215,stabilize,85.0,10.0,0.0,0.0,-10.0,11.904995553931833,0.024580202194207847
1761039543.9261074,2.6115872859954834,-0.21980476355471448,-0.22188246409798007,0.5,-0.17791879385783665,-0.16934905012616316,-0.0,-0.01345089361791682,0.01843448298824232,-0.030646423890014717,0.62,0.006809991755730405,0.000961494402793746,-0.041978810362500577,-0.3693996343634188,0.1620906243758699,1.5229272025580105,stabilize,85.0,10.0,0.0,0.0,-10.0,11.529986156792633,0.030505914585654673
1761039544.0343704,2.7198503017425537,-0.23961209171455194,-0.24063894068550637,0.5,-0.18670957314575512,-0.17615431796956535,-0.0,-0.006591974531847067,0.008538449414367886,-0.03522249054037943,0.62,-0.017988476439777606,0.012897887762544358,0.0689693530412614,-0.2199051023431702,0.3221213633960159,1.4193138333585722,stabilize,85.0,10.0,0.0,0.0,-10.0,11.425972556046469,0.040659762027126505
1761039544.1412907,2.826770544052124,-0.2598321676344481,-0.25994254470971345,0.5,-0.1922566035792573,-0.18844849511423614,-0.0,-0.03680905402466694,0.015136334631256165,-0.02742035662534522,0.62,0.036327415317422534,-0.010980028829120858,0.062023390107979394,-0.2548310958059599,-0.15229036942136473,1.1777264709288993,stabilize,85.0,10.0,0.0,0.0,-10.0,11.181668046535489,0.055073703114441125
1761039544.2500494,2.9355292320251465,-0.2811527069120551,-0.28125109094850176,0.5,-0.19785721388054156,-0.20101736722865973,-0.0,-0.018476671371912803,-0.0012273788205192872,-0.012868918084522611,0.62,-0.03304715074201471,-0.0004059652810746116,0.06446713145403483,-0.05909458298826914,-0.3939573440523456,1.1334607689720593,stabilize,85.0,10.0,0.0,0.0,-10.0,11.140585408896216,0.047930947712374626
1761039544.3582468,3.043726682662964,-0.30246279343938826,-0.3039288701157127,0.5,-0.19633717155690403,-0.21948682019435026,-0.0,-0.03066584263742706,-0.0007229214732260435,0.0009304003513807321,0.62,0.01603691500418423,0.0018750986986922893,-0.07952547162336461,-0.24468996102329335,-0.1710728429315585,1.0984780488445436,stabilize,85.0,10.0,0.0,0.0,-10.0,11.102493147725806,0.020444215748734458
1761039544.4655466,3.151026487350464,-0.32344734030671607,-0.32824852746175726,0.5,-0.19380325779623647,-0.23503402145168983,-0.0,-0.03933405521156379,-0.007620993162177109,0.005760487047702149,0.62,0.022637970880277688,0.016766472578477444,-0.08420628473299133,-0.16040206790297756,-0.532242539426927,1.1571329797376917,stabilize,85.0,10.0,0.0,0.0,-10.0,11.170972530255083,0.058916981926872586
1761039544.5726006,3.25808048248291,-0.34408866936345234,-0.35450411695691386,0.5,-0.19246471758020145,-0.2530660206286579,-0.0,-0.018015216995076723,-0.0031238342113080356,0.004745096575006403,0.62,-0.031020406585084197,-0.005442777695714101,-0.04800486106552948,-0.33554976869304104,-0.5663181881698809,0.927672877533498,stabilize,85.0,10.0,0.0,0.0,-10.0,10.947481192306439,0.020201107355212484
1761039544.6802578,3.3657376766204834,-0.36433154521241035,-0.3823414122430021,0.5,-0.18390622653700123,-0.2686517759415285,-0.0,-0.03267861715343768,-0.014692736231470254,0.0038537070216474374,0.62,0.02454115312896813,0.007888770117731952,-0.0776234552443054,-0.22202950682737466,-0.7622052191362867,1.0697524753745127,stabilize,85.0,10.0,0.0,0.0,-10.0,11.098183354226977,0.055673881769643066
1761039544.7871926,3.472672462463379,-0.3838528131817389,-0.4119585917433694,0.5,-0.18024864946111327,-0.28226902143265775,-0.0,-0.030021267275553595,-0.005433785977759476,-0.005971008407471914,0.62,0.002053955733550422,-0.0018941692245951997,-0.05496894410646852,-0.23934394369857645,-0.7782754718605059,1.0327840079356172,stabilize,85.0,10.0,0.0,0.0,-10.0,11.062789937409315,0.04033909441980703
1761039544.895017,3.5804967880249023,-0.4030812439731227,-0.44343286757101436,0.5,-0.17620915195710096,-0.3015596618068187,-0.0,-0.03360822547005509,-0.007664446839622398,-0.015458246302996402,0.62,-0.0001817476597480958,-0.0029702074980143605,0.13217629197422123,-0.2893977875442078,-0.9730565463582906,1.0310167651142559,stabilize,85.0,10.0,0.0,0.0,-10.0,11.077631560675684,0.05924424389447111
1761039545.005015,3.6904947757720947,-0.42218385708624945,-0.477471429811722,0.5,-0.1735526105127611,-0.3181214351392732,-0.0,-0.010360540650907957,0.0006815502545473335,-0.014360723423333215,0.62,-0.019310351002238352,-0.0050973654323607735,0.00037351848674484905,-0.7291570384392482,-0.2985816493729959,0.8613291865705992,stabilize,85.0,10.0,0.0,0.0,-10.0,10.889871105164566,0.018838633293274776
1761039545.1116452,3.7971251010894775,-0.4407297121331959,-0.5116300088351424,0.5,-0.17375195617094374,-0.32509564308345307,-0.0,-0.030124082611344357,-0.004373178581920949,-0.011025582524449608,0.62,0.03311881008517837,0.004377998743398012,-0.03906326780744471,-0.7500474672546144,-0.31930534145632417,0.868043676054827,stabilize,85.0,10.0,0.0,0.0,-10.0,10.898573321717523,0.023862284526301337
1761039545.2204556,3.905935525894165,-0.45959648608698433,-0.547969807751067,0.5,-0.17240695371020906,-0.33748458598590886,-0.0,-0.015576739662330476,0.004319395430883626,-0.004020930705916012,0.62,-0.028744175003858397,-0.01860323318020536,0.047782989665702755,-0.6763869224791844,-0.4056428814975972,0.9093748591959774,stabilize,85.0,10,0.0,0.0,-10.0,10.937847376639876,0.045599312754075944
1761039545.394698,4.0801777839660645,-0.4896326979892319,-0.6084063135661206,0.5,-0.1790661091057097,-0.36997797068811406,-0.0,-0.1015430642919125,0.05034550274887762,0.02918380822108103,0.62,-0.04608847578588445,0.025871551630659913,0.12518166981988393,-0.7961278781215095,-0.31648839547518676,1.2198423708503252,stabilize,85.0,10,0.0,0.0,-10.0,11.25250404707863,0.07819924337367735
1761039545.5023441,4.187824010848999,-0.5111581926223455,-0.6528983475799175,0.5,-0.21912890132465715,-0.4524410273207217,-0.0,-0.10299717458669619,0.05940702882816576,0.061267127043159744,0.62,-0.026493331077051225,0.0033001115167074734,-0.15,-0.8166056163374042,-0.3351745131735606,1.1515412318282467,stabilize,85.0,10,0.0,0.0,-10.0,11.186422955175635,0.09604933338598647
1761039545.6112466,4.29672646522522,-0.5364185954387564,-0.7053295042487133,0.5,-0.24310506586698263,-0.5099889220628704,-0.0,-0.1318165688490681,0.06598921353112673,0.07278982005789111,0.62,0.06371159653595013,-0.016971132471544508,-0.04223506677539533,-0.8177135678097573,-0.4984000605389273,1.064982108295498,stabilize,85.0,10,0.0,0.0,-10.0,11.106344455140261,0.07598468159223319
1761039545.7202063,4.405686140060425,-0.5646301479776874,-0.7646583252669132,0.5,-0.27514970228065266,-0.5780853506035093,-0.0,-0.08825759312515546,0.047498948180647954,0.07262563742953848,0.62,-0.06967959876781926,0.030453444049575333,-0.05672841432717957,-0.8367832069244089,-0.5124856779763649,1.1306658795897602,stabilize,85.0,10,0.0,0.0,-10.0,11.17383419550269,0.0707785723234607
1761039545.8270776,4.512557506561279,-0.5954438949714427,-0.8299719196461925,0.5,-0.3013767292456318,-0.6427237508809007,-0.0,-0.12384318957203228,0.07090118897288251,0.0610609955141159,0.62,0.030318531289893855,-0.030519882689713396,-0.058364318659542266,-0.8536672072859173,-0.5214530900689687,1.0045088388936376,stabilize,85.0,10,0.0,0.0,-10.0,11.04988125778852,0.08162434182607242
1761039545.941469,4.626948833465576,-0.6319667787710517,-0.9075052702640096,0.5,-0.33511763213225465,-0.7119764369324675,-0.0,-0.12010109975407082,0.05359770998610648,0.04137935498321382,0.62,-0.007177682229926924,0.020424703549479083,0.03146839234083734,-0.8691683116683715,-0.5251524529293815,1.2652194213928365,stabilize,85.0,10,0.0,0.0,-10.0,11.310897721443359,0.030145466557043678
1761039546.0500908,4.735570669174194,-0.6700588009415611,-0.988882652023675,0.5,-0.3687628135794556,-0.7881959685474259,-0.0,-0.14019379407345062,0.07307279098384795,0.01831533379689209,0.62,0.018700375434694008,-0.020022961854097326,-0.0659079265156248,-1.222604146707988,-1.2212524113839531,1.202504880114352,stabilize,85.0,10,0.0,0.0,-10.0,11.33500480550602,0.07738810411582835
1761039546.1593986,4.844878435134888,-0.7123216652455464,-1.0792839987858722,0.5,-0.40186449127156143,-0.8657377082848455,-0.0,-0.13902961557818994,0.04763754345075109,-0.0008010609298830661,0.62,0.0004478579847822905,0.03372128868850809,0.15,-0.8212721187551639,-1.2497495291653762,1.0394451870005943,stabilize,85.0,10,0.0,0.0,-10.0,11.14027431509136,0.0740303009119987
1761039546.2676537,4.953133583068848,-0.7575823978943058,-1.177220665667989,0.5,-0.43791654391734425,-0.9401196923852755,-0.0,-0.1060650520658721,0.07820661493163558,-0.005888745629953427,0.62,-0.04916047040416856,-0.03573193843680912,0.0647712116963867,-1.3503251725309071,-0.46288105420489645,0.9691628254036284,stabilize,85.0,10,0.0,0.0,-10.0,11.061653132878892,0.06174374380466824
1761039546.376464,5.061943769454956,-0.8074440626125938,-1.2828470399663028,0.5,-0.4770338747623051,-1.0050713478535376,-0.0,-0.13374233310326905,0.06647632419539388,-0.0010436154047638573,0.62,0.04642664419708277,0.005611868634357181,0.008420203925862894,-1.3665174030437404,-0.4833855399803915,1.1465396146865219,stabilize,85.0,10,0.0,0.0,-10.0,11.240390419147348,0.042586873394531044
1761039546.485524,5.171003818511963,-0.86157514093575,-1.3962041921188604,0.5,-0.5157576208179038,-1.071524585318027,-0.0,-0.1179364037184035,0.0664714308243622,0.006988720781470677,0.62,-0.026012787574809192,-0.006398015252914528,-0.045976526797252656,-1.0715232722187005,-0.5481817561858287,1.2616885537684965,stabilize,85.0,10,0.0,0.0,-10.0,11.325824227966883,0.02509422618940615
1761039546.594914,5.280393838882446,-0.9195878105410871,-1.5168520159107637,0.5,-0.5503335792044832,-1.1459023612605153,-0.0,-0.13336093073913188,0.06816853016303985,0.01049890498691372,0.62,-0.012523699005285167,-0.022709204204416186,0.014744989581263792,-0.8470257927266741,-1.0232426547148854,1.3089434195405494,stabilize,85.0,10,0.0,0.0,-10.0,11.386688697349275,0.03230779570712556
1761039546.7033715,5.3888514041900635,-0.981379026505212,-1.6459436734793529,0.5,-0.5824666669140922,-1.22578650287968,-0.0,-0.15436775206418116,0.061652435506166656,0.016222310575443474,0.62,0.028217666923704282,0.018581919652377807,-0.10700628066223694,-0.7398220745995355,-1.2426062038007644,1.0567417606567135,stabilize,85.0,10,0.0,0.0,-10.0,11.15091678928863,0.049811071507697036
1761039546.8113728,5.49685263633728,-1.0462140200716024,-1.7827830352386727,0.5,-0.6177581789064787,-1.3075840386238549,-0.0,-0.15286236099077394,0.059654395535429665,0.021185057420468036,0.62,-0.010171929838634897,0.012669008098732594,-0.09922449683976349,-0.7482934075830865,-1.6401205224244269,0.9716316315537668,stabilize,85.0,10,0.0,0.0,-10.0,11.11875168399858,0.05232444716729446
1761039546.922193,5.607672929763794,-1.1156958356318465,-1.9313904933502513,0.5,-0.6489593889058297,-1.398870743105534,-0.0,-0.1547109968045797,0.07014846803863126,0.019339969273080574,0.62,-0.007189271354443065,-0.01883764008820266,-0.02608639701690348,-0.7775413004705414,-1.6859307890745037,0.9821641609777904,stabilize,85.0,10,0.0,0.0,-10.0,11.137991863803448,0.045938208811748586
1761039547.0281591,5.7136390209198,-1.186966075308547,-2.0854242761255186,0.5,-0.6824394007111187,-1.4821081984165734,-0.0,-0.16299927518219753,0.061389370795408,0.011555164057495024,0.62,0.021407349555888355,0.005130195804364651,0.0015053038892282721,-0.8033960729658345,-1.724011131288237,1.0866237455679848,stabilize,85.0,10,0.0,0.0,-10.0,11.2485948325404,0.044988007267042086
1761039547.1361,5.821579933166504,-1.2624303458083308,-2.250226483874873,0.5,-0.7166326898170297,-1.5728033547287326,-0.0,-0.17738896499809279,0.06797983012911378,0.0014798074631218012,0.62,0.020417696970259067,-0.006858591251971147,-0.10441677696184262,-0.891697611334497,-2.3515147898416995,1.1766315691875662,stabilize,85.0,10,0.0,0.0,-10.0,11.456083085865956,0.081799252891482
1761039547.243584,5.92906379699707,-1.3413808668872982,-2.4244361579919267,0.5,-0.7515270221431702,-1.66770599501939,-0.0,-0.174604453427789,0.05631084733458758,-0.015371354671639194,0.62,-0.011784377222446457,0.0029468664957655417,0.10103647755053996,-0.6040434398383236,-2.5592400619417335,0.9249405146960525,stabilize,85.0,10,0.0,0.0,-10.0,11.236943686853044,0.05741323222414018
1761039547.3511372,6.036617040634155,-1.4238337878836118,-2.6090150932036322,0.5,-0.7823738313255405,-1.765602861465964,-0.0,-0.1818644470467619,0.05920607345881126,-0.026677387488162792,0.62,0.006375867882407777,-0.0074498245671148836,-0.07702974756150238,-0.6496518318254367,-2.649478034997778,0.9633352307014114,stabilize,85.0,10,0.0,0.0,-10.0,11.297632528156887,0.06951109070275803
1761039547.4613311,6.146811008453369,-1.511944227275829,-2.808894385534447,0.5,-0.8162723861655922,-1.8622822420372525,-0.0,-0.18104306284134075,0.052623810287172904,-0.04256652427148052,0.62,0.009428061227533814,0.010342769255711908,0.15,-0.6942568495771214,-2.7347424691459907,1.171995883736911,stabilize,85.0,10,0.0,0.0,-10.0,11.522773145904155,0.0915526725757886
1761039547.57079,6.256269931793213,-1.6027443228783453,-3.017161788562,0.5,-0.8530208484685203,-1.9621297961139859,-0.0,-0.19149633944668001,0.07294499157978573,-0.04431270799193904,0.62,0.002946314910441023,-0.01972408497141114,0.04909121953648222,-1.4663164585675164,-3.04052663420212,0.9123243079493231,stabilize,85.0,10,0.0,0.0,-10.0,11.422508830017165,0.0859301293948316
1761039547.6766677,6.362147569656372,-1.6956139567645752,-3.231191326513875,0.5,-0.8906113631284708,-2.0609884767774496,-0.0,-0.19147314595965187,0.05884542039345653,-0.034443262960013724,0.62,3.58225666359543e-05,0.02476009562703009,0.01756964984700258,-1.5210907926165738,-3.1521889950285,0.9182589432593335,stabilize,85.0,10,0.0,0.0,-10.0,11.465530559543422,0.0777371237248707
1761039547.7843277,6.4698076248168945,-1.7934780395823482,-3.458472133780255,0.5,-0.9282038308773493,-2.161060109243273,-0.0,-0.19222162436092916,0.06842165670032029,-0.01834110792651172,0.62,-0.007385428522851985,-0.006045381369574122,0.0008399796346747722,-1.5746661250937748,-3.2582785828979737,1.01965119557017,stabilize,85.0,10,0.0,0.0,-10.0,11.598649283486441,0.07439823531714344
1761039547.8923724,6.577852249145508,-1.8956366431193628,-3.6975854627375337,0.5,-0.9624488268665955,-2.2665760966207253,-0.0,-0.20307751927415663,0.06815999732416422,0.0017317524132088949,0.62,0.019317499147542043,-0.0011522223515870425,-0.03838471231877315,-1.442080430610806,-3.5920533114999347,1.0564297502942912,stabilize,85.0,10,0.0,0.0,-10.0,11.7143963474095,0.08650926696638818
1761039547.9933283,6.678808212280273,-1.9944785332485675,-3.9312645774563575,0.5,-0.9961979045178375,-2.361392445305978,-0.0,-0.18657297525984692,0.07904198128881293,0.022243632771432088,0.62,-0.009381586907320093,-0.0047101960833458925,-0.12151811330891885,-1.7002273715524794,-3.311809668794977,1.0961037066151502,stabilize,85.0,10,0.0,0.0,-10.0,11.703946935340172,0.0822308681324131
1761039548.1019769,6.787456750869751,-2.104819261477026,-4.1932130503995175,0.5,-1.0349451497670614,-2.4613278690275964,-0.0,-0.19219784168517173,0.08399225362985539,0.04394617829054672,0.62,0.0036238665798953964,-0.02091601169462321,-0.10673907384304962,-1.563326426264736,-3.5226065287514405,0.9126162943559614,stabilize,85.0,10,0.0,0.0,-10.0,11.573156037110326,0.08625952795536371
1761039548.2095575,6.895037412643433,-2.2179851177345404,-4.463524831518561,0.5,-1.0670134311416257,-2.5634709582233635,-0.0,-0.19416321365758427,0.07358534433125305,0.0570958964931577,0.62,-0.0016351781194573374,0.011159970685569629,-0.02436631847486998,-1.6338680867375026,-3.68661934003636,0.8148682732517728,stabilize,85.0,10,0.0,0.0,-10.0,11.542186224930576,0.0817323790675423
1761039548.3166587,7.002138614654541,-2.3340928133963867,-4.743518726019925,0.5,-1.1021366352085806,-2.6660381060913396,-0.0,-0.20152631311710437,0.0836704722636672,0.06798220043305858,0.62,0.0049133506724303826,-0.006146035358319375,-0.15,-1.540025827105499,-3.7724864877146196,0.9461974222183303,stabilize,85.0,10,0.0,0.0,-10.0,11.680007356775105,0.11014798260454918
1761039548.4239721,7.10945200920105,-2.4541343185169504,-5.035179360200784,0.5,-1.1358937252028887,-2.767152253420263,-0.0,-0.18306390978113243,0.08784580240004036,0.06857742220763084,0.62,-0.02787279244174974,-0.005389185142418092,-0.15,-1.5758329563868798,-3.6549594073874982,1.019930652792498,stabilize,85.0,10,0.0,0.0,-10.0,11.716691058845969,0.15646883831670963
1761039548.533354,7.218833923339844,-2.580447143753445,-5.343343899164714,0.5,-1.1734943215343192,-2.868718049235463,-0.0,-0.20129718861573442,0.08842883058244666,0.05068590102926927,0.62,0.01814093549571804,0.0007275537763253994,-0.0010429153610606867,-1.647898420596334,-3.835834666404239,1.189561626338249,stabilize,85.0,10,0.0,0.0,-10.0,11.94300992975447,0.10332781770759474
1761039548.6423242,7.327804088592529,-2.7105241338711425,-5.661494615840646,0.5,-1.2136314086629014,-2.970064215232627,-0.0,-0.20308722626089276,0.0806569616945262,0.030584697542830084,0.62,-0.0013705327508318553,0.0040890879923561295,0.017788319084279643,-1.4069677942115006,-4.275110100091395,1.0174631755342523,stabilize,85.0,10,0.0,0.0,-10.0,11.901286466853286,0.09157178414543117
1761039548.7513404,7.4368202686309814,-2.8440581842870376,-5.989483961791263,0.5,-1.248583882493577,-3.076192649901299,-0.0,-0.21593493654161178,0.08554242441565209,0.017718335390544338,0.62,-0.006133227468860402,-0.013083318338014929,0.009491661172805105,-1.641321763088144,-5.249864991826584,1.141605631123633,stabilize,85.0,10,0.0,0.0,-10.0,12.425393176953355,0.10332807772655993
1761039548.8575857,7.543065547943115,-2.9794745004755137,-6.323786565716625,0.5,-1.287766413804472,-3.1874967929889206,-0.0,-0.22524083213967233,0.08020788726704399,0.008350631081827271,0.62,-2.897130405929199e-05,0.013200798985550715,-0.09775429498397636,-1.7197006269824489,-5.447214015839513,1.1080171127121152,stabilize,85.0,10,0.0,0.0,-10.0,12.490698737745117,0.12056781327515757
1761039548.9656243,7.651104211807251,-3.1200235631044198,-6.672428668584361,0.5,-1.327789770132685,-3.2973668235522533,-0.0,-0.22420374533948267,0.0869626289841391,-0.006796872768992036,0.62,0.0029665144360711522,-0.017858367775205112,0.11564221926009954,-1.6952908811602778,-5.465792583767114,1.1319197361403248,stabilize,85.0,10,0.0,0.0,-10.0,12.51673027401243,0.11985548828862248
1761039549.0755172,7.76099705696106,-3.2689187668793696,-7.042657774045829,0.5,-1.3692549473064426,-3.4095963863232157,-0.0,-0.22813450370213356,0.08661057708933122,-0.0036302177607889716,0.62,0.006013695855728849,-0.002481500752914938,0.13418367505420242,-1.942715072295581,-5.840490276579583,0.8169197174148795,stabilize,85.0,10,0.0,0.0,-10.0,12.445530149252136,0.1427031175952676
1761039549.1823318,7.867811679840088,-3.4173954441047822,-7.412701432417849,0.5,-1.4105609326086552,-3.5178203513898207,-0.0,-0.21761515375834178,0.08732034991795207,0.006609931057931534,0.62,-0.019723395894103598,0.007017203502621794,-0.017713516223795314,-2.032046132071743,-6.063889168575157,0.9138485636624258,stabilize,85.0,10,0.0,0.0,-10.0,12.64958710006723,0.10233305818161363
1761039549.2895424,7.975022315979004,-3.5708909523265877,-7.795404490085046,0.5,-1.4549790611775613,-3.622431202558464,-0.0,-0.2258200645091359,0.10702263162819486,0.011386646804518228,0.62,0.005003804908257865,0.0159985107694074,0.012098649231316837,-2.97967706747507,-6.621319217955966,0.8721022291445572,stabilize,85.0,10,0.0,0.0,-10.0,13.07375043717295,0.1164635005137305
1761039549.3961937,8.081673622131348,-3.728803684579792,-8.18735034838486,0.5,-1.5072039910009873,-3.7275605923182207,-0.0,-0.22624948659156915,0.11558298960558294,0.018137788242886616,0.62,-0.0009946872073655368,-0.021241684413081267,0.06994261810873015,-2.96614062235623,-7.045380072142256,0.8606478554479844,stabilize,85.0,10,0.0,0.0,-10.0,13.281153654429948,0.12688530378111043
1761039549.505081,8.190560817718506,-3.895596517858363,-8.59908297907222,0.5,-1.5569006488337906,-3.8345284200904968,-0.0,-0.22073727520608152,0.12378056208639948,0.02547466553452073,0.62,-0.01254860153078723,-0.008060876369873791,0.02330967560282671,-3.619082498727206,-7.787978908379307,0.9323469884202693,stabilize,85.0,10,0.0,0.0,-10.0,13.902035256939044,0.11989823274706497
1761039549.6144748,8.299954652786255,-4.068452345045445,-9.02235166279647,0.5,-1.6181690761362892,-3.9408647260887886,-0.0,-0.22618060790569555,0.1283042871214894,0.0277271673597574,0.62,0.011708707148697333,0.010260835199266488,-0.054679114414352234,-3.908449703219635,-8.254933197642758,1.129017308068461,stabilize,85.0,10,0.0,0.0,-10.0,14.397045788057685,0.13231487370398073
1761039549.7187598,8.404239654541016,-4.241172994039551,-9.440571592323353,0.5,-1.681789659822401,-4.040114218681346,-0.0,-0.2232859838547865,0.15726557459322,0.020376563831917886,0.62,-0.004211198952340205,-0.03843049826815102,0.007499115227684171,-4.569073929181235,-8.586367341285332,1.0875886811917352,stabilize,85.0,10,0.0,0.0,-10.0,14.749127548879157,0.14495376296506393
1761039549.8254957,8.51097559928894,-4.424318725899147,-9.877297290982122,0.5,-1.7479535780714823,-4.142789553300233,-0.0,-0.22462549375047555,0.14003243991110545,0.009422237592774947,0.62,-0.00818850784410351,0.02379509284221856,-0.04958825383120097,-4.792766412331392,-9.458796861617273,1.1122250958150284,stabilize,85.0,10,0.0,0.0,-10.0,15.359719871552802,0.13553976062452255
1761039549.933334,8.61881399154663,-4.6165730893662955,-10.329501162778852,0.5,-1.8177285369906144,-4.245037125829597,-0.0,-0.23683131831315885,0.14026608194873058,-0.006079949223834844,0.62,0.02117846579114607,0.008499359725542392,0.1269199050303686,-4.687493731939852,-10.577470609702909,1.0791312019910604,stabilize,85.0,10,0.0,0.0,-10.0,16.018821123198677,0.14504151258316755
1761039550.0435598,8.729039669036865,-4.820642145933564,-10.8032268543294,0.5,-1.8856827084305718,-4.348447279726575,-0.0,-0.22716129364668386,0.14819809926617117,-0.009473472231704866,0.62,-0.008261405171544462,-0.012895387237182107,0.06876600723097501,-4.821654353741924,-10.90361707212039,1.1346672930003057,stabilize,85.0,10,0.0,0.0,-10.0,16.313124522549458,0.14737211833639938
1761039550.1522117,8.83769154548645,-5.029367048821237,-11.281199786551637,0.5,-1.956244691136242,-4.451030751212316,-0.0,-0.23635235965174917,0.14926378345488328,-0.00914363837002259,0.62,0.010869982332798182,0.0035395694996775526,-0.15,-5.0351581091091475,-11.479972538238574,1.216163986977175,stabilize,85.0,10,0.0,0.0,-10.0,16.820966715536986,0.15871436318188567
1761039550.2593641,8.944844007492065,-5.242764714735332,-11.763302837946744,0.5,-2.0272580576924026,-4.5463858418841685,-0.0,-0.22853028320819846,0.15264207575231079,-0.017326843292092425,0.62,-0.002895638745318447,-0.0021962443462109522,0.0885782870206259,-5.180397253546034,-11.816335866969293,1.1363665761255937,stabilize,85.0,10,0.0,0.0,-10.0,17.043502267533498,0.14504755731381813
1761039550.3675723,9.053052186965942,-5.464854032775912,-12.258098311148641,0.5,-2.0953662858604134,-4.641482219937074,-0.0,-0.23135792030372207,0.14111707859212788,-0.020136164352976015,0.62,-0.00972124804900221,0.01331468999495606,0.02020598573982622,-5.26831090915642,-12.58614849493459,1.1273981161923812,stabilize,85.0,10,0.0,0.0,-10.0,17.606397206933696,0.1367165173645897
1761039550.475458,9.160937786102295,-5.695600265405557,-12.766372600363175,0.5,-2.1625669965170076,-4.736535051575127,-0.0,-0.22918257802148798,0.14444565770625953,-0.015660154094690754,0.62,-0.006106186340204433,-0.012146671120624137,0.09345105276704536,-4.958992680028839,-12.929076539911353,0.9693664922030512,stabilize,85.0,10,0.0,0.0,-10.0,17.665775664140334,0.15507641890334722
1761039550.5828483,9.268328189849854,-5.931142394075369,-13.280011019196259,0.5,-2.223106859115887,-4.829810129324737,-0.0,-0.2381610317454728,0.1430066707325376,0.0008122377205467069,0.62,0.002821810401392227,0.007888745627457089,-0.029950384261758202,-5.785801905478886,-13.080449899382701,0.7557099635378701,stabilize,85.0,10,0.0,0.0,-10.0,17.895780789880387,0.13993531276349894
1761039550.6927285,9.37820839881897,-6.177818042731098,-13.81370693135999,0.5,-2.287687863276099,-4.929593302732945,-0.0,-0.2382399640283662,0.1479418708619245,0.014832286063102338,0.62,-0.003438108505298754,0.0029867117766783635,-0.01390906258488511,-5.985862279414839,-13.577756100114156,0.8497387484553314,stabilize,85.0,10,0.0,0.0,-10.0,18.38213368605619,0.14070165463314807
1761039550.8016493,9.487129211425781,-6.431486153352701,-14.358512113646784,0.5,-2.348023853437459,-5.027587642014604,-0.0,-0.2402352966404543,0.1448192233220491,0.020563799374434418,0.62,0.005264355495899827,-0.003400137262063412,-0.029971136325681446,-6.054439962975313,-13.825698325504366,0.7645490525540457,stabilize,85.0,10,0.0,0.0,-10.0,18.538654043861136,0.14534226569951514
1761039550.9093506,9.594830513000488,-6.687394564135174,-14.905076662036077,0.5,-2.4034258635222767,-5.121262558058422,-0.0,-0.23707440591386586,0.14002001842712355,0.025428814938669084,0.62,-0.012592929025409108,0.010831723933480353,-0.04980726276512024,-6.279762866146658,-14.161506090208,0.7950184476978032,stabilize,85.0,10,0.0,0.0,-10.0,18.881633925171005,0.1363981025742672
1761039551.0182452,9.703725099563599,-6.952123749614043,-15.468007301046596,0.5,-2.458514765605781,-5.217394924294639,-0.0,-0.23768850923106807,0.14305186150243548,0.036793720415340105,0.62,-0.0006426029528573863,-0.0015148765343620503,-0.042741195016915506,-6.484108968542125,-14.592440133822596,0.961658056988742,stabilize,85.0,10,0.0,0.0,-10.0,19.368555070873796,0.1420557614732936
1761039551.1291838,9.814663648605347,-7.226578766460924,-16.049401309694954,0.5,-2.5116197985494146,-5.311821678143935,-0.0,-0.2379500770557926,0.14366503233646,0.047337794733886426,0.62,0.007393806054396678,0.007133425021649263,-0.026833105076335392,-7.179782831809808,-15.06658317849199,0.8255801994952094,stabilize,85.0,10,0.0,0.0,-10.0,19.893325434478555,0.141946707925372
1761039551.2373521,9.922832012176514,-7.502430304975853,-16.631709044785687,0.5,-2.566055153097346,-5.405227934425062,-0.0,-0.24160042952856112,0.154730451085685,0.05132279297101713,0.62,0.007476219620612621,-0.007567282913496581,-0.10635004099637044,-7.354374024644639,-15.56797136469843,0.7848546752987886,stabilize,85.0,10,0.0,0.0,-10.0,20.31653612390046,0.1538718322061448
1761039551.3467338,10.032213687896729,-7.786206282471342,-17.22810581763288,0.5,-2.6224139418653194,-5.4984314700712895,-0.0,-0.23824237221436442,0.1551917529716764,0.047216945718895946,0.62,-0.004466198878852238,-0.004291225416718532,0.05691305767734279,-7.7545919665529945,-16.435192345081056,0.7943426505273247,stabilize,85.0,10,0.0,0.0,-10.0,21.13686535994712,0.14151209854012434
1761039551.4547966,10.140276432037354,-8.071176456256344,-17.824118625996647,0.5,-2.6781722535646444,-5.5874342507769015,-0.0,-0.23999331106940808,0.1576418822671786,0.04245586077968182,0.62,0.0015179846476310126,0.0069858453969959215,-0.09096228410948198,-7.980273709162035,-16.91674959444722,0.7930919084349263,stabilize,85.0,10,0.0,0.0,-10.0,21.595185071174928,0.1522513959095812
1761039551.5649476,10.250427484512329,-8.369582776734054,-18.444560899097226,0.5,-2.7394110143407406,-5.674687860449334,-0.0,-0.2347037242286263,0.1585333251388265,0.027096106835365577,0.62,-0.0035105266237014715,0.001593987635046046,0.0673364127712279,-8.101790838461115,-17.548041983407767,0.8642833043390402,stabilize,85.0,10,0.0,0.0,-10.0,22.17217724894319,0.14069217054784539
1761039551.673138,10.358617782592773,-8.670505138949446,-19.065955857215176,0.5,-2.7975186360811812,-5.7575635134727765,-0.0,-0.23495387165529055,0.1607166697692052,0.01409397317169108,0.62,-0.002556495441136709,-0.0030706071887165094,-0.04776908574072776,-8.706660447833974,-17.956390866496346,0.847886130623632,stabilize,85.0,10,0.0,0.0,-10.0,22.713752279340515,0.14476546368080118
1761039551.7814815,10.46696138381958,-8.976981022002619,-19.694134603945997,0.5,-2.860110170669704,-5.839097691677774,-0.0,-0.24278537806499945,0.16066403138928217,-0.004210698575942004,0.62,0.014528557746169835,0.000571322894266188,-0.028005199176423426,-8.75063910928764,-18.651520292238743,0.9251174218564705,stabilize,85.0,10,0.0,0.0,-10.0,23.319757389692967,0.1504938695531389
1761039551.8881688,10.573648691177368,-9.285409152081632,-20.32121762619159,0.5,-2.9222463344282743,-5.914948368740404,-0.0,-0.23550697356130582,0.16343457724569202,-0.024658881575822272,0.62,-0.012866658619300659,5.162473783623775e-05,-0.016096253245335125,-9.339751697829653,-19.293065714044435,1.1525613405944344,stabilize,85.0,10,0.0,0.0,-10.0,24.162635842955343,0.13877186378787265
1761039551.9950175,10.680497407913208,-9.599628896524,-20.954085462711078,0.5,-2.9877829639143014,-5.988948071307173,-0.0,-0.2407601474101753,0.16010388998086075,-0.03847330023685575,0.62,-0.002528855671943936,0.005546304906930138,0.0324690932908497,-9.516268878850957,-19.994279028098724,1.0541632299965635,stabilize,85.0,10,0.0,0.0,-10.0,24.749244270148203,0.1408995576773369
1761039552.0967681,10.78224802017212,-9.908265618391997,-21.570163699266445,0.5,-3.048438463385503,-6.059202498793391,-0.0,-0.2400625760410425,0.15905062409091072,-0.04943874955237603,0.62,0.0061104157428326245,-0.013688441671107833,0.15,-10.167625639205957,-20.636423966306815,0.9799556081362221,stabilize,85.0,10,0.0,0.0,-10.0,25.49121476926595,0.17266353521533945
