timestamp,simulation_time,position_x,position_y,position_z,velocity_x,velocity_y,velocity_z,attitude_roll,attitude_pitch,attitude_yaw,control_throttle,control_roll,control_pitch,control_yaw,flight_mode
1761302998.511116,0.10528039932250977,0.0,0.0,-0.0,0.0,0.0,-0.0,0.0,0.0,0.0,0.0,0.0,0.0,0.0,manual
1761302998.6166794,0.21084380149841309,0.0,0.0,-0.0,0.0,0.0,-0.0,0.0,0.0,0.0,0.0,0.0,0.0,0.0,manual
1761302998.7205317,0.3146960735321045,0.0,0.0,-0.0,0.0,0.0,-0.0,0.0,0.0,0.0,0.0,0.0,0.0,0.0,manual
1761302998.8257413,0.4199056625366211,0.0,0.0,-0.0,0.0,0.0,-0.0,0.0,0.0,0.0,0.0,0.0,0.0,0.0,manual
1761302998.9307163,0.5248806476593018,0.0,0.0,-0.0,0.0,0.0,-0.0,0.0,0.0,0.0,0.0,0.0,0.0,0.0,manual
1761302999.033813,0.6279773712158203,0.0,0.0,-0.0,0.0,0.0,-0.0,0.0,0.0,0.0,0.0,0.0,0.0,0.0,manual
1761302999.1360848,0.7302491664886475,0.0,0.0,-0.0,0.0,0.0,-0.0,0.0,0.0,0.0,0.0,0.0,0.0,0.0,manual
1761302999.2413907,0.8355550765991211,0.0,0.0,-0.0,0.0,0.0,-0.0,0.0,0.0,0.0,0.0,0.0,0.0,0.0,manual
1761302999.3447924,0.9389567375183105,0.0,0.0,-0.0,0.0,0.0,-0.0,0.0,0.0,0.0,0.0,0.0,0.0,0.0,manual
1761302999.4471354,1.041299819946289,0.0,0.0,-0.0,0.0,0.0,-0.0,0.0,0.0,0.0,0.0,0.0,0.0,0.0,manual
1761302999.5513856,1.145550012588501,0.0,0.0,-0.0,0.0,0.0,-0.0,0.0,0.0,0.0,0.0,0.0,0.0,0.0,manual
1761302999.7206128,1.314777135848999,0.0,0.0,-0.0,0.0,0.0,-0.0,0.0,0.0,0.0,0.0,0.0,0.0,0.0,manual
1761302999.826488,1.4206523895263672,0.0,0.0,-0.0,0.0,0.0,-0.0,0.0,0.0,0.0,0.0,0.0,0.0,0.0,manual
1761302999.9322824,1.52644681930542,0.0,0.0,-0.0,0.0,0.0,-0.0,0.0,0.0,0.0,0.0,0.0,0.0,0.0,manual
1761303000.0371497,1.6313140392303467,0.0,0.0,-0.0,0.0,0.0,-0.0,0.0,0.0,0.0,0.0,0.0,0.0,0.0,manual
1761303000.1426342,1.7367985248565674,0.0,0.0,-0.0,0.0,0.0,-0.0,0.0,0.0,0.0,0.0,0.0,0.0,0.0,manual
1761303000.2500637,1.8442280292510986,0.0,0.0,-0.0,0.0,0.0,-0.0,0.0,0.0,0.0,0.0,0.0,0.0,0.0,manual
1761303000.3533823,1.9475467205047607,0.0,0.0,-0.0,0.0,0.0,-0.0,0.0,0.0,0.0,0.0,0.0,0.0,0.0,manual
1761303000.4573526,2.0515170097351074,0.0,0.0,-0.0,0.0,0.0,-0.0,0.0,0.0,0.0,0.0,0.0,0.0,0.0,manual
1761303000.5628576,2.157021999359131,0.0,0.0,-0.0,0.0,0.0,-0.0,0.0,0.0,0.0,0.0,0.0,0.0,0.0,manual
1761303000.667047,2.261211395263672,0.0,0.0,-0.0,0.0,0.0,-0.0,0.0,0.0,0.0,0.0,0.0,0.0,0.0,manual
1761303000.771647,2.365811347961426,0.0,0.0,-0.0,0.0,0.0,-0.0,0.0,0.0,0.0,0.0,0.0,0.0,0.0,manual
1761303000.8763015,2.470465898513794,0.0,0.0,-0.0,0.0,0.0,-0.0,0.0,0.0,0.0,0.0,0.0,0.0,0.0,manual
1761303000.9803278,2.5744922161102295,0.0,0.0,-0.0,0.0,0.0,-0.0,0.0,0.0,0.0,0.0,0.0,0.0,0.0,manual
1761303001.0827758,2.6769402027130127,0.0,0.0,-0.0,0.0,0.0,-0.0,0.0,0.0,0.0,0.0,0.0,0.0,0.0,manual
1761303001.1912324,2.7853968143463135,0.0,0.0,-0.0,0.0,0.0,-0.0,0.0,0.0,0.0,0.0,0.0,0.0,0.0,manual
1761303001.2971814,2.891345739364624,0.0,0.0,-0.0,0.0,0.0,-0.0,0.0,0.0,0.0,0.0,0.0,0.0,0.0,manual
1761303001.4027433,2.9969077110290527,0.0,0.0,-0.0,0.0,0.0,-0.0,0.0,0.0,0.0,0.0,0.0,0.0,0.0,manual
1761303001.5059457,3.1001100540161133,0.0,0.0,-0.0,0.0,0.0,-0.0,0.0,0.0,0.0,0.0,0.0,0.0,0.0,manual
1761303001.610362,3.204526424407959,0.0,0.0,-0.0,0.0,0.0,-0.0,0.0,0.0,0.0,0.0,0.0,0.0,0.0,manual
1761303001.713346,3.3075103759765625,0.0,0.0,-0.0,0.0,0.0,-0.0,0.0,0.0,0.0,0.0,0.0,0.0,0.0,manual
1761303001.815725,3.4098894596099854,0.0,0.0,-0.0,0.0,0.0,-0.0,0.0,0.0,0.0,0.0,0.0,0.0,0.0,manual
1761303001.9199026,3.5140669345855713,0.0,0.0,-0.0,0.0,0.0,-0.0,0.0,0.0,0.0,0.0,0.0,0.0,0.0,manual
1761303002.0206954,3.6148598194122314,0.0,0.0,-0.0,0.0,0.0,-0.0,0.0,0.0,0.0,0.0,0.0,0.0,0.0,manual
1761303002.1274133,3.7215776443481445,0.0,0.0,-0.0,0.0,0.0,-0.0,0.0,0.0,0.0,0.0,0.0,0.0,0.0,manual
1761303002.2330499,3.827214241027832,0.0,0.0,-0.0,0.0,0.0,-0.0,0.0,0.0,0.0,0.0,0.0,0.0,0.0,manual
1761303002.3377175,3.931881904602051,0.0,0.0,-0.0,0.0,0.0,-0.0,0.0,0.0,0.0,0.0,0.0,0.0,0.0,manual
1761303002.4427376,4.036901950836182,0.0,0.0,-0.0,0.0,0.0,-0.0,0.0,0.0,0.0,0.0,0.0,0.0,0.0,manual
1761303002.5480928,4.142257213592529,0.0,0.0,-0.0,0.0,0.0,-0.0,0.0,0.0,0.0,0.0,0.0,0.0,0.0,manual
1761303002.6513147,4.245479106903076,0.0,0.0,-0.0,0.0,0.0,-0.0,0.0,0.0,0.0,0.0,0.0,0.0,0.0,manual
1761303002.7561877,4.350352048873901,0.0,0.0,-0.0,0.0,0.0,-0.0,0.0,0.0,0.0,0.0,0.0,0.0,0.0,manual
1761303002.8619163,4.456080675125122,0.0,0.0,-0.0,0.0,0.0,-0.0,0.0,0.0,0.0,0.0,0.0,0.0,0.0,manual
1761303002.9644885,4.558652877807617,0.0,0.0,-0.0,0.0,0.0,-0.0,0.0,0.0,0.0,0.0,0.0,0.0,0.0,manual
1761303003.0686164,4.66278076171875,0.0,0.0,-0.0,0.0,0.0,-0.0,0.0,0.0,0.0,0.0,0.0,0.0,0.0,manual
1761303003.1729567,4.767121076583862,0.0,0.0,-0.0,0.0,0.0,-0.0,0.0,0.0,0.0,0.0,0.0,0.0,0.0,manual
1761303003.276987,4.871151447296143,0.0,0.0,-0.0,0.0,0.0,-0.0,0.0,0.0,0.0,0.0,0.0,0.0,0.0,manual
1761303003.3850775,4.979241847991943,0.0,0.0,-0.0,0.0,0.0,-0.0,0.0,0.0,0.0,0.0,0.0,0.0,0.0,manual
1761303003.490271,5.08443546295166,0.0,0.0,-0.0,0.0,0.0,-0.0,0.0,0.0,0.0,0.0,0.0,0.0,0.0,manual
1761303003.5948317,5.188996076583862,0.0,0.0,-0.0,0.0,0.0,-0.0,0.0,0.0,0.0,0.0,0.0,0.0,0.0,manual
1761303003.6986623,5.2928266525268555,0.0,0.0,-0.0,0.0,0.0,-0.0,0.0,0.0,0.0,0.0,0.0,0.0,0.0,manual
1761303003.803294,5.39745831489563,0.0,0.0,-0.0,0.0,0.0,-0.0,0.0,0.0,0.0,0.0,0.0,0.0,0.0,manual
1761303003.9123034,5.506467819213867,0.0,0.0,-0.0,0.0,0.0,-0.0,0.0,0.0,0.0,0.0,0.0,0.0,0.0,manual
1761303004.0165796,5.610743999481201,0.0,0.0,-0.0,0.0,0.0,-0.0,0.0,0.0,0.0,0.0,0.0,0.0,0.0,manual
1761303004.122164,5.716328382492065,0.0,0.0,-0.0,0.0,0.0,-0.0,0.0,0.0,0.0,0.0,0.0,0.0,0.0,manual
1761303004.2258573,5.820021629333496,0.0,0.0,-0.0,0.0,0.0,-0.0,0.0,0.0,0.0,0.0,0.0,0.0,0.0,manual
1761303004.3308485,5.925012826919556,0.0,0.0,-0.0,0.0,0.0,-0.0,0.0,0.0,0.0,0.0,0.0,0.0,0.0,manual
1761303004.4369903,6.031154632568359,0.0,0.0,0.03141067004085599,0.0,0.0,0.9722139195097433,0.0,0.0,0.0,1.0,0.0,0.0,0.0,stabilize
1761303004.542681,6.136845350265503,0.0,0.0,0.18981568871922685,0.0,0.0,1.6782081336008667,0.0,0.0,0.0,0.4981120652006601,0.0,0.0,0.0,stabilize
1761303004.6475253,6.241689682006836,0.0,0.0,0.3683338506832614,0.0,0.0,1.7051718155002988,0.0,0.0,0.0,0.4279920527744241,0.0,0.0,0.0,stabilize
1761303004.7531366,6.347301006317139,0.0,0.0,0.5453260605651162,0.0,0.0,1.6360690940365326,0.0,0.0,0.0,0.41144392075219866,0.0,0.0,0.0,stabilize
1761303004.8566275,6.450791835784912,0.0,0.0,0.708888030185226,0.0,0.0,1.5210945834322127,0.0,0.0,0.0,0.3885752864122096,0.0,0.0,0.0,stabilize
1761303004.9614923,6.555656671524048,0.0,0.0,0.8613530038238151,0.0,0.0,1.38535259685212,0.0,0.0,0.0,0.3802200586385662,0.0,0.0,0.0,stabilize
1761303005.0671146,6.661278963088989,0.0,0.0,1.0002693323529646,0.0,0.0,1.2452594032969193,0.0,0.0,0.0,0.37993427972441957,0.0,0.0,0.0,stabilize
1761303005.1710744,6.7652387619018555,0.0,0.0,1.1227503260777751,0.0,0.0,1.1122300958885547,0.0,0.0,0.0,0.38233789169623994,0.0,0.0,0.0,stabilize
1761303005.2745261,6.868690490722656,0.0,0.0,1.2313377267780508,0.0,0.0,0.9887042090719877,0.0,0.0,0.0,0.3869963074330454,0.0,0.0,0.0,stabilize
1761303005.3781805,6.972344875335693,0.0,0.0,1.3278598772537558,0.0,0.0,0.8754874151636969,0.0,0.0,0.0,0.3918491042416231,0.0,0.0,0.0,stabilize
1761303005.4831498,7.077314138412476,0.0,0.0,1.414234127799717,0.0,0.0,0.7720724191703813,0.0,0.0,0.0,0.39700657373749826,0.0,0.0,0.0,stabilize
1761303005.5882459,7.18241024017334,0.0,0.0,1.49042136855012,0.0,0.0,0.6795641112933949,0.0,0.0,0.0,0.4018396607061643,0.0,0.0,0.0,stabilize
1761303005.693255,7.287419319152832,0.0,0.0,1.5573851267300611,0.0,0.0,0.5974663509896182,0.0,0.0,0.0,0.40641205342234765,0.0,0.0,0.0,stabilize
1761303005.799781,7.3939454555511475,0.0,0.0,1.6170265524921352,0.0,0.0,0.5237974932154484,0.0,0.0,0.0,0.41042377992834256,0.0,0.0,0.0,stabilize
1761303005.9051957,7.499360084533691,0.0,0.0,1.668788109154585,0.0,0.0,0.45956013478530594,0.0,0.0,0.0,0.4141172465577875,0.0,0.0,0.0,stabilize
1761303006.0112243,7.605388641357422,0.0,0.0,1.7144364667163392,0.0,0.0,0.40269437469197844,0.0,0.0,0.0,0.41771437250107485,0.0,0.0,0.0,stabilize
1761303006.1131392,7.707303524017334,0.0,0.0,1.7529698564866956,0.0,0.0,0.35447138025552505,0.0,0.0,0.0,0.41964707315861843,0.0,0.0,0.0,stabilize
1761303006.2180283,7.812192678451538,0.0,0.0,1.7878154692706576,0.0,0.0,0.31082446275935965,0.0,0.0,0.0,0.4229948940564897,0.0,0.0,0.0,stabilize
1761303006.3210776,7.915241956710815,0.0,0.0,1.8178599863527396,0.0,0.0,0.2730684513684109,0.0,0.0,0.0,0.4252872246959389,0.0,0.0,0.0,stabilize
1761303006.424111,8.018275260925293,0.0,0.0,1.8442456922456512,0.0,0.0,0.2398016202690586,0.0,0.0,0.0,0.4272184075114871,0.0,0.0,0.0,stabilize
1761303006.5309176,8.125082015991211,0.0,0.0,1.8682064763192152,0.0,0.0,0.20952716300735175,0.0,0.0,0.0,0.42909011337650105,0.0,0.0,0.0,stabilize
1761303006.6367412,8.230905532836914,0.0,0.0,1.8889582238865987,0.0,0.0,0.18324001094388803,0.0,0.0,0.0,0.4306827076013596,0.0,0.0,0.0,stabilize
1761303006.7407424,8.334906816482544,0.0,0.0,1.9068098189184346,0.0,0.0,0.16054230427417251,0.0,0.0,0.0,0.4319619982741647,0.0,0.0,0.0,stabilize
1761303006.8450568,8.439221143722534,0.0,0.0,1.9224912836279773,0.0,0.0,0.14054420083187324,0.0,0.0,0.0,0.43325547094175315,0.0,0.0,0.0,stabilize
1761303006.9482787,8.542443037033081,0.0,0.0,1.9360815651839058,0.0,0.0,0.12314024053371113,0.0,0.0,0.0,0.43421870721609057,0.0,0.0,0.0,stabilize
1761303007.0522475,8.646411895751953,0.0,0.0,1.9480668605117857,0.0,0.0,0.10774159620823813,0.0,0.0,0.0,0.435189714357604,0.0,0.0,0.0,stabilize
1761303007.157785,8.751949310302734,0.0,0.0,1.9586970871443297,0.0,0.0,0.09401598510999264,0.0,0.0,0.0,0.4360602712579881,0.0,0.0,0.0,stabilize
1761303007.2630622,8.857226610183716,0.0,0.0,1.9679482959503316,0.0,0.0,0.0820003650548014,0.0,0.0,0.0,0.4367356499464704,0.0,0.0,0.0,stabilize
1761303007.3730793,8.967243671417236,0.0,0.0,1.9763517586028239,0.0,0.0,0.07101931306211966,0.0,0.0,0.0,0.4373139099824064,0.0,0.0,0.0,stabilize
1761303007.4764202,9.070584535598755,0.0,0.0,1.9832151899114427,0.0,0.0,0.061996063952607795,0.0,0.0,0.0,0.4379222547698546,0.0,0.0,0.0,stabilize
1761303007.5804908,9.174655199050903,0.0,0.0,1.9892424260256918,0.0,0.0,0.054007615925924485,0.0,0.0,0.0,0.4384360613232233,0.0,0.0,0.0,stabilize
1761303007.688004,9.2821683883667,0.0,0.0,1.994651086547551,0.0,0.0,0.04677036754177504,0.0,0.0,0.0,0.4388468230091298,0.0,0.0,0.0,stabilize
1761303007.793793,9.387957334518433,0.0,0.0,1.9992622712947654,0.0,0.0,0.040541042054963006,0.0,0.0,0.0,0.43922231252547517,0.0,0.0,0.0,stabilize
1761303007.898665,9.492829322814941,0.0,0.0,2.0032240045806113,0.0,0.0,0.03512513102454991,0.0,0.0,0.0,0.43953415293197223,0.0,0.0,0.0,stabilize
1761303008.0040057,9.598170042037964,0.0,0.0,2.0066678992622,0.0,0.0,0.03036191527482683,0.0,0.0,0.0,0.43986650130522525,0.0,0.0,0.0,stabilize
1761303008.1054645,9.699628829956055,0.0,0.0,2.009539631903065,0.0,0.0,0.02633599491368008,0.0,0.0,0.0,0.4400880825739261,0.0,0.0,0.0,stabilize
1761303008.2085464,9.802710771560669,0.0,0.0,2.0120645785303037,0.0,0.0,0.022728873860731913,0.0,0.0,0.0,0.44030563134424366,0.0,0.0,0.0,stabilize
1761303008.3123128,9.906477212905884,0.0,0.0,2.0142539780705033,0.0,0.0,0.019539787258853376,0.0,0.0,0.0,0.44050736383226297,0.0,0.0,0.0,stabilize
1761303008.4156075,10.009771823883057,0.0,0.0,2.0161253541681763,0.0,0.0,0.01675379644973439,0.0,0.0,0.0,0.4406684946999075,0.0,0.0,0.0,stabilize
1761303008.5185344,10.112698793411255,0.0,0.0,2.01772169700946,0.0,0.0,0.014317375202572471,0.0,0.0,0.0,0.44082055942122733,0.0,0.0,0.0,stabilize
1761303008.6240115,10.218175888061523,0.0,0.0,2.019113735961993,0.0,0.0,0.012129275112353337,0.0,0.0,0.0,0.4409543253894362,0.0,0.0,0.0,stabilize
1761303008.7286575,10.322821855545044,0.0,0.0,2.0202812227964477,0.0,0.0,0.010227445698597924,0.0,0.0,0.0,0.44106542321658543,0.0,0.0,0.0,stabilize
1761303008.8379793,10.432143688201904,0.0,0.0,2.0213020222834692,0.0,0.0,0.0085282751034466,0.0,0.0,0.0,0.441535020052232,0.0,0.0,0.0,stabilize
1761303008.943813,10.537977457046509,0.0,0.0,2.0221222597084427,0.0,0.0,0.007033296516915102,0.0,0.0,0.0,0.44127146735447154,0.0,0.0,0.0,stabilize
1761303009.0494523,10.643616676330566,0.0,0.0,2.022793392600866,0.0,0.0,0.005765017803755176,0.0,0.0,0.0,0.4413615075735031,0.0,0.0,0.0,stabilize
1761303009.1523972,10.746561527252197,0.0,0.0,2.023331852418612,0.0,0.0,0.004670133929563543,0.0,0.0,0.0,0.4414089159150243,0.0,0.0,0.0,stabilize
1761303009.2553976,10.849561929702759,0.0,0.0,2.023762702810793,0.0,0.0,0.0037170788931487767,0.0,0.0,0.0,0.4414669290246358,0.0,0.0,0.0,stabilize
1761303009.3603559,10.954520225524902,0.0,0.0,2.024107220642909,0.0,0.0,0.00287318842560043,0.0,0.0,0.0,0.44158212061445296,0.0,0.0,0.0,stabilize
1761303009.4654877,11.059652090072632,0.0,0.0,2.0243689205506787,0.0,0.0,0.002126633771118278,0.0,0.0,0.0,0.4415753495066693,0.0,0.0,0.0,stabilize
1761303009.5658891,11.160053491592407,0.0,0.0,2.02455051603079,0.0,0.0,0.001507243090768161,0.0,0.0,0.0,0.4415381275596695,0.0,0.0,0.0,stabilize
1761303009.6702757,11.264440059661865,0.0,0.0,2.02467838838845,0.0,0.0,0.0009520506933990526,0.0,0.0,0.0,0.4416677040839097,0.0,0.0,0.0,stabilize
1761303009.773384,11.36754846572876,0.0,0.0,2.024750887488225,0.0,0.0,0.0004674969238318463,0.0,0.0,0.0,0.441685189881454,0.0,0.0,0.0,stabilize
1761303009.876377,11.47054147720337,0.0,0.0,2.02477679016014,0.0,0.0,4.5139461903346026e-05,0.0,0.0,0.0,0.44169708617833425,0.0,0.0,0.0,stabilize
1761303009.9814825,11.575646877288818,0.0,0.0,2.02476151082184,0.0,0.0,-0.0003251934706628613,0.0,0.0,0.0,0.4417522584045509,0.0,0.0,0.0,stabilize
1761303010.087286,11.681450366973877,0.0,0.0,2.024709347664929,0.0,0.0,-0.0006512733990450029,0.0,0.0,0.0,0.4417612058568377,0.0,0.0,0.0,stabilize
1761303010.1920445,11.786208868026733,0.0,0.0,2.0246263170169474,0.0,0.0,-0.0009312768758372613,0.0,0.0,0.0,0.4417456266805956,0.0,0.0,0.0,stabilize
1761303010.2980244,11.892188787460327,0.0,0.0,2.024514859041723,0.0,0.0,-0.0011723022118026389,0.0,0.0,0.0,0.4417691279632818,0.0,0.0,0.0,stabilize
1761303010.4034152,11.997579574584961,0.0,0.0,2.024380541852629,0.0,0.0,-0.0013772313683412605,0.0,0.0,0.0,0.4417813213343159,0.0,0.0,0.0,stabilize
1761303010.5080879,12.10225224494934,0.0,0.0,2.0242272471692173,0.0,0.0,-0.0015503243030691757,0.0,0.0,0.0,0.441824006062627,0.0,0.0,0.0,stabilize
1761303010.6136913,12.207855701446533,0.0,0.0,2.0240553775363863,0.0,0.0,-0.0017034255002342706,0.0,0.0,0.0,0.44180616689672664,0.0,0.0,0.0,stabilize
1761303010.71884,12.3130042552948,0.0,0.0,2.0238697033894195,0.0,0.0,-0.0018284192463662427,0.0,0.0,0.0,0.44183970628078767,0.0,0.0,0.0,stabilize
1761303010.8227415,12.416905879974365,0.0,0.0,2.0236741532705493,0.0,0.0,-0.001934601129342976,0.0,0.0,0.0,0.4418316625343118,0.0,0.0,0.0,stabilize
1761303010.9281328,12.522297143936157,0.0,0.0,2.0234653782527645,0.0,0.0,-0.0020244067891344556,0.0,0.0,0.0,0.44186283258468784,0.0,0.0,0.0,stabilize
1761303011.0380414,12.632205724716187,0.0,0.0,2.023238258963459,0.0,0.0,-0.0021106746597633155,0.0,0.0,0.0,0.4417525662364786,0.0,0.0,0.0,stabilize
1761303011.142069,12.736233472824097,0.0,0.0,2.023016466834186,0.0,0.0,-0.0021622519182482322,0.0,0.0,0.0,0.441874800797901,0.0,0.0,0.0,stabilize
1761303011.2471592,12.841323614120483,0.0,0.0,2.022786472131184,0.0,0.0,-0.0022101184863317514,0.0,0.0,0.0,0.44189427007612964,0.0,0.0,0.0,stabilize
1761303011.3516955,12.945859909057617,0.0,0.0,2.022553017041503,0.0,0.0,-0.0022552754244851625,0.0,0.0,0.0,0.44185252318096435,0.0,0.0,0.0,stabilize
1761303011.4573524,13.051516771316528,0.0,0.0,2.0223132555413987,0.0,0.0,-0.0022819262146315587,0.0,0.0,0.0,0.44189077139361066,0.0,0.0,0.0,stabilize
1761303011.5623705,13.156534910202026,0.0,0.0,2.0220720885432515,0.0,0.0,-0.0023069565613204348,0.0,0.0,0.0,0.4418814200670897,0.0,0.0,0.0,stabilize
1761303011.6656678,13.25983214378357,0.0,0.0,2.0218328619840493,0.0,0.0,-0.0023227506050406393,0.0,0.0,0.0,0.4418966101245665,0.0,0.0,0.0,stabilize
1761303011.7706053,13.364769697189331,0.0,0.0,2.0215883632031026,0.0,0.0,-0.002334319117587194,0.0,0.0,0.0,0.4418865220218182,0.0,0.0,0.0,stabilize
1761303011.8785808,13.472745180130005,0.0,0.0,2.0213357965678753,0.0,0.0,-0.002339636194910254,0.0,0.0,0.0,0.4418986305506757,0.0,0.0,0.0,stabilize
1761303011.9855292,13.57969355583191,0.0,0.0,2.021085298647593,0.0,0.0,-0.002343848800474976,0.0,0.0,0.0,0.44187698336776027,0.0,0.0,0.0,stabilize
1761303012.0914085,13.685572862625122,0.0,0.0,2.020837412908045,0.0,0.0,-0.002338946881123535,0.0,0.0,0.0,0.44188841741151114,0.0,0.0,0.0,stabilize
1761303012.196172,13.79033637046814,0.0,0.0,2.0205926257733413,0.0,0.0,-0.0023325782002555375,0.0,0.0,0.0,0.44190064521959327,0.0,0.0,0.0,stabilize
1761303012.3021717,13.896336078643799,0.0,0.0,2.020345708950606,0.0,0.0,-0.0023220971319684535,0.0,0.0,0.0,0.4419173229980212,0.0,0.0,0.0,stabilize
1761303012.4054165,13.99958086013794,0.0,0.0,2.0201063301400706,0.0,0.0,-0.0023131696355395805,0.0,0.0,0.0,0.44189520813708094,0.0,0.0,0.0,stabilize
1761303012.5108726,14.105036973953247,0.0,0.0,2.0198653768860932,0.0,0.0,-0.002299479989396509,0.0,0.0,0.0,0.44190726262974706,0.0,0.0,0.0,stabilize
1761303012.6154716,14.209635972976685,0.0,0.0,2.0196232153757463,0.0,0.0,-0.002285803013398378,0.0,0.0,0.0,0.44190039528833,0.0,0.0,0.0,stabilize
1761303012.7197506,14.313915014266968,0.0,0.0,2.0193857698668243,0.0,0.0,-0.0022666390084283617,0.0,0.0,0.0,0.441913414193041,0.0,0.0,0.0,stabilize
1761303012.8240857,14.41825008392334,0.0,0.0,2.01914999847924,0.0,0.0,-0.0022530883226638348,0.0,0.0,0.0,0.4418819397671666,0.0,0.0,0.0,stabilize
1761303012.9293766,14.52354097366333,0.0,0.0,2.0189139682071717,0.0,0.0,-0.002234706293734537,0.0,0.0,0.0,0.4418864494170883,0.0,0.0,0.0,stabilize
1761303013.0344336,14.628597974777222,0.0,0.0,2.0186805093301112,0.0,0.0,-0.0022130913887429184,0.0,0.0,0.0,0.4418860933606675,0.0,0.0,0.0,stabilize
1761303013.1382654,14.73242974281311,0.0,0.0,2.01845189920194,0.0,0.0,-0.0021928898216313376,0.0,0.0,0.0,0.44189484508660526,0.0,0.0,0.0,stabilize
1761303013.2435184,14.837682723999023,0.0,0.0,2.0182223206379457,0.0,0.0,-0.0021718209514510482,0.0,0.0,0.0,0.44189017661103386,0.0,0.0,0.0,stabilize
1761303013.3507066,14.944870948791504,0.0,0.0,2.0179908234301607,0.0,0.0,-0.002142173720522035,0.0,0.0,0.0,0.4419504722043648,0.0,0.0,0.0,stabilize
1761303013.456236,15.050400257110596,0.0,0.0,2.017765440592474,0.0,0.0,-0.00212581360653531,0.0,0.0,0.0,0.44189493816821357,0.0,0.0,0.0,stabilize
1761303013.5619643,15.156128644943237,0.0,0.0,2.0175419537165786,0.0,0.0,-0.0021027315196119555,0.0,0.0,0.0,0.4419069243142979,0.0,0.0,0.0,stabilize
1761303013.6668463,15.261010646820068,0.0,0.0,2.017322637367765,0.0,0.0,-0.0020803284095541664,0.0,0.0,0.0,0.441896765537474,0.0,0.0,0.0,stabilize
1761303013.7713146,15.365478992462158,0.0,0.0,2.0171076045185106,0.0,0.0,-0.002056519080338016,0.0,0.0,0.0,0.44189829769025,0.0,0.0,0.0,stabilize
1761303013.876131,15.470295429229736,0.0,0.0,2.016892144300438,0.0,0.0,-0.002032306691751189,0.0,0.0,0.0,0.4419186753384414,0.0,0.0,0.0,stabilize
1761303013.9796638,15.573828220367432,0.0,0.0,2.0166838009734342,0.0,0.0,-0.0020124097944455572,0.0,0.0,0.0,0.4418923967974756,0.0,0.0,0.0,stabilize
1761303014.0856616,15.679826021194458,0.0,0.0,2.016470835061216,0.0,0.0,-0.0019861553446471583,0.0,0.0,0.0,0.4419125903515819,0.0,0.0,0.0,stabilize
1761303014.1907246,15.784888982772827,0.0,0.0,2.016263254600736,0.0,0.0,-0.0019652584392151726,0.0,0.0,0.0,0.44189642819079666,0.0,0.0,0.0,stabilize
1761303014.297627,15.891791343688965,0.0,0.0,2.016055502162081,0.0,0.0,-0.0019420179374074838,0.0,0.0,0.0,0.441898490697452,0.0,0.0,0.0,stabilize
1761303014.4027643,15.996928691864014,0.0,0.0,2.0158516231386345,0.0,0.0,-0.0019190940732020073,0.0,0.0,0.0,0.44189680113592583,0.0,0.0,0.0,stabilize
1761303014.5080848,16.102249145507812,0.0,0.0,2.0156508398629454,0.0,0.0,-0.0018938335302164184,0.0,0.0,0.0,0.4419101093649792,0.0,0.0,0.0,stabilize
1761303014.6128492,16.207013607025146,0.0,0.0,2.015453540690591,0.0,0.0,-0.0018715655857178388,0.0,0.0,0.0,0.44190119244462756,0.0,0.0,0.0,stabilize
1761303014.7150366,16.30920100212097,0.0,0.0,2.015263434010469,0.0,0.0,-0.0018489236463842596,0.0,0.0,0.0,0.44190714020030886,0.0,0.0,0.0,stabilize
1761303014.8223493,16.416513681411743,0.0,0.0,2.015067957302592,0.0,0.0,-0.0018352407408359416,0.0,0.0,0.0,0.44187017533829764,0.0,0.0,0.0,stabilize
1761303014.9266186,16.520782947540283,0.0,0.0,2.0148768306402496,0.0,0.0,-0.001803430755636662,0.0,0.0,0.0,0.44190804015773805,0.0,0.0,0.0,stabilize
1761303015.0318303,16.62599468231201,0.0,0.0,2.0146881611859424,0.0,0.0,-0.0017835950696355495,0.0,0.0,0.0,0.44188921727871866,0.0,0.0,0.0,stabilize
1761303015.138853,16.733017444610596,0.0,0.0,2.014499528899247,0.0,0.0,-0.0017593362537402274,0.0,0.0,0.0,0.44190732674778416,0.0,0.0,0.0,stabilize
1761303015.2454026,16.839566946029663,0.0,0.0,2.0143122518593577,0.0,0.0,-0.0017356869082690073,0.0,0.0,0.0,0.4419214497045516,0.0,0.0,0.0,stabilize
1761303015.3511658,16.945330142974854,0.0,0.0,2.0141296144974086,0.0,0.0,-0.0017167751232121567,0.0,0.0,0.0,0.4418957582155193,0.0,0.0,0.0,stabilize
1761303015.455982,17.050146341323853,0.0,0.0,2.013950887383018,0.0,0.0,-0.0016939894952333352,0.0,0.0,0.0,0.44190285187930206,0.0,0.0,0.0,stabilize
1761303015.5620732,17.156237602233887,0.0,0.0,2.0137722184331954,0.0,0.0,-0.0016734201872777327,0.0,0.0,0.0,0.44190443025335213,0.0,0.0,0.0,stabilize
1761303015.666823,17.260987281799316,0.0,0.0,2.0135980400444615,0.0,0.0,-0.001651195537649095,0.0,0.0,0.0,0.4419133767632717,0.0,0.0,0.0,stabilize
1761303015.771663,17.365827322006226,0.0,0.0,2.013425892974741,0.0,0.0,-0.001631485058677793,0.0,0.0,0.0,0.4418991654003634,0.0,0.0,0.0,stabilize
1761303015.8751569,17.469321250915527,0.0,0.0,2.0132580934007946,0.0,0.0,-0.0016105124600400984,0.0,0.0,0.0,0.4419078918650615,0.0,0.0,0.0,stabilize
1761303015.9803216,17.574486017227173,0.0,0.0,2.0130896840369634,0.0,0.0,-0.001589924775671278,0.0,0.0,0.0,0.4419115621954716,0.0,0.0,0.0,stabilize
1761303016.086752,17.68091630935669,0.0,0.0,2.012921389101793,0.0,0.0,-0.0015708987400647003,0.0,0.0,0.0,0.441898210446505,0.0,0.0,0.0,stabilize
1761303016.1922686,17.78643298149109,0.0,0.0,2.012756666164084,0.0,0.0,-0.001551101346715764,0.0,0.0,0.0,0.4419061446371245,0.0,0.0,0.0,stabilize
1761303016.2994037,17.89356803894043,0.0,0.0,2.0125915236458067,0.0,0.0,-0.0015309801280211244,0.0,0.0,0.0,0.441908345619372,0.0,0.0,0.0,stabilize
1761303016.4020307,17.996195077896118,0.0,0.0,2.0124352178046405,0.0,0.0,-0.0015122803016560972,0.0,0.0,0.0,0.44189284965089914,0.0,0.0,0.0,stabilize
1761303016.507368,18.101532459259033,0.0,0.0,2.0122770062345743,0.0,0.0,-0.0014923303366318743,0.0,0.0,0.0,0.44189811923883493,0.0,0.0,0.0,stabilize
1761303016.6179597,18.21212410926819,0.0,0.0,2.012112935696371,0.0,0.0,-0.001471648080499008,0.0,0.0,0.0,0.44191820553966665,0.0,0.0,0.0,stabilize
1761303016.725596,18.3197603225708,0.0,0.0,2.0119554012067966,0.0,0.0,-0.001454150876469039,0.0,0.0,0.0,0.44190079148585326,0.0,0.0,0.0,stabilize
1761303016.8286457,18.422810077667236,0.0,0.0,2.0118065396809355,0.0,0.0,-0.0014356227326284693,0.0,0.0,0.0,0.4419007775462992,0.0,0.0,0.0,stabilize
1761303016.935477,18.5296413898468,0.0,0.0,2.011654099275082,0.0,0.0,-0.0014191242626203921,0.0,0.0,0.0,0.4418931698191966,0.0,0.0,0.0,stabilize
1761303017.043155,18.637319326400757,0.0,0.0,2.011502411255108,0.0,0.0,-0.0014024153264481894,0.0,0.0,0.0,0.441855412147485,0.0,0.0,0.0,stabilize
1761303017.147886,18.742050409317017,0.0,0.0,2.011356889932987,0.0,0.0,-0.0013804248439677,0.0,0.0,0.0,0.44190239594977476,0.0,0.0,0.0,stabilize
1761303017.2538238,18.84798812866211,0.0,0.0,2.011211511700698,0.0,0.0,-0.0013643012006602044,0.0,0.0,0.0,0.4418948174294627,0.0,0.0,0.0,stabilize
1761303017.359727,18.953891277313232,0.0,0.0,2.011068008702224,0.0,0.0,-0.0013483971450021334,0.0,0.0,0.0,0.4418890487445728,0.0,0.0,0.0,stabilize
1761303017.4630432,19.057207584381104,0.0,0.0,2.0109297949862617,0.0,0.0,-0.0013297512229136818,0.0,0.0,0.0,0.4418946274414756,0.0,0.0,0.0,stabilize
1761303017.5667906,19.16095495223999,0.0,0.0,2.010792720897321,0.0,0.0,-0.0013130788458043223,0.0,0.0,0.0,0.44189649710484447,0.0,0.0,0.0,stabilize
1761303017.671241,19.265405416488647,0.0,0.0,2.010656432677939,0.0,0.0,-0.001296848726214226,0.0,0.0,0.0,0.44190070093387235,0.0,0.0,0.0,stabilize
1761303017.7749634,19.36912775039673,0.0,0.0,2.0105228008603557,0.0,0.0,-0.0012804423630306708,0.0,0.0,0.0,0.4418935125557107,0.0,0.0,0.0,stabilize
1761303017.87627,19.470434427261353,0.0,0.0,2.0103938352426334,0.0,0.0,-0.0012610242031401207,0.0,0.0,0.0,0.44191778089497274,0.0,0.0,0.0,stabilize
1761303017.9809446,19.575109004974365,0.0,0.0,2.0102624605548343,0.0,0.0,-0.001247110016809161,0.0,0.0,0.0,0.44190305534358915,0.0,0.0,0.0,stabilize
1761303018.089237,19.683401346206665,0.0,0.0,2.010128144659496,0.0,0.0,-0.0012402927102848574,0.0,0.0,0.0,0.4418697858501034,0.0,0.0,0.0,stabilize
1761303018.1944537,19.788618087768555,0.0,0.0,2.0099993572174757,0.0,0.0,-0.0012172813863382734,0.0,0.0,0.0,0.4418932924384723,0.0,0.0,0.0,stabilize
1761303018.3000062,19.89417052268982,0.0,0.0,2.009871758754134,0.0,0.0,-0.0011993566760273996,0.0,0.0,0.0,0.44191768146083044,0.0,0.0,0.0,stabilize
1761303018.4030106,19.997174978256226,0.0,0.0,2.0097488344716945,0.0,0.0,-0.0011855106583571991,0.0,0.0,0.0,0.4419069974740468,0.0,0.0,0.0,stabilize
1761303018.508047,20.102211475372314,0.0,0.0,2.0096250152883073,0.0,0.0,-0.0011705777752310644,0.0,0.0,0.0,0.44190508756883157,0.0,0.0,0.0,stabilize
1761303018.6112084,20.20537281036377,0.0,0.0,2.0095049524694493,0.0,0.0,-0.0011566879845196685,0.0,0.0,0.0,0.441898924401154,0.0,0.0,0.0,stabilize
1761303018.715171,20.309335470199585,0.0,0.0,2.0093854531781936,0.0,0.0,-0.001141813653482415,0.0,0.0,0.0,0.4419015774542121,0.0,0.0,0.0,stabilize
1761303018.8200395,20.414203882217407,0.0,0.0,2.0092664218433414,0.0,0.0,-0.0011295371100858548,0.0,0.0,0.0,0.4418914214418097,0.0,0.0,0.0,stabilize
1761303018.9243603,20.518524646759033,0.0,0.0,2.0091495140307516,0.0,0.0,-0.00111421674536679,0.0,0.0,0.0,0.44189549662077154,0.0,0.0,0.0,stabilize
1761303019.0347254,20.628889799118042,0.0,0.0,2.009028465267175,0.0,0.0,-0.001106407706858671,0.0,0.0,0.0,0.441873955383302,0.0,0.0,0.0,stabilize
1761303019.1394572,20.73362159729004,0.0,0.0,2.008913098187179,0.0,0.0,-0.0010859049554053707,0.0,0.0,0.0,0.4418881935030983,0.0,0.0,0.0,stabilize
1761303019.2445555,20.838719844818115,0.0,0.0,2.0087998698519036,0.0,0.0,-0.0010707497281232164,0.0,0.0,0.0,0.4419002706056109,0.0,0.0,0.0,stabilize
1761303019.3477051,20.941869497299194,0.0,0.0,2.0086901352419226,0.0,0.0,-0.0010571190899868995,0.0,0.0,0.0,0.4418991200145983,0.0,0.0,0.0,stabilize
1761303019.4506447,21.044809103012085,0.0,0.0,2.0085819749707796,0.0,0.0,-0.0010440224612438239,0.0,0.0,0.0,0.44189880005290116,0.0,0.0,0.0,stabilize
1761303019.550935,21.145099401474,0.0,0.0,2.008477785995112,0.0,0.0,-0.0010280249965969282,0.0,0.0,0.0,0.4419324410260691,0.0,0.0,0.0,stabilize
1761303019.6552453,21.249409675598145,0.0,0.0,2.008370918009772,0.0,0.0,-0.0010175904545265241,0.0,0.0,0.0,0.44190599711512346,0.0,0.0,0.0,stabilize
1761303019.7609856,21.35514998435974,0.0,0.0,2.008263915685286,0.0,0.0,-0.0010060056939877736,0.0,0.0,0.0,0.4418948191249471,0.0,0.0,0.0,stabilize
1761303019.8680933,21.462257623672485,0.0,0.0,2.0081568908048175,0.0,0.0,-0.0009921671797814436,0.0,0.0,0.0,0.44190369408938185,0.0,0.0,0.0,stabilize
1761303019.9735565,21.567720890045166,0.0,0.0,2.0080528742575456,0.0,0.0,-0.0009807291693140967,0.0,0.0,0.0,0.4418918922192981,0.0,0.0,0.0,stabilize
1761303020.0819867,21.676151037216187,0.0,0.0,2.0079472711689665,0.0,0.0,-0.0009657224948413588,0.0,0.0,0.0,0.4419153405466827,0.0,0.0,0.0,stabilize
1761303020.183477,21.77764129638672,0.0,0.0,2.0078497020169297,0.0,0.0,-0.0009540773722069865,0.0,0.0,0.0,0.44190268122898213,0.0,0.0,0.0,stabilize
1761303020.2915566,21.88572096824646,0.0,0.0,2.007746964657781,0.0,0.0,-0.0009560777144274978,0.0,0.0,0.0,0.44186640775464,0.0,0.0,0.0,stabilize
1761303020.3936245,21.987788915634155,0.0,0.0,2.0076522340400453,0.0,0.0,-0.0009333416004121094,0.0,0.0,0.0,0.44188144125326695,0.0,0.0,0.0,stabilize
1761303020.5015101,22.095674514770508,0.0,0.0,2.007551530847013,0.0,0.0,-0.0009180772540275927,0.0,0.0,0.0,0.44190500106319397,0.0,0.0,0.0,stabilize
1761303020.6022377,22.196402072906494,0.0,0.0,2.0074593892617703,0.0,0.0,-0.0009197163431904841,0.0,0.0,0.0,0.44186663716026275,0.0,0.0,0.0,stabilize
1761303020.705989,22.300153255462646,0.0,0.0,2.007365700217886,0.0,0.0,-0.0009003958886781668,0.0,0.0,0.0,0.4418845734884398,0.0,0.0,0.0,stabilize
1761303020.8070729,22.40123724937439,0.0,0.0,2.0072637896271495,0.0,0.0,-0.0010300910113416493,0.0,0.0,0.0,0.4401444871086641,0.0,0.0,0.0,stabilize
1761303020.9172058,22.511370182037354,0.0,0.0,2.0071629120649583,0.0,0.0,-0.0008907765401135479,0.0,0.0,0.0,0.4419380885936008,0.0,0.0,0.0,stabilize
1761303021.0267422,22.620906591415405,0.0,0.0,2.0070675338438333,0.0,0.0,-0.0008643779709781704,0.0,0.0,0.0,0.44190929744380597,0.0,0.0,0.0,stabilize
1761303021.142559,22.73672342300415,0.0,0.0,2.0069685907369497,0.0,0.0,-0.0008434906547058492,0.0,0.0,0.0,0.4419157075936595,0.0,0.0,0.0,stabilize
1761303021.24496,22.83912444114685,0.0,0.0,2.0068822689536177,0.0,0.0,-0.0008232981819035589,0.0,0.0,0.0,0.44193869501152483,0.0,0.0,0.0,stabilize
1761303021.350198,22.94436240196228,0.0,0.0,1.9988887932887012,0.0,0.0,-0.0972322010122663,0.0,0.0,0.0,0.5,0.0,0.0,0.0,auto
1761303021.455608,23.049772262573242,0.0,0.0,1.988020490267416,0.0,0.0,-0.0961597894296238,0.0,0.0,0.0,0.5,0.0,0.0,0.0,auto
1761303021.5610094,23.155173778533936,0.0,0.0,1.9772700222200748,0.0,0.0,-0.09318920463582238,0.0,0.0,0.0,0.5,0.0,0.0,0.0,auto
1761303021.664593,23.25875735282898,0.0,0.0,1.9663531606701152,0.0,0.0,-0.09159323171259559,0.0,0.0,0.0,0.5,0.0,0.0,0.0,auto
1761303021.7693396,23.36350393295288,0.0,0.0,1.9555445740543524,0.0,0.0,-0.0881216587175968,0.0,0.0,0.0,0.5,0.0,0.0,0.0,auto
1761303021.877938,23.472102403640747,0.0,0.0,1.9444242425392024,0.0,0.0,-0.09154610653284026,0.0,0.0,0.0,0.5,0.0,0.0,0.0,auto
1761303021.9823616,23.576525926589966,0.0,0.0,1.9335931296162112,0.0,0.0,-0.08972190803346598,0.0,0.0,0.0,0.5,0.0,0.0,0.0,auto
1761303022.0867407,23.68090510368347,0.0,0.0,1.9229591768477112,0.0,0.0,-0.08837222491181458,0.0,0.0,0.0,0.5,0.0,0.0,0.0,auto
1761303022.1920524,23.786216735839844,0.0,0.0,1.9122480844245555,0.0,0.0,-0.11808803828984485,0.0,0.0,0.0,0.35,0.0,0.0,0.0,auto
1761303022.2968197,23.890984058380127,0.0,0.0,1.901284735408206,0.0,0.0,-0.11687256720663797,0.0,0.0,0.0,0.35,0.0,0.0,0.0,auto
1761303022.4048553,23.999019622802734,0.0,0.0,1.8899795543945974,0.0,0.0,-0.09197110516439541,0.0,0.0,0.0,0.5,0.0,0.0,0.0,auto
1761303022.5104954,24.10465979576111,0.0,0.0,1.8789598059655017,0.0,0.0,-0.09102274284340468,0.0,0.0,0.0,0.5,0.0,0.0,0.0,auto
1761303022.6163073,24.210471630096436,0.0,0.0,1.8680008888620943,0.0,0.0,-0.09050661710553431,0.0,0.0,0.0,0.5,0.0,0.0,0.0,auto
1761303022.721767,24.31593132019043,0.0,0.0,1.8572045101223122,0.0,0.0,-0.0891752044416999,0.0,0.0,0.0,0.5,0.0,0.0,0.0,auto
1761303022.8250005,24.419164896011353,0.0,0.0,1.8464141052606744,0.0,0.0,-0.11717971674424771,0.0,0.0,0.0,0.35,0.0,0.0,0.0,auto
1761303022.9295177,24.523682117462158,0.0,0.0,1.8356155756397035,0.0,0.0,-0.11537425969891278,0.0,0.0,0.0,0.35,0.0,0.0,0.0,auto
1761303023.0301144,24.624278783798218,0.0,0.0,1.825327267561789,0.0,0.0,-0.10391428642725238,0.0,0.0,0.0,0.5,0.0,0.0,0.0,auto
1761303023.1364841,24.730648517608643,0.0,0.0,1.814358837148232,0.0,0.0,-0.10162079828514357,0.0,0.0,0.0,0.5,0.0,0.0,0.0,auto
1761303023.2408412,24.835005521774292,0.0,0.0,1.8038557166611366,0.0,0.0,-0.09941856560907533,0.0,0.0,0.0,0.5,0.0,0.0,0.0,auto
1761303023.3467748,24.94093918800354,0.0,0.0,1.7928601014103496,0.0,0.0,-0.09712004979790465,0.0,0.0,0.0,0.5,0.0,0.0,0.0,auto
1761303023.4516084,25.045772790908813,0.0,0.0,1.7820395569094503,0.0,0.0,-0.09483799985099313,0.0,0.0,0.0,0.5,0.0,0.0,0.0,auto
1761303023.5579486,25.15211296081543,0.0,0.0,1.7713867558208176,0.0,0.0,-0.09246763932937437,0.0,0.0,0.0,0.5,0.0,0.0,0.0,auto
1761303023.6632638,25.25742816925049,0.0,0.0,1.7604527960437681,0.0,0.0,-0.08865461020426393,0.0,0.0,0.0,0.5,0.0,0.0,0.0,auto
1761303023.7696273,25.363791704177856,0.0,0.0,1.749613348932874,0.0,0.0,-0.11917865696031503,0.0,0.0,0.0,0.35,0.0,0.0,0.0,auto
1761303023.8756037,25.469768047332764,0.0,0.0,1.738487856860487,0.0,0.0,-0.08752237397436474,0.0,0.0,0.0,0.5,0.0,0.0,0.0,auto
1761303023.982538,25.5767023563385,0.0,0.0,1.7273704293707575,0.0,0.0,-0.11719421468183153,0.0,0.0,0.0,0.35,0.0,0.0,0.0,auto
1761303024.0878203,25.681984663009644,0.0,0.0,1.716472190926846,0.0,0.0,-0.11632623597633385,0.0,0.0,0.0,0.35,0.0,0.0,0.0,auto
1761303024.192574,25.786738395690918,0.0,0.0,1.7057836932511814,0.0,0.0,-0.11218675561443348,0.0,0.0,0.0,0.35,0.0,0.0,0.0,auto
1761303024.2969313,25.891095638275146,0.0,0.0,1.6948758269032136,0.0,0.0,-0.10889044661773246,0.0,0.0,0.0,0.35,0.0,0.0,0.0,auto
1761303024.3998525,25.994016885757446,0.0,0.0,1.684429851562092,0.0,0.0,-0.10613933930323652,0.0,0.0,0.0,0.35,0.0,0.0,0.0,auto
1761303024.5033302,26.09749460220337,0.0,0.0,1.6737180008513581,0.0,0.0,-0.1020544933159987,0.0,0.0,0.0,0.5,0.0,0.0,0.0,auto
1761303024.608121,26.202285289764404,0.0,0.0,1.6629450057315278,0.0,0.0,-0.10276707661860819,0.0,0.0,0.0,0.5,0.0,0.0,0.0,auto
1761303024.712666,26.306830406188965,0.0,0.0,1.6521554824804856,0.0,0.0,-0.10178770527226615,0.0,0.0,0.0,0.5,0.0,0.0,0.0,auto
1761303024.8169684,26.4111328125,0.0,0.0,1.641563633376869,0.0,0.0,-0.10042219667073109,0.0,0.0,0.0,0.5,0.0,0.0,0.0,auto
1761303024.921838,26.516002416610718,0.0,0.0,1.63083673593354,0.0,0.0,-0.1012269009259728,0.0,0.0,0.0,0.5,0.0,0.0,0.0,auto
1761303025.024829,26.618993282318115,0.0,0.0,1.6201963188046054,0.0,0.0,-0.10020038041725145,0.0,0.0,0.0,0.5,0.0,0.0,0.0,auto
1761303025.1298406,26.724004983901978,0.0,0.0,1.609571794362663,0.0,0.0,-0.09765803693517149,0.0,0.0,0.0,0.5,0.0,0.0,0.0,auto
1761303025.2337618,26.82792615890503,0.0,0.0,1.5988433520197662,0.0,0.0,-0.09442897323890476,0.0,0.0,0.0,0.5,0.0,0.0,0.0,auto
1761303025.3394032,26.9335675239563,0.0,0.0,1.5878818453910648,0.0,0.0,-0.09378306412150644,0.0,0.0,0.0,0.5,0.0,0.0,0.0,auto
1761303025.443851,27.038015365600586,0.0,0.0,1.5771526558422924,0.0,0.0,-0.0918891363216442,0.0,0.0,0.0,0.5,0.0,0.0,0.0,auto
1761303025.54915,27.143314361572266,0.0,0.0,1.5661144245763163,0.0,0.0,-0.08944185308463237,0.0,0.0,0.0,0.5,0.0,0.0,0.0,auto
1761303025.654286,27.24845027923584,0.0,0.0,1.5552606155692903,0.0,0.0,-0.08953096313851819,0.0,0.0,0.0,0.5,0.0,0.0,0.0,auto
1761303025.7571483,27.3513126373291,0.0,0.0,1.5448979072578857,0.0,0.0,-0.08739296557600244,0.0,0.0,0.0,0.5,0.0,0.0,0.0,auto
1761303025.8636236,27.45778799057007,0.0,0.0,1.5340402310218635,0.0,0.0,-0.08986209056675629,0.0,0.0,0.0,0.5,0.0,0.0,0.0,auto
1761303025.9704525,27.564616918563843,0.0,0.0,1.5231711531567729,0.0,0.0,-0.08837688791200068,0.0,0.0,0.0,0.5,0.0,0.0,0.0,auto
1761303026.0712073,27.665371656417847,0.0,0.0,1.5129815364834778,0.0,0.0,-0.0935188929926393,0.0,0.0,0.0,0.5,0.0,0.0,0.0,auto
1761303026.1767397,27.770904064178467,0.0,0.0,1.5018168631168338,0.0,0.0,-0.09206960321675081,0.0,0.0,0.0,0.5,0.0,0.0,0.0,auto
1761303026.280593,27.874757289886475,0.0,0.0,1.4911194414054216,0.0,0.0,-0.08871750663424002,0.0,0.0,0.0,0.5,0.0,0.0,0.0,auto
1761303026.3850563,27.979220628738403,0.0,0.0,1.4805609680447689,0.0,0.0,-0.08755018075970689,0.0,0.0,0.0,0.5,0.0,0.0,0.0,auto
1761303026.4881094,28.082273721694946,0.0,0.0,1.4698115747872371,0.0,0.0,-0.11801357879178284,0.0,0.0,0.0,0.35,0.0,0.0,0.0,auto
1761303026.5940928,28.188257217407227,0.0,0.0,1.4589220253997,0.0,0.0,-0.11480692229918225,0.0,0.0,0.0,0.35,0.0,0.0,0.0,auto
1761303026.6978343,28.291998624801636,0.0,0.0,1.4482045046670593,0.0,0.0,-0.11089269895968942,0.0,0.0,0.0,0.35,0.0,0.0,0.0,auto
1761303026.801645,28.395809412002563,0.0,0.0,1.4375421437742555,0.0,0.0,-0.10824761291025861,0.0,0.0,0.0,0.35,0.0,0.0,0.0,auto
1761303026.9030716,28.497236013412476,0.0,0.0,1.4269539690251294,0.0,0.0,-0.09889499160453499,0.0,0.0,0.0,0.5,0.0,0.0,0.0,auto
1761303027.0071547,28.601319074630737,0.0,0.0,1.4161147462015986,0.0,0.0,-0.09622342950140436,0.0,0.0,0.0,0.5,0.0,0.0,0.0,auto
1761303027.1147838,28.708948135375977,0.0,0.0,1.4053397353579171,0.0,0.0,-0.09191210866071355,0.0,0.0,0.0,0.5,0.0,0.0,0.0,auto
1761303027.2170615,28.81122589111328,0.0,0.0,1.39458527136526,0.0,0.0,-0.09035730824893734,0.0,0.0,0.0,0.5,0.0,0.0,0.0,auto
1761303027.3220043,28.916168689727783,0.0,0.0,1.3837911576227242,0.0,0.0,-0.09005803408800225,0.0,0.0,0.0,0.5,0.0,0.0,0.0,auto
1761303027.4261854,29.020349740982056,0.0,0.0,1.3731171873624812,0.0,0.0,-0.08880075298390608,0.0,0.0,0.0,0.5,0.0,0.0,0.0,auto
1761303027.5332544,29.127418756484985,0.0,0.0,1.3622182945775452,0.0,0.0,-0.1175494865603009,0.0,0.0,0.0,0.35,0.0,0.0,0.0,auto
1761303027.6382196,29.232383966445923,0.0,0.0,1.3512567330301364,0.0,0.0,-0.11681571069179054,0.0,0.0,0.0,0.35,0.0,0.0,0.0,auto
1761303027.7427602,29.33692455291748,0.0,0.0,1.3405055515762478,0.0,0.0,-0.11530622168783063,0.0,0.0,0.0,0.35,0.0,0.0,0.0,auto
1761303027.8470354,29.441199779510498,0.0,0.0,1.3299949803262805,0.0,0.0,-0.11228000197676456,0.0,0.0,0.0,0.35,0.0,0.0,0.0,auto
1761303027.9522152,29.546379566192627,0.0,0.0,1.319005220917654,0.0,0.0,-0.10871506693751463,0.0,0.0,0.0,0.35,0.0,0.0,0.0,auto
1761303028.057009,29.65117335319519,0.0,0.0,1.3083868076140412,0.0,0.0,-0.10660718110355002,0.0,0.0,0.0,0.35,0.0,0.0,0.0,auto
1761303028.1608455,29.75500988960266,0.0,0.0,1.2974703269729333,0.0,0.0,-0.1043703619623969,0.0,0.0,0.0,0.5,0.0,0.0,0.0,auto
1761303028.2650046,29.859169006347656,0.0,0.0,1.2867103541349478,0.0,0.0,-0.10309218824656124,0.0,0.0,0.0,0.5,0.0,0.0,0.0,auto
1761303028.373179,29.9673433303833,0.0,0.0,1.2758663939092825,0.0,0.0,-0.0968301710913532,0.0,0.0,0.0,0.5,0.0,0.0,0.0,auto
1761303028.4770918,30.071256160736084,0.0,0.0,1.2651690362364947,0.0,0.0,-0.096493672506999,0.0,0.0,0.0,0.5,0.0,0.0,0.0,auto
1761303028.580648,30.17481231689453,0.0,0.0,1.2546838390368231,0.0,0.0,-0.0943196527258281,0.0,0.0,0.0,0.5,0.0,0.0,0.0,auto
1761303028.68902,30.28318428993225,0.0,0.0,1.243245409677417,0.0,0.0,-0.09962294562300049,0.0,0.0,0.0,0.5,0.0,0.0,0.0,auto
1761303028.7937145,30.387878894805908,0.0,0.0,1.2323099277572458,0.0,0.0,-0.1004287349930171,0.0,0.0,0.0,0.5,0.0,0.0,0.0,auto
1761303028.9002469,30.49441123008728,0.0,0.0,1.2213243369076798,0.0,0.0,-0.10092204032442939,0.0,0.0,0.0,0.5,0.0,0.0,0.0,auto
1761303029.0045066,30.598670959472656,0.0,0.0,1.2106102233660323,0.0,0.0,-0.09776354187468245,0.0,0.0,0.0,0.5,0.0,0.0,0.0,auto
1761303029.1134217,30.70758605003357,0.0,0.0,1.1990078267719753,0.0,0.0,-0.10250925331870259,0.0,0.0,0.0,0.5,0.0,0.0,0.0,auto
1761303029.2167144,30.81087875366211,0.0,0.0,1.1884951819396972,0.0,0.0,-0.10087854091231659,0.0,0.0,0.0,0.5,0.0,0.0,0.0,auto
1761303029.319454,30.913618326187134,0.0,0.0,1.1779600646429338,0.0,0.0,-0.09782446365468926,0.0,0.0,0.0,0.5,0.0,0.0,0.0,auto
