timestamp,simulation_time,position_x,position_y,position_z,velocity_x,velocity_y,velocity_z,attitude_roll,attitude_pitch,attitude_yaw,control_throttle,control_roll,control_pitch,control_yaw,estimated_position_x,estimated_position_y,estimated_position_z,flight_mode,battery_level,setpoint_altitude,setpoint_position_x,setpoint_position_y,setpoint_position_z,position_error,attitude_error,waypoint_index,mission_complete
1761219710.5103307,0.10748124122619629,0.0,0.0,-0.0,0.0,0.0,-0.0,0.0,0.0,0.0,0.0,0.0,0.0,0.0,0.0,0.0,-0.0,manual,85.0,0.0,0.0,0.0,0.0,0.0,0.0,0,0
1761219710.613744,0.21089458465576172,0.0,0.0,-0.0,0.0,0.0,-0.0,0.0,0.0,0.0,0.0,0.0,0.0,0.0,0.0,0.0,-0.0,manual,85.0,0.0,0.0,0.0,0.0,0.0,0.0,0,0
1761219710.7169466,0.31409716606140137,0.0,0.0,-0.0,0.0,0.0,-0.0,0.0,0.0,0.0,0.0,0.0,0.0,0.0,0.0,0.0,-0.0,manual,85.0,0.0,0.0,0.0,0.0,0.0,0.0,0,0
1761219710.818762,0.4159126281738281,0.0,0.0,-0.0,0.0,0.0,-0.0,0.0,0.0,0.0,0.0,0.0,0.0,0.0,0.0,0.0,-0.0,manual,85.0,0.0,0.0,0.0,0.0,0.0,0.0,0,0
1761219710.923842,0.5209925174713135,0.0,0.0,-0.0,0.0,0.0,-0.0,0.0,0.0,0.0,0.0,0.0,0.0,0.0,0.0,0.0,-0.0,manual,85.0,0.0,0.0,0.0,0.0,0.0,0.0,0,0
1761219711.0275269,0.6246774196624756,0.0,0.0,-0.0,0.0,0.0,-0.0,0.0,0.0,0.0,0.0,0.0,0.0,0.0,0.0,0.0,-0.0,manual,85.0,0.0,0.0,0.0,0.0,0.0,0.0,0,0
1761219711.1300654,0.7272160053253174,0.0,0.0,-0.0,0.0,0.0,-0.0,0.0,0.0,0.0,0.0,0.0,0.0,0.0,0.0,0.0,-0.0,manual,85.0,0.0,0.0,0.0,0.0,0.0,0.0,0,0
1761219711.232621,0.8297715187072754,0.0,0.0,-0.0,0.0,0.0,-0.0,0.0,0.0,0.0,0.0,0.0,0.0,0.0,0.0,0.0,-0.0,manual,85.0,0.0,0.0,0.0,0.0,0.0,0.0,0,0
1761219711.3330007,0.9301512241363525,0.0,0.0,-0.0,0.0,0.0,-0.0,0.0,0.0,0.0,0.0,0.0,0.0,0.0,0.0,0.0,-0.0,manual,85.0,0.0,0.0,0.0,0.0,0.0,0.0,0,0
1761219711.4374733,1.0346238613128662,0.0,0.0,-0.0,0.0,0.0,-0.0,0.0,0.0,0.0,0.0,0.0,0.0,0.0,0.0,0.0,-0.0,manual,85.0,0.0,0.0,0.0,0.0,0.0,0.0,0,0
1761219711.540684,1.1378345489501953,0.0,0.0,-0.0,0.0,0.0,-0.0,0.0,0.0,0.0,0.0,0.0,0.0,0.0,0.0,0.0,-0.0,manual,85.0,0.0,0.0,0.0,0.0,0.0,0.0,0,0
1761219711.6451402,1.242290735244751,0.0,0.0,-0.0,0.0,0.0,-0.0,0.0,0.0,0.0,0.0,0.0,0.0,0.0,0.0,0.0,-0.0,manual,85.0,0.0,0.0,0.0,0.0,0.0,0.0,0,0
1761219711.7492645,1.3464150428771973,0.0,0.0,-0.0,0.0,0.0,-0.0,0.0,0.0,0.0,0.0,0.0,0.0,0.0,0.0,0.0,-0.0,manual,85.0,0.0,0.0,0.0,0.0,0.0,0.0,0,0
1761219711.8526275,1.4497780799865723,0.0,0.0,0.001985551759643713,0.0,0.0,0.18321956369466938,0.0,0.0,0.0,0.95,0.0,0.0,0.0,0.0,0.0,0.001985551759643713,stabilize,85.0,2.0,0.0,0.0,-2.0,1.9980144482403563,0.0,0,0
1761219711.958014,1.5551645755767822,0.0,0.0,0.06468167792542194,0.0,0.0,0.8428997600860213,0.0,0.0,0.0,0.4,0.0,0.0,0.0,0.0,0.0,0.06468167792542194,stabilize,85.0,2.0,0.0,0.0,-2.0,1.935318322074578,0.0,0,0
1761219712.0620725,1.6592230796813965,0.0,0.0,0.15951746263739527,0.0,0.0,0.9705079308682654,0.0,0.0,0.0,0.4,0.0,0.0,0.0,0.0,0.0,0.15951746263739527,stabilize,85.0,2.0,0.0,0.0,-2.0,1.8404825373626048,0.0,0,0
1761219712.2209375,1.8180880546569824,0.0,0.0,0.3378558215155612,0.0,0.0,1.419669830325462,0.0,0.0,0.0,0.7805178250175205,0.0,0.0,0.0,0.0,0.0,0.3378558215155612,stabilize,85.0,2.0,0.0,0.0,-2.0,1.6621441784844389,0.0,0,0
1761219712.326189,1.923339605331421,0.0,0.0,0.47752099221166844,0.0,0.0,1.3195095977549967,0.0,0.0,0.0,0.8072584797967728,0.0,0.0,0.0,0.0,0.0,0.47752099221166844,stabilize,85.0,2.0,0.0,0.0,-2.0,1.5224790077883315,0.0,0,0
1761219712.4298477,2.026998281478882,0.0,0.0,0.6146320354741336,0.0,0.0,1.3580102132193572,0.0,0.0,0.0,0.4,0.0,0.0,0.0,0.0,0.0,0.6146320354741336,stabilize,85.0,2.0,0.0,0.0,-2.0,1.3853679645258663,0.0,0,0
1761219712.5372312,2.1343817710876465,0.0,0.0,0.7622382883774805,0.0,0.0,1.391861863393248,0.0,0.0,0.0,0.6503727256709182,0.0,0.0,0.0,0.0,0.0,0.7622382883774805,stabilize,85.0,2.0,0.0,0.0,-2.0,1.2377617116225195,0.0,0,0
1761219712.6415226,2.238673210144043,0.0,0.0,0.8988573132709446,0.0,0.0,1.2561362690137012,0.0,0.0,0.0,0.609898519082658,0.0,0.0,0.0,0.0,0.0,0.8988573132709446,stabilize,85.0,2.0,0.0,0.0,-2.0,1.1011426867290552,0.0,0,0
1761219712.7463565,2.3435070514678955,0.0,0.0,1.0228987392256792,0.0,0.0,1.1181426571621313,0.0,0.0,0.0,0.4,0.0,0.0,0.0,0.0,0.0,1.0228987392256792,stabilize,85.0,2.0,0.0,0.0,-2.0,0.9771012607743208,0.0,0,0
1761219712.8532157,2.450366258621216,0.0,0.0,1.13709493047302,0.0,0.0,1.0342734818295805,0.0,0.0,0.0,0.6830124609331134,0.0,0.0,0.0,0.0,0.0,1.13709493047302,stabilize,85.0,2.0,0.0,0.0,-2.0,0.86290506952698,0.0,0,0
1761219712.959053,2.556203603744507,0.0,0.0,1.2392806592038024,0.0,0.0,0.9248336894733233,0.0,0.0,0.0,0.4,0.0,0.0,0.0,0.0,0.0,1.2392806592038024,stabilize,85.0,2.0,0.0,0.0,-2.0,0.7607193407961976,0.0,0,0
1761219713.064368,2.6615185737609863,0.0,0.0,1.3305120855474657,0.0,0.0,0.8499173460712861,0.0,0.0,0.0,0.7534941331239653,0.0,0.0,0.0,0.0,0.0,1.3305120855474657,stabilize,85.0,2.0,0.0,0.0,-2.0,0.6694879144525343,0.0,0,0
1761219713.1739106,2.7710611820220947,0.0,0.0,1.4150501638509485,0.0,0.0,0.7589137563018662,0.0,0.0,0.0,0.7886733606196575,0.0,0.0,0.0,0.0,0.0,1.4150501638509485,stabilize,85.0,2.0,0.0,0.0,-2.0,0.5849498361490515,0.0,0,0
1761219713.2788053,2.875955820083618,0.0,0.0,1.4872284590046232,0.0,0.0,0.6383075442737909,0.0,0.0,0.0,0.4986921819525014,0.0,0.0,0.0,0.0,0.0,1.4872284590046232,stabilize,85.0,2.0,0.0,0.0,-2.0,0.5127715409953768,0.0,0,0
1761219713.3831985,2.980349063873291,0.0,0.0,1.551717228176823,0.0,0.0,0.5689999324140398,0.0,0.0,0.0,0.4,0.0,0.0,0.0,0.0,0.0,1.551717228176823,stabilize,85.0,2.0,0.0,0.0,-2.0,0.448282771823177,0.0,0,0
1761219713.4882245,3.0853750705718994,0.0,0.0,1.6099058007870448,0.0,0.0,0.5271124078070679,0.0,0.0,0.0,0.4,0.0,0.0,0.0,0.0,0.0,1.6099058007870448,stabilize,85.0,2.0,0.0,0.0,-2.0,0.3900941992129552,0.0,0,0
1761219713.5938962,3.191046714782715,0.0,0.0,1.6625602754307405,0.0,0.0,0.4893100785997777,0.0,0.0,0.0,0.7271871820634326,0.0,0.0,0.0,0.0,0.0,1.6625602754307405,stabilize,85.0,2.0,0.0,0.0,-2.0,0.3374397245692595,0.0,0,0
1761219713.6975157,3.294666290283203,0.0,0.0,1.7086363614847493,0.0,0.0,0.4354143531079722,0.0,0.0,0.0,0.6838991561228618,0.0,0.0,0.0,0.0,0.0,1.7086363614847493,stabilize,85.0,2.0,0.0,0.0,-2.0,0.2913636385152507,0.0,0,0
1761219713.802119,3.3992695808410645,0.0,0.0,1.7504849307589772,0.0,0.0,0.3802054785548784,0.0,0.0,0.0,0.4,0.0,0.0,0.0,0.0,0.0,1.7504849307589772,stabilize,85.0,2.0,0.0,0.0,-2.0,0.24951506924102285,0.0,0,0
1761219713.9087303,3.505880832672119,0.0,0.0,1.788572269396157,0.0,0.0,0.30902650756506544,0.0,0.0,0.0,0.4,0.0,0.0,0.0,0.0,0.0,1.788572269396157,stabilize,85.0,2.0,0.0,0.0,-2.0,0.211427730603843,0.0,0,0
1761219714.0143201,3.6114706993103027,0.0,0.0,1.8221110950141024,0.0,0.0,0.27993425347069184,0.0,0.0,0.0,0.4,0.0,0.0,0.0,0.0,0.0,1.8221110950141024,stabilize,85.0,2.0,0.0,0.0,-2.0,0.1778889049858976,0.0,0,0
1761219714.120748,3.7178986072540283,0.0,0.0,1.8515240347108695,0.0,0.0,0.30482991377290414,0.0,0.0,0.0,0.8619060547881883,0.0,0.0,0.0,0.0,0.0,1.8515240347108695,stabilize,85.0,2.0,0.0,0.0,-2.0,0.14847596528913054,0.0,0,0
1761219714.2258174,3.822968006134033,0.0,0.0,1.8779801772067928,0.0,0.0,0.25536886684903576,0.0,0.0,0.0,0.7385328287433027,0.0,0.0,0.0,0.0,0.0,1.8779801772067928,stabilize,85.0,2.0,0.0,0.0,-2.0,0.12201982279320722,0.0,0,0
1761219714.334326,3.931476593017578,0.0,0.0,1.9034138140667902,0.0,0.0,0.2219259626807776,0.0,0.0,0.0,0.4,0.0,0.0,0.0,0.0,0.0,1.9034138140667902,stabilize,85.0,2.0,0.0,0.0,-2.0,0.09658618593320978,0.0,0,0
1761219714.438461,4.035611629486084,0.0,0.0,1.9255911287705771,0.0,0.0,0.22386267971998214,0.0,0.0,0.0,0.7671689608540279,0.0,0.0,0.0,0.0,0.0,1.9255911287705771,stabilize,85.0,2.0,0.0,0.0,-2.0,0.07440887122942286,0.0,0,0
1761219714.5399382,4.137088775634766,0.0,0.0,1.94506181690241,0.0,0.0,0.19274280209365718,0.0,0.0,0.0,0.4,0.0,0.0,0.0,0.0,0.0,1.94506181690241,stabilize,85.0,2.0,0.0,0.0,-2.0,0.05493818309758991,0.0,0,0
1761219714.6445527,4.241703271865845,0.0,0.0,1.9628559993173607,0.0,0.0,0.2009332510894415,0.0,0.0,0.0,0.872109623621419,0.0,0.0,0.0,0.0,0.0,1.9628559993173607,stabilize,85.0,2.0,0.0,0.0,-2.0,0.037144000682639344,0.0,0,0
1761219714.749128,4.346278667449951,0.0,0.0,1.978753896204944,0.0,0.0,0.12761171404013047,0.0,0.0,0.0,0.4,0.0,0.0,0.0,0.0,0.0,1.978753896204944,stabilize,85.0,2.0,0.0,0.0,-2.0,0.02124610379505598,0.0,0,0
1761219714.8526638,4.449814319610596,0.0,0.0,1.992071527348669,0.0,0.0,0.1308910032999556,0.0,0.0,0.0,0.4,0.0,0.0,0.0,0.0,0.0,1.992071527348669,stabilize,85.0,2.0,0.0,0.0,-2.0,0.007928472651330898,0.0,0,0
1761219714.9580796,4.555230140686035,0.0,0.0,2.0032433113641694,0.0,0.0,0.1206441646626843,0.0,0.0,0.0,0.7374656800207275,0.0,0.0,0.0,0.0,0.0,2.0032433113641694,stabilize,85.0,2.0,0.0,0.0,-2.0,0.0032433113641694433,0.0,0,0
1761219715.0614934,4.658643960952759,0.0,0.0,2.0132914949875382,0.0,0.0,0.07928311180294664,0.0,0.0,0.0,0.4,0.0,0.0,0.0,0.0,0.0,2.0132914949875382,stabilize,85.0,2.0,0.0,0.0,-2.0,0.013291494987538233,0.0,0,0
1761219715.166598,4.763748645782471,0.0,0.0,2.0218373683350626,0.0,0.0,0.12683893816342517,0.0,0.0,0.0,0.9169187050809053,0.0,0.0,0.0,0.0,0.0,2.0218373683350626,stabilize,85.0,2.0,0.0,0.0,-2.0,0.021837368335062557,0.0,0,0
1761219715.2724447,4.869595289230347,0.0,0.0,2.030367701170557,0.0,0.0,0.05181524727091122,0.0,0.0,0.0,0.4,0.0,0.0,0.0,0.0,0.0,2.030367701170557,stabilize,85.0,2.0,0.0,0.0,-2.0,0.030367701170557204,0.0,0,0
1761219715.3778133,4.974963903427124,0.0,0.0,2.0369376099185685,0.0,0.0,0.04656930705005589,0.0,0.0,0.0,0.5570063439493828,0.0,0.0,0.0,0.0,0.0,2.0369376099185685,stabilize,85.0,2.0,0.0,0.0,-2.0,0.03693760991856854,0.0,0,0
1761219715.4817598,5.0789103507995605,0.0,0.0,2.0423825611289095,0.0,0.0,0.04200513351231684,0.0,0.0,0.0,0.4,0.0,0.0,0.0,0.0,0.0,2.0423825611289095,stabilize,85.0,2.0,0.0,0.0,-2.0,0.04238256112890948,0.0,0,0
1761219715.5841315,5.181282043457031,0.0,0.0,2.0465092289702094,0.0,0.0,0.06838502047972157,0.0,0.0,0.0,0.8023098034071898,0.0,0.0,0.0,0.0,0.0,2.0465092289702094,stabilize,85.0,2.0,0.0,0.0,-2.0,0.04650922897020937,0.0,0,0
1761219715.6896396,5.286790132522583,0.0,0.0,2.0510383635966667,0.0,0.0,0.023827405325436146,0.0,0.0,0.0,0.4,0.0,0.0,0.0,0.0,0.0,2.0510383635966667,stabilize,85.0,2.0,0.0,0.0,-2.0,0.05103836359666669,0.0,0,0
1761219715.793442,5.390592575073242,0.0,0.0,2.053807416148497,0.0,0.0,0.04162110643962656,0.0,0.0,0.0,0.7584682769937607,0.0,0.0,0.0,0.0,0.0,2.053807416148497,stabilize,85.0,2.0,0.0,0.0,-2.0,0.053807416148496934,0.0,0,0
1761219715.8962693,5.493419885635376,0.0,0.0,2.055768756376605,0.0,0.0,0.00450800219103234,0.0,0.0,0.0,0.4,0.0,0.0,0.0,0.0,0.0,2.055768756376605,stabilize,85.0,2.0,0.0,0.0,-2.0,0.055768756376604944,0.0,0,0
1761219716.0022836,5.59943413734436,0.0,0.0,2.0569829227331216,0.0,0.0,-0.012799875543468892,0.0,0.0,0.0,0.4578424986739203,0.0,0.0,0.0,0.0,0.0,2.0569829227331216,stabilize,85.0,2.0,0.0,0.0,-2.0,0.056982922733121555,0.0,0,0
1761219716.1079986,5.705149173736572,0.0,0.0,2.0589089822387545,0.0,0.0,0.01203334383645455,0.0,0.0,0.0,0.4,0.0,0.0,0.0,0.0,0.0,2.0589089822387545,stabilize,85.0,2.0,0.0,0.0,-2.0,0.058908982238754515,0.0,0,0
1761219716.2131171,5.810267686843872,0.0,0.0,2.061408857416302,0.0,0.0,0.012725520502471431,0.0,0.0,0.0,0.5688149395880615,0.0,0.0,0.0,0.0,0.0,2.061408857416302,stabilize,85.0,2.0,0.0,0.0,-2.0,0.06140885741630209,0.0,0,0
1761219716.3167696,5.913920164108276,0.0,0.0,2.062493595986217,0.0,0.0,-0.0018372667130089316,0.0,0.0,0.0,0.5515323231206389,0.0,0.0,0.0,0.0,0.0,2.062493595986217,stabilize,85.0,2.0,0.0,0.0,-2.0,0.062493595986217176,0.0,0,0
1761219716.4230382,6.020188808441162,0.0,0.0,2.0629224555611194,0.0,0.0,-0.019392727134957852,0.0,0.0,0.0,0.45257116437162426,0.0,0.0,0.0,0.0,0.0,2.0629224555611194,stabilize,85.0,2.0,0.0,0.0,-2.0,0.06292245556111942,0.0,0,0
1761219716.5299768,6.127127408981323,0.0,0.0,2.0641507702797224,0.0,0.0,-0.006669823269509122,0.0,0.0,0.0,0.5223051598008576,0.0,0.0,0.0,0.0,0.0,2.0641507702797224,stabilize,85.0,2.0,0.0,0.0,-2.0,0.06415077027972238,0.0,0,0
1761219716.6349654,6.232115983963013,0.0,0.0,2.064925459175167,0.0,0.0,0.026148669183446775,0.0,0.0,0.0,0.7555110024419023,0.0,0.0,0.0,0.0,0.0,2.064925459175167,stabilize,85.0,2.0,0.0,0.0,-2.0,0.0649254591751669,0.0,0,0
1761219716.7412927,6.338443279266357,0.0,0.0,2.0643577515082647,0.0,0.0,-0.027617628583703948,0.0,0.0,0.0,0.4596834323450002,0.0,0.0,0.0,0.0,0.0,2.0643577515082647,stabilize,85.0,2.0,0.0,0.0,-2.0,0.06435775150826473,0.0,0,0
1761219716.848233,6.445383548736572,0.00036116054407610244,0.0,2.0652064248526867,0.022944364784957996,0.0,-0.00456225628950873,0.0,-0.11342158040212803,0.0,0.4,0.0,-0.3,0.0,0.00036116054407610244,0.0,2.0652064248526867,auto,85.0,2.061926281745618,10.0,0.0,0.0,10.21067355744998,0.11342158040212805,0,0
1761219716.9511142,6.548264741897583,0.013970600876329696,0.0,2.0667421279144134,0.2952198964796784,0.0,0.03619546619881375,0.0,-0.3870712267118539,0.0,0.8342593579922778,0.0,-0.3,0.0,0.013970600876329696,0.0,2.0667421279144134,auto,85.0,2.063496141389193,10.0,0.0,0.0,10.197656896731642,0.38707122671185384,0,0
1761219717.0563684,6.653518915176392,0.07261074244541366,0.0,2.068978305085597,0.9006489418354883,0.0,0.04348828726543393,0.0,-0.6404300029995166,0.0,0.8725069300178979,0.0,-0.013133365059783686,0.0,0.07261074244541366,0.0,2.068978305085597,auto,85.0,2.065278050297636,10.0,0.0,0.0,10.140696657425716,0.6404300029995166,0,0
1761219717.1635637,6.760714292526245,0.21126520303019458,0.0,2.0713625221210927,1.715377637742051,0.0,0.025358527940518336,0.0,-0.6630217799728267,0.0,0.95,0.0,0.3,0.0,0.21126520303019458,0.0,2.0713625221210927,auto,85.0,2.068063597296439,10.0,0.0,0.0,10.00549207302946,0.6630217799728267,0,0
1761219717.2682228,6.865373373031616,0.4238978062251947,0.0,2.0726860761656623,2.3058572215862534,0.0,0.03422379292669031,0.0,-0.39722844789897777,0.0,0.7672207290901537,0.0,0.3,0.0,0.4238978062251947,0.0,2.0726860761656623,auto,85.0,2.069487571870128,10.0,0.0,0.0,9.797844701563177,0.39722844789897777,0,0
1761219717.3745987,6.971749305725098,0.6849787246406192,0.0,2.075409153399586,2.5564424700678017,0.0,0.04802895492159389,0.0,-0.11531342401332632,0.0,0.6870935871500985,0.0,0.3,0.0,0.6849787246406192,0.0,2.075409153399586,auto,85.0,2.07174921503095,10.0,0.0,0.0,9.543424150398677,0.11531342401332634,0,0
1761219717.4804826,7.0776331424713135,0.9553072567471466,0.0,2.0784535828547597,2.502568054714464,0.0,0.032186223552088535,0.0,0.15434473076094768,0.0,0.6269389714787872,0.0,-0.03510798679606886,0.0,0.9553072567471466,0.0,2.0784535828547597,auto,85.0,2.075085107527766,10.0,0.0,0.0,9.280432970283908,0.15434473076094768,0,0
1761219717.586973,7.184123516082764,1.2144008967497972,0.0,2.0821507143817586,2.4066565959898742,0.0,0.018217921723095387,0.0,-0.055699407215663785,0.0,0.4,0.0,0.3,0.0,1.2144008967497972,0.0,2.0821507143817586,auto,85.0,2.078810430876098,10.0,0.0,0.0,9.028959142693648,0.055699407215663785,0,0
1761219717.6917636,7.288914203643799,1.4658162593595172,0.0,2.0864671251338827,2.3665804666601047,0.0,0.017642940271212004,0.0,0.052489887143908766,0.0,0.4,0.0,-0.3,0.0,1.4658162593595172,0.0,2.0864671251338827,auto,85.0,2.0828503786709467,10.0,0.0,0.0,8.785535679927367,0.052489887143908766,0,0
1761219717.7961957,7.393346309661865,1.7101582590067446,0.0,2.090720864259751,2.3043508045828354,0.0,0.08166076084077714,0.0,0.045423413278622225,0.0,0.8508693983395242,0.0,0.030135712039240287,0.0,1.7101582590067446,0.0,2.090720864259751,auto,85.0,2.0871008453217903,10.0,0.0,0.0,8.549420437840517,0.04542341327862223,0,0
1761219717.9023511,7.499501705169678,1.9521988980116782,0.0,2.0963273859112848,2.2414066351009683,0.0,0.05045594511193035,0.0,0.054340993113242586,0.0,0.4,0.0,-0.3,0.0,1.9521988980116782,0.0,2.0963273859112848,auto,85.0,2.0924622332970193,10.0,0.0,0.0,8.316350827501571,0.054340993113242586,0,0
1761219718.0044882,7.6016387939453125,2.178386875800735,0.0,2.1027999039333727,2.1842963080140265,0.0,0.054435881908725725,0.0,0.03799603161638178,0.0,0.5461741678459988,0.0,-0.15218059835065362,0.0,2.178386875800735,0.0,2.1027999039333727,auto,85.0,2.0991887518111167,10.0,0.0,0.0,8.099345609407491,0.03799603161638178,0,0
1761219718.1107986,7.707949161529541,2.4077525751018825,0.0,2.1085307009813463,2.137194180009561,0.0,0.034972178109327325,0.0,0.10829936316138963,0.0,0.4,0.0,-0.09147101863754496,0.0,2.4077525751018825,0.0,2.1085307009813463,auto,85.0,2.1049077400553124,10.0,0.0,0.0,7.8796016826901205,0.10829936316138963,0,0
1761219718.2159986,7.8131492137908936,2.629096856723348,0.0,2.1154177149615823,2.0794667400509894,0.0,0.055193413527307646,0.0,0.022722524694042748,0.0,0.4818536439997973,0.0,0.3,0.0,2.629096856723348,0.0,2.1154177149615823,auto,85.0,2.111746792246086,10.0,0.0,0.0,7.66845520664618,0.022722524694042748,0,0
1761219718.3216677,7.918818235397339,2.8441449585556473,0.0,2.1217529947314366,2.0005381738477395,0.0,0.037936849701149494,0.0,-0.01450276149287331,0.0,0.43597189594471597,0.0,0.08853940257708122,0.0,2.8441449585556473,0.0,2.1217529947314366,auto,85.0,2.1181063674686897,10.0,0.0,0.0,7.463785711340886,0.014502761492873308,0,0
1761219718.4249184,8.022068977355957,3.0489329044838467,0.0,2.128424561099548,1.951375663126729,0.0,0.04227638569971423,0.0,0.024377547151245016,0.0,0.4,0.0,-0.0807343076520464,0.0,3.0489329044838467,0.0,2.128424561099548,auto,85.0,2.1247928560456555,10.0,0.0,0.0,7.269630312378971,0.024377547151245016,0,0
1761219718.5291784,8.126328945159912,3.248798929322736,0.0,2.1348965788733882,1.9003898792135334,0.0,0.04429448971961701,0.0,0.08541751676269431,0.0,0.4,0.0,-0.3,0.0,3.248798929322736,0.0,2.1348965788733882,auto,85.0,2.131180742265887,10.0,0.0,0.0,7.080713191423526,0.08541751676269431,0,0
1761219718.6330433,8.230193853378296,3.4453985607030417,0.0,2.141317164277366,1.8440403498796039,0.0,0.08848051331449253,0.0,0.09106344819298792,0.0,0.8734876175808982,0.0,-0.3,0.0,3.4453985607030417,0.0,2.141317164277366,auto,85.0,2.1374601226726426,10.0,0.0,0.0,6.895508627074772,0.09106344819298792,0,0
1761219718.7379832,8.335133790969849,3.6361823327997893,0.0,2.1477142969039806,1.801119224052108,0.0,0.03808253325752543,0.0,0.07123609834300833,0.0,0.4243587304646199,0.0,0.18237913232924588,0.0,3.6361823327997893,0.0,2.1477142969039806,auto,85.0,2.1441596561313494,10.0,0.0,0.0,6.716461270825231,0.07123609834300833,0,0
1761219718.8424473,8.439597845077515,3.82086788056085,0.0,2.154174710136136,1.7483941214280216,0.0,0.047534921855318046,0.0,0.05964341624309435,0.0,0.5225989741118952,0.0,-0.015986653074651483,0.0,3.82086788056085,0.0,2.154174710136136,auto,85.0,2.1504256465639418,10.0,0.0,0.0,6.543862959389864,0.05964341624309434,0,0
1761219718.9470387,8.544189214706421,4.000402572222383,0.0,2.160099180930918,1.7033042719173128,0.0,0.06570543239934913,0.0,0.024644317410785745,0.0,0.6245379703724809,0.0,0.3,0.0,4.000402572222383,0.0,2.160099180930918,auto,85.0,2.1564503564138535,10.0,0.0,0.0,6.376613346193591,0.024644317410785745,0,0
1761219719.050399,8.647549629211426,4.17252768424662,0.0,2.1659408261164783,1.6413764546962655,0.0,0.08552377852119325,0.0,-0.016077730522382632,0.0,0.8931618433098969,0.0,0.3,0.0,4.17252768424662,0.0,2.1659408261164783,auto,85.0,2.162286886501812,10.0,0.0,0.0,6.216971389117871,0.01607773052238263,0,0
1761219719.1547916,8.751942157745361,4.341650663594262,0.0,2.172022824143452,1.5956748640300276,0.0,0.03261454707658218,0.0,-0.012720443124429765,0.0,0.4335843913042927,0.0,0.07916051822260814,0.0,4.341650663594262,0.0,2.172022824143452,auto,85.0,2.1683236512827397,10.0,0.0,0.0,6.060907552619769,0.012720443124429763,0,0
1761219719.2597022,8.856852769851685,4.507236494164064,0.0,2.1787124041699326,1.5448124882186305,0.0,0.08020609667782926,0.0,0.016280216101503518,0.0,0.687351854687959,0.0,-0.3,0.0,4.507236494164064,0.0,2.1787124041699326,auto,85.0,2.1748309301334414,10.0,0.0,0.0,5.9090810344017966,0.016280216101503518,0,0
1761219719.363617,8.9607675075531,4.665808759813203,0.0,2.1846232082990698,1.4930807635248196,0.0,0.08667624997890767,0.0,0.026862831169756594,0.0,0.7687045507123378,0.0,-0.1969034081304372,0.0,4.665808759813203,0.0,2.1846232082990698,auto,85.0,2.1809076283658175,10.0,0.0,0.0,5.764215015865082,0.026862831169756594,0,0
1761219719.4690857,9.0662362575531,4.822097772793631,0.0,2.191012188877453,1.4599814634317563,0.0,0.06408235981544132,0.0,0.03289357354318796,0.0,0.6480499900736448,0.0,-0.01586929128520684,0.0,4.822097772793631,0.0,2.191012188877453,auto,85.0,2.187197801895098,10.0,0.0,0.0,5.622384359532727,0.03289357354318796,0,0
1761219719.5747364,9.171886920928955,4.973933828207599,0.0,2.1978001709031414,1.4113993141904897,0.0,0.05210083211337037,0.0,0.028586750389253714,0.0,0.5337937987176907,0.0,-0.033293773685995925,0.0,4.973933828207599,0.0,2.1978001709031414,auto,85.0,2.1941798266570927,10.0,0.0,0.0,5.4855871841087165,0.028586750389253714,0,0
1761219719.6798184,9.276968955993652,5.1206491478806555,0.0,2.204565176426391,1.3702821728359593,0.0,0.056066034620234684,0.0,0.03749591277665775,0.0,0.4,0.0,-0.3,0.0,5.1206491478806555,0.0,2.204565176426391,auto,85.0,2.2006075740143314,10.0,0.0,0.0,5.354266742999428,0.037495912776657744,0,0
1761219719.7890337,9.386184215545654,5.267377394132651,0.0,2.210577212163002,1.3255489038259405,0.0,0.05990847003772437,0.0,0.07861940626501022,0.0,0.4,0.0,0.3,0.0,5.267377394132651,0.0,2.210577212163002,auto,85.0,2.206728545923489,10.0,0.0,0.0,5.223444107148176,0.07861940626501021,0,0
1761219719.8930066,9.490157127380371,5.4028313701671715,0.0,2.216741533784198,1.2873207867926435,0.0,0.06556853311211448,0.0,-0.03919260082083624,0.0,0.4,0.0,0.3,0.0,5.4028313701671715,0.0,2.216741533784198,auto,85.0,2.2129158189006,10.0,0.0,0.0,5.103714572615025,0.03919260082083625,0,0
1761219719.9992795,9.59643006324768,5.538007104831079,0.0,2.2224322959505494,1.2517709122794278,0.0,0.08392465812342835,0.0,-0.007087302105271872,0.0,0.95,0.0,0.3,0.0,5.538007104831079,0.0,2.2224322959505494,auto,85.0,2.2188600190629373,10.0,0.0,0.0,4.984835594743518,0.007087302105271873,0,0
1761219720.104188,9.701338529586792,5.667317700283312,0.0,2.2287320739961083,1.208396392332607,0.0,0.050175771881070017,0.0,-0.008726395961622165,0.0,0.4,0.0,-0.08554276313047547,0.0,5.667317700283312,0.0,2.2287320739961083,auto,85.0,2.2249447850825104,10.0,0.0,0.0,4.872307725086468,0.008726395961622165,0,0
1761219720.2098079,9.806958436965942,5.7939463608262285,0.0,2.2346804389690718,1.17270997032279,0.0,0.036171124693548135,0.0,0.019621579888149013,0.0,0.4,0.0,-0.3,0.0,5.7939463608262285,0.0,2.2346804389690718,auto,85.0,2.230907343850036,10.0,0.0,0.0,4.762844095697226,0.019621579888149013,0,0
1761219720.3172038,9.91435432434082,5.918664022819742,0.0,2.2416317903040786,1.1436564082329908,0.0,0.07234263422419297,0.0,0.009378204381199372,0.0,0.6898322121697603,0.0,0.06300012780085139,0.0,5.918664022819742,0.0,2.2416317903040786,auto,85.0,2.237777865672044,10.0,0.0,0.0,4.656416695478165,0.009378204381199372,0,0
1761219720.4228,10.01995062828064,6.037622564921575,0.0,2.248080874527054,1.1036445682149882,0.0,0.05739044320720199,0.0,-0.0038669040393539134,0.0,0.5918481081918616,0.0,0.046883712585171614,0.0,6.037622564921575,0.0,2.248080874527054,auto,85.0,2.2444648161854346,10.0,0.0,0.0,4.555689032016233,0.0038669040393539134,0,0
1761219720.5325656,10.129716157913208,6.158814540355218,0.0,2.2558298662658864,1.081878645812662,0.0,0.06785268143213406,0.0,0.09577374608435336,0.0,0.4,0.0,-0.3,0.0,6.158814540355218,0.0,2.2558298662658864,auto,85.0,2.2517795860170207,10.0,0.0,0.0,4.454601454779503,0.09577374608435338,0,0
1761219720.6362777,10.233428239822388,6.2690064879432805,0.0,2.263272981578316,1.0637787263539666,0.0,0.0625616272244306,0.0,0.022806650628090022,0.0,0.5009956265165183,0.0,0.3,0.0,6.2690064879432805,0.0,2.263272981578316,auto,85.0,2.2595574411583415,10.0,0.0,0.0,4.363796188658648,0.022806650628090022,0,0
1761219720.7420866,10.339237213134766,6.3786958033104355,0.0,2.270237914086094,1.0280710032905809,0.0,0.09033734213507054,0.0,-0.012621425970368257,0.0,0.796848343659894,0.0,0.3,0.0,6.3786958033104355,0.0,2.270237914086094,auto,85.0,2.2664143903660783,10.0,0.0,0.0,4.274087536716513,0.012621425970368257,0,0
1761219720.846074,10.443224668502808,6.48341548905037,0.0,2.2778948096994034,0.9946505684259237,0.0,0.08377985342486878,0.0,-0.0348594482919872,0.0,0.4,0.0,0.3,0.0,6.48341548905037,0.0,2.2778948096994034,auto,85.0,2.2738635080898595,10.0,0.0,0.0,4.18988918549242,0.0348594482919872,0,0
1761219720.952592,10.549742460250854,6.588183371923422,0.0,2.2844068169473917,0.9612871180007553,0.0,0.03314713652290485,0.0,-0.005983305107483839,0.0,0.4,0.0,-0.09112208354178258,0.0,6.588183371923422,0.0,2.2844068169473917,auto,85.0,2.280648137351997,10.0,0.0,0.0,4.105972139327731,0.005983305107483839,0,0
1761219721.0574532,10.654603719711304,6.688306877632788,0.0,2.292122685600898,0.934289067712991,0.0,0.047737283072293454,0.0,0.009503065462034733,0.0,0.4,0.0,-0.16926880356406487,0.0,6.688306877632788,0.0,2.292122685600898,auto,85.0,2.288367088402925,10.0,0.0,0.0,4.027547360687465,0.009503065462034735,0,0
1761219721.1629324,10.760082960128784,6.7861339366129725,0.0,2.29951539981467,0.9064291057167958,0.0,0.05545566783742832,0.0,0.0170307292352248,0.0,0.5091940691093679,0.0,-0.17709391257214335,0.0,6.7861339366129725,0.0,2.29951539981467,auto,85.0,2.295811988534731,10.0,0.0,0.0,3.9517978373615783,0.0170307292352248,0,0
1761219721.264309,10.861459493637085,6.877655923471823,0.0,2.3060594753320727,0.8818071845122083,0.0,0.05082621130760377,0.0,0.05932790651063526,0.0,0.4844767603649944,0.0,-0.3,0.0,6.877655923471823,0.0,2.3060594753320727,auto,85.0,2.3000770828873915,10.0,0.0,0.0,3.8816160083139892,0.05932790651063527,0,0
1761219721.367648,10.96479845046997,6.965344852053195,0.0,2.313211719191535,0.8319519891881736,0.0,0.04781367933241254,0.0,-0.04135262768836691,0.0,0.4847209277827842,0.0,-0.09426562821678716,0.0,6.965344852053195,0.0,2.313211719191535,auto,85.0,2.3095450688603636,10.0,0.0,0.0,3.8157673310574247,0.04135262768836691,0,0
1761219721.4711277,11.068278312683105,7.0520785003150195,0.0,2.320658469764701,0.8198790697449446,0.0,0.05133949389475025,0.0,0.0375516638259838,0.0,0.4,0.0,-0.3,0.0,7.0520785003150195,0.0,2.320658469764701,auto,85.0,2.3167750481496054,10.0,0.0,0.0,3.7517591742535377,0.0375516638259838,0,0
1761219721.580275,11.177425622940063,7.1402034283216755,0.0,2.3286837885965723,0.7936327849326849,0.0,0.08242647620742753,0.0,0.08439136531689745,0.0,0.4,0.0,-0.3,0.0,7.1402034283216755,0.0,2.3286837885965723,auto,85.0,2.324695880069309,10.0,0.0,0.0,3.687981103348495,0.08439136531689745,0,0
1761219721.6847506,11.281901121139526,7.222587669411968,0.0,2.3362020751045476,0.7839377216651586,0.0,0.05704983751721632,0.0,0.03293495005992783,0.0,0.4,0.0,0.08799482451108323,0.0,7.222587669411968,0.0,2.3362020751045476,auto,85.0,2.332128562021281,10.0,0.0,0.0,3.6293056346669452,0.03293495005992783,0,0
1761219721.7896624,11.386812925338745,7.302779868698738,0.0,2.3432634698211188,0.75977351200876,0.0,0.09024820573369485,0.0,0.021927537470163787,0.0,0.7434313006782447,0.0,0.20934646422275052,0.0,7.302779868698738,0.0,2.3432634698211188,auto,85.0,2.339294533633123,10.0,0.0,0.0,3.572937184683619,0.021927537470163787,0,0
1761219721.89418,11.491330623626709,7.38020485827188,0.0,2.3502381191410158,0.7395163734109117,0.0,0.08068026720459437,0.0,-0.006227422333557157,0.0,0.6630438013414613,0.0,0.3,0.0,7.38020485827188,0.0,2.3502381191410158,auto,85.0,2.3463056120875856,10.0,0.0,0.0,3.5195093125726715,0.006227422333557157,0,0
1761219721.9943702,11.5915207862854,7.452550088643044,0.0,2.356640511085126,0.711124095389727,0.0,0.05461194592384015,0.0,0.017856503395090765,0.0,0.4,0.0,0.3,0.0,7.452550088643044,0.0,2.356640511085126,auto,85.0,2.352697158704426,10.0,0.0,0.0,3.4703393997360155,0.017856503395090765,0,0
1761219722.097385,11.694535493850708,7.523933105384397,0.0,2.3629909597295473,0.6937845593510242,0.0,0.0406424570559656,0.0,-0.019825035836861037,0.0,0.4112757288742468,0.0,0.3,0.0,7.523933105384397,0.0,2.3629909597295473,auto,85.0,2.359396200080198,10.0,0.0,0.0,3.4226646844782973,0.019825035836861037,0,0
1761219722.2029352,11.80008578300476,7.595916550688444,0.0,2.369344369541447,0.6797520451838822,0.0,0.063872601339162,0.0,-0.015963298152674374,0.0,0.4,0.0,0.3,0.0,7.595916550688444,0.0,2.369344369541447,auto,85.0,2.365512663737501,10.0,0.0,0.0,3.3754125633367407,0.015963298152674374,0,0
1761219722.3074257,11.904576301574707,7.665331149934624,0.0,2.3750689344417526,0.6575845235835804,0.0,0.037763203938207854,0.0,-0.02710152594281425,0.0,0.4,0.0,0.3,0.0,7.665331149934624,0.0,2.3750689344417526,auto,85.0,2.3713407818389816,10.0,0.0,0.0,3.330410047248817,0.02710152594281425,0,0
1761219722.412935,12.010085582733154,7.733330766964401,0.0,2.3804522334496125,0.632274026172408,0.0,0.04640644666871624,0.0,-0.026656358332523767,0.0,0.5682778145305036,0.0,0.16950107584970645,0.0,7.733330766964401,0.0,2.3804522334496125,auto,85.0,2.376931064838015,10.0,0.0,0.0,3.2869959305915546,0.02665635833252377,0,0
1761219722.5165358,12.113686323165894,7.798051687488315,0.0,2.3851927156842527,0.611922520324755,0.0,0.02385145421638376,0.0,-0.02253997446948559,0.0,0.4482873868353722,0.0,0.05717806700685492,0.0,7.798051687488315,0.0,2.3851927156842527,auto,85.0,2.3818036673043608,10.0,0.0,0.0,3.2461855556832044,0.02253997446948559,0,0
1761219722.6206656,12.21781611442566,7.861469154019543,0.0,2.390802268154999,0.5978518756765834,0.0,0.04769209187801861,0.0,-0.01949460601409774,0.0,0.4,0.0,0.06943405603616554,0.0,7.861469154019543,0.0,2.390802268154999,auto,85.0,2.3870647754963517,10.0,0.0,0.0,3.2076860296208816,0.019494606014097745,0,0
1761219722.7247474,12.321897983551025,7.923184902068227,0.0,2.3962084839507956,0.5760978678621731,0.0,0.029414583358109578,0.0,-0.00819651532682822,0.0,0.4,0.0,-0.3,0.0,7.923184902068227,0.0,2.3962084839507956,auto,85.0,2.3925453579475184,10.0,0.0,0.0,3.1709582226127058,0.008196515326828222,0,0
1761219722.8339581,12.431108713150024,7.986530627079799,0.0,2.4017924256379515,0.5587922916546973,0.0,0.07018100032508041,0.0,0.042695731768487316,0.0,0.7336238037247536,0.0,-0.3,0.0,7.986530627079799,0.0,2.4017924256379515,auto,85.0,2.3980102304578277,10.0,0.0,0.0,3.134113235277166,0.042695731768487316,0,0
1761219722.9391663,12.536316871643066,8.045104943582732,0.0,2.4070238564446114,0.5453801662769657,0.0,0.04058264401170569,0.0,0.01953924251552386,0.0,0.5181138303733066,0.0,-0.3,0.0,8.045104943582732,0.0,2.4070238564446114,auto,85.0,2.403360196132748,10.0,0.0,0.0,3.1008673830233633,0.01953924251552386,0,0
1761219723.0398736,12.637024164199829,8.09977338806734,0.0,2.4122975249636065,0.5252826820556477,0.0,0.07688182966971129,0.0,0.04572192559721623,0.0,0.6060841540036653,0.0,0.3,0.0,8.09977338806734,0.0,2.4122975249636065,auto,85.0,2.4085236059330843,10.0,0.0,0.0,3.0708371050322114,0.04572192559721623,0,0
1761219723.1445725,12.74172306060791,8.153200357595008,0.0,2.41972462675493,0.5166724607766779,0.0,0.08979619970613761,0.0,-0.005658600430722062,0.0,0.772784060815144,0.0,0.3,0.0,8.153200357595008,0.0,2.41972462675493,auto,85.0,2.415945658061652,10.0,0.0,0.0,3.043967179276329,0.005658600430722062,0,0
1761219723.249202,12.846352577209473,8.205988439397888,0.0,2.427556476138533,0.5030016117871824,0.0,0.050966495226681646,0.0,-0.0024405048275701266,0.0,0.4,0.0,0.3,0.0,8.205988439397888,0.0,2.427556476138533,auto,85.0,2.423875932095256,10.0,0.0,0.0,3.0185274430450613,0.0024405048275701266,0,0
1761219723.3528378,12.94998836517334,8.256954902838839,0.0,2.4341493038866178,0.4943900013112873,0.0,0.07853849422678663,0.0,-0.011774079173934275,0.0,0.6795584928831343,0.0,0.3,0.0,8.256954902838839,0.0,2.4341493038866178,auto,85.0,2.4303781315799466,10.0,0.0,0.0,2.993875255308622,0.011774079173934273,0,0
1761219723.4573414,13.054491996765137,8.307244452463625,0.0,2.440593263965497,0.47920683452077545,0.0,0.06307788156279928,0.0,-0.010853866479526717,0.0,0.4,0.0,0.3,0.0,8.307244452463625,0.0,2.440593263965497,auto,85.0,2.43680577597399,10.0,0.0,0.0,2.970171177529829,0.010853866479526717,0,0
1761219723.5639853,13.161135911941528,8.35702378147573,0.0,2.446651774378679,0.4637598562142585,0.0,0.03695165168356772,0.0,-0.006512198042898485,0.0,0.4,0.0,0.2752151914315476,0.0,8.35702378147573,0.0,2.446651774378679,auto,85.0,2.4429151931178064,10.0,0.0,0.0,2.94711312299115,0.006512198042898485,0,0
1761219723.6692586,13.266409158706665,8.40468592201129,0.0,2.4525663341844055,0.45247488643015726,0.0,0.053722980053503656,0.0,0.0013297563555641075,0.0,0.5664468719844502,0.0,0.3,0.0,8.40468592201129,0.0,2.4525663341844055,auto,85.0,2.448825396279285,10.0,0.0,0.0,2.9257663322630028,0.0013297563555641078,0,0
1761219723.7733374,13.370487928390503,8.450371705880029,0.0,2.4587504477803686,0.4411907203904748,0.0,0.06031813627066229,0.0,-0.020402638448918976,0.0,0.4,0.0,0.3,0.0,8.450371705880029,0.0,2.4587504477803686,auto,85.0,2.454999694840609,10.0,0.0,0.0,2.906338179633839,0.020402638448918972,0,0
1761219723.878063,13.475213527679443,8.49533974855548,0.0,2.4643447905257627,0.42647432839121613,0.0,0.0409531028450746,0.0,-0.01738484534320098,0.0,0.4,0.0,0.2983390162884275,0.0,8.49533974855548,0.0,2.4643447905257627,auto,85.0,2.4605846248262004,10.0,0.0,0.0,2.8873859663835297,0.017384845343200984,0,0
1761219723.9815242,13.578674793243408,8.53835140226671,0.0,2.469749537960127,0.4138680154551858,0.0,0.03446430891298553,0.0,-0.025206005769786505,0.0,0.4,0.0,0.3,0.0,8.53835140226671,0.0,2.469749537960127,auto,85.0,2.466212531483243,10.0,0.0,0.0,2.8698570353782356,0.025206005769786505,0,0
1761219724.0876353,13.684785842895508,8.58121992543085,0.0,2.475154494106683,0.4005770270336163,0.0,0.05375074157289712,0.0,-0.028832228155742004,0.0,0.4,0.0,0.3,0.0,8.58121992543085,0.0,2.475154494106683,auto,85.0,2.4712576872420122,10.0,0.0,0.0,2.8529505200215013,0.028832228155742004,0,0
1761219724.1928499,13.790000438690186,8.622401677123795,0.0,2.480419259822228,0.387057552993355,0.0,0.05426510615775234,0.0,-0.03107680863904706,0.0,0.6051634588636865,0.0,0.2996133877488253,0.0,8.622401677123795,0.0,2.480419259822228,auto,85.0,2.476880868709241,10.0,0.0,0.0,2.837297454213848,0.031076808639047056,0,0
1761219724.3023546,13.899505138397217,8.664074703417487,0.0,2.4849103833812953,0.37359171514415496,0.0,0.026855869154538074,0.0,0.01908983425906429,0.0,0.4,0.0,0.09615045769917033,0.0,8.664074703417487,0.0,2.4849103833812953,auto,85.0,2.481241762189047,10.0,0.0,0.0,2.821254333002477,0.019089834259064294,0,0
1761219724.4090796,14.006230115890503,8.70333991554787,0.0,2.4891907002510796,0.37130442279059467,0.0,0.016200505062514286,0.0,0.0326952142798467,0.0,0.429125502477271,0.0,0.14874722097223692,0.0,8.70333991554787,0.0,2.4891907002510796,auto,85.0,2.4856843294560074,10.0,0.0,0.0,2.8066702187517265,0.0326952142798467,0,0
1761219724.5143692,14.111519813537598,8.741094683224636,0.0,2.494065775976177,0.35953235938668143,0.0,0.04925745724633637,0.0,0.026753754654212803,0.0,0.6538166001772137,0.0,0.10326148387571596,0.0,8.741094683224636,0.0,2.494065775976177,auto,85.0,2.4902698741592864,10.0,0.0,0.0,2.79378000055497,0.026753754654212803,0,0
1761219724.620524,14.217674493789673,8.77817762871575,0.0,2.4983982862961094,0.34904858073841416,0.0,0.07083854463181183,0.0,0.033318624934546924,0.0,0.797111787237186,0.0,0.13632166856885902,0.0,8.77817762871575,0.0,2.4983982862961094,auto,85.0,2.4947139975331365,10.0,0.0,0.0,2.781158734041983,0.033318624934546924,0,0
1761219724.7257571,14.32290768623352,8.813907521907323,0.0,2.5032432982226687,0.3428254354822437,0.0,0.024907420149839817,0.0,0.022815303505036338,0.0,0.4,0.0,0.28139063922789076,0.0,8.813907521907323,0.0,2.5032432982226687,auto,85.0,2.499835120856575,10.0,0.0,0.0,2.770025699643368,0.022815303505036338,0,0
1761219724.830146,14.42729663848877,8.848378599230095,0.0,2.5085931096225518,0.3327904734524122,0.0,0.042517349633448734,0.0,0.01342060647334748,0.0,0.49230281079218613,0.0,0.3,0.0,8.848378599230095,0.0,2.5085931096225518,auto,85.0,2.505142345988592,10.0,0.0,0.0,2.760302744330227,0.013420606473347483,0,0
1761219724.9354944,14.532644987106323,8.88211943219956,0.0,2.513123289266877,0.3245558937396004,0.0,0.031174164358362996,0.0,0.013292290576251347,0.0,0.4,0.0,0.29370152787549864,0.0,8.88211943219956,0.0,2.513123289266877,auto,85.0,2.509445827544801,10.0,0.0,0.0,2.7505355171168766,0.013292290576251345,0,0
1761219725.0432024,14.640352964401245,8.915917329230501,0.0,2.5177134514435857,0.3134284431382009,0.0,0.018785043961030097,0.0,0.019653781704640643,0.0,0.4,0.0,0.23902765954481464,0.0,8.915917329230501,0.0,2.5177134514435857,auto,85.0,2.5141525938037756,10.0,0.0,0.0,2.741188840748244,0.01965378170464064,0,0
1761219725.1494915,14.746642112731934,8.948035954287324,0.0,2.522680460015395,0.3055786398165118,0.0,0.0347454474127772,0.0,0.01794481777655636,0.0,0.4,0.0,0.26612222076663633,0.0,8.948035954287324,0.0,2.522680460015395,auto,85.0,2.518975440269429,10.0,0.0,0.0,2.7332297848544798,0.01794481777655636,0,0
1761219725.2539117,14.851062297821045,8.978731189628967,0.0,2.5269644193657803,0.29769431825615794,0.0,0.03222432700248175,0.0,0.005453201952840766,0.0,0.4,0.0,0.3,0.0,8.978731189628967,0.0,2.5269644193657803,auto,85.0,2.5234380390541107,10.0,0.0,0.0,2.725534655765232,0.005453201952840766,0,0
1761219725.3596988,14.956849336624146,9.009011109281023,0.0,2.5310381522374006,0.2896247125176399,0.0,0.03412786825892426,0.0,0.004443744400786532,0.0,0.4,0.0,0.3,0.0,9.009011109281023,0.0,2.5310381522374006,auto,85.0,2.5273555552508844,10.0,0.0,0.0,2.7181267648161196,0.004443744400786532,0,0
1761219725.4647977,15.061948299407959,9.038169540066866,0.0,2.5351830608034,0.2814588929916584,0.0,0.03150542878391231,0.0,-0.018219583627354034,0.0,0.4,0.0,0.3,0.0,9.038169540066866,0.0,2.5351830608034,auto,85.0,2.5316569138821117,10.0,0.0,0.0,2.711507142797098,0.018219583627354034,0,0
1761219725.5704243,15.167574882507324,9.066634144589958,0.0,2.539948815223028,0.2705453405877602,0.0,0.05537852478245561,0.0,-0.03108409377451283,0.0,0.6484188523272004,0.0,0.3,0.0,9.066634144589958,0.0,2.539948815223028,auto,85.0,2.5362763262645758,10.0,0.0,0.0,2.706014006615299,0.03108409377451283,0,0
1761219725.675734,15.272884607315063,9.094107270897863,0.0,2.544977075400951,0.25753384298997467,0.0,0.019361281244818413,0.0,-0.03846801362396063,0.0,0.4,0.0,0.23100967859225457,0.0,9.094107270897863,0.0,2.544977075400951,auto,85.0,2.541230744794914,10.0,0.0,0.0,2.7013977772546744,0.03846801362396063,0,0
1761219725.7825034,15.379653930664062,9.121246751032446,0.0,2.549930690191636,0.2470151670088557,0.0,0.048778688719110945,0.0,-0.026845053402964468,0.0,0.4,0.0,0.16935843453551092,0.0,9.121246751032446,0.0,2.549930690191636,auto,85.0,2.546072832312454,10.0,0.0,0.0,2.697100998730345,0.026845053402964468,0,0
1761219725.8886313,15.485781908035278,9.146894235198127,0.0,2.554855313664096,0.24246207235903777,0.0,0.07883861527002917,0.0,-0.03962322508176779,0.0,0.9494884036710234,0.0,0.2635772636421283,0.0,9.146894235198127,0.0,2.554855313664096,auto,85.0,2.551295867139612,10.0,0.0,0.0,2.6935246647647118,0.03962322508176779,0,0
1761219725.993071,15.590221643447876,9.17189953602453,0.0,2.560842381048511,0.2297000137735536,0.0,0.05299837300702284,0.0,-0.031118143187037383,0.0,0.4,0.0,0.01799079596902503,0.0,9.17189953602453,0.0,2.560842381048511,auto,85.0,2.556903535665934,10.0,0.0,0.0,2.6914055954111777,0.031118143187037383,0,0
1761219726.100461,15.697611570358276,9.196709423611109,0.0,2.5665614363233713,0.21792856948272274,0.0,0.031690985338736495,0.0,-0.01399271996150506,0.0,0.4,0.0,-0.22779713619445222,0.0,9.196709423611109,0.0,2.5665614363233713,auto,85.0,2.5630069795822203,10.0,0.0,0.0,2.68933325501647,0.01399271996150506,0,0