timestamp,simulation_time,position_x,position_y,position_z,velocity_x,velocity_y,velocity_z,attitude_roll,attitude_pitch,attitude_yaw,angular_velocity_x,angular_velocity_y,angular_velocity_z,acceleration_x,acceleration_y,acceleration_z,motor_speed_1,motor_speed_2,motor_speed_3,motor_speed_4,control_throttle,control_roll,control_pitch,control_yaw,estimated_position_x,estimated_position_y,estimated_position_z,estimated_velocity_x,estimated_velocity_y,estimated_velocity_z,estimated_attitude_roll,estimated_attitude_pitch,estimated_attitude_yaw,sensor_accel_x,sensor_accel_y,sensor_accel_z,sensor_gyro_x,sensor_gyro_y,sensor_gyro_z,sensor_gps_x,sensor_gps_y,sensor_gps_z,sensor_gps_vx,sensor_gps_vy,sensor_gps_vz,sensor_baro_altitude,sensor_mag_x,sensor_mag_y,sensor_mag_z,flight_mode,battery_level,gps_fix,waypoint_index,mission_complete,setpoint_altitude,setpoint_position_x,setpoint_position_y,setpoint_position_z,position_error,attitude_error
1760872805.3132384,0.11035871505737305,-9.320035023850934e-14,9.656298245637103e-15,0.0596589563123749,-3.3878319604937e-12,3.498311150280511e-13,1.0797513341150309,4.575740175081388e-07,4.580160966745253e-06,-1.8302959549079402e-08,,,,,,,,,,,0.0,0.03611496483398445,1.0,0.1795193192728741,-0.17351244219752568,0.10172701047772768,-3.830092491110424,-0.018160214429059532,-0.008709118443309497,0.22070862055847262,0.001370762883765142,0.007856316748819037,-0.08909143667237102,,,,,,,,,,,,,,,,,auto,85.0,True,0,False,-10.0,15.0,0.0,-10.0,16.380280427588406,0.08944766510137857
1760872805.4212084,0.21832871437072754,-1.407106029522232e-12,1.2847623292271926e-13,0.23047794745381148,-2.5858515425726326e-11,2.233009464156959e-12,2.110259014856575,1.4377101828562295e-06,1.7810027023963288e-05,-5.750839355366027e-08,,,,,,,,,,,0.0,0.11328336161169933,1.0,0.046653868714446614,-0.11064728726252115,0.32157209623596944,-0.10165218765219564,0.0003847278179944055,0.018707051827906232,1.3633086276314021,-0.00019131907544212012,0.008966227224403323,-0.03924393144159202,,,,,,,,,,,,,,,,,auto,85.0,True,0,False,-10.0,15.0,0.0,-10.0,18.06688571578794,0.04025563300484337
1760872805.529574,0.3266942501068115,-7.2176566969684605e-12,6.080930884900482e-13,0.5175261092772062,-8.869347738549503e-11,7.296026823468929e-12,3.1323212533939975,3.5686926270054874e-06,4.037974824470702e-05,-1.4274763540410065e-07,,,,,,,,,,,0.0,0.0665979284143174,1.0,-0.0885353263687946,0.420208833160027,0.219070585689531,0.32755413478290774,-0.007905757787057552,-0.007448808133617902,2.57526257483065,-0.0015670950312052234,0.00370909531482555,0.04590662141892396,,,,,,,,,,,,,,,,,auto,85.0,True,0,False,-10.0,15.0,0.0,-10.0,17.86831488409164,0.046082871709472464
1760872805.6345117,0.43163204193115234,-2.18334544616985e-11,1.89291549050378e-12,0.8917884384772133,-2.025103645780861e-10,1.8947615537549163e-11,4.06160708845538,8.079402951328512e-06,7.041276906322515e-05,-3.231758538462652e-07,,,,,,,,,,,0.0,0.06777838508679192,1.0,-0.03956868597556218,0.41930355584732426,0.21823329321715917,1.0019129681541064,-0.009177231650059778,-0.006668954017018232,3.516432483274731,-0.002136018004236906,0.0039461740715913685,0.027651453417925548,,,,,,,,,,,,,,,,,auto,85.0,True,0,False,-10.0,15.0,0.0,-10.0,18.267085797292143,0.02801317081019981
1760872805.7446406,0.5417609214782715,-5.362092630901256e-11,5.149636910460082e-12,1.385794644228423,-3.940613858819723e-10,4.300273580802958e-11,4.982483441170343,1.4607845906326942e-05,0.0001109069085090752,-5.843130400638619e-07,,,,,,,,,,,0.0,0.10948950599504846,1.0,-0.07007533085520878,0.06588186271129104,0.36085034442122454,1.5014028926438268,-0.009715848129582523,0.03986717990816699,4.610202773036752,-0.00014913621879264483,0.007547149429020017,0.037244264615608064,,,,,,,,,,,,,,,,,auto,85.0,True,0,False,-10.0,15.0,0.0,-10.0,18.85312616009558,0.03800153882243649
1760872805.8436806,0.640800952911377,-1.0504650099033048e-10,1.1108510522221138e-11,1.9241335407644249,-6.515258126452536e-10,7.91482126196185e-11,5.770416343332522,2.2634929648119384e-05,0.00015607174829816448,-9.053954220550316e-07,,,,,,,,,,,0.0,0.2491169217106277,1.0,-0.01114390249391042,0.6706937391486708,0.70095114064,2.3101873085514875,-0.002725646405191328,0.04884744949837465,5.461486351161826,-0.0016367815869453572,0.004363544141197995,0.009723328078019131,,,,,,,,,,,,,,,,,auto,85.0,True,0,False,-10,15.0,0.0,-10.0,18.90399592653521,0.010782517347463064
1760872805.9540966,0.7512168884277344,-1.9957384093352723e-10,2.3350598674221658e-11,2.606187531676852,-1.0813889227152643e-09,1.4795650545627264e-10,6.5722618830598085,3.662867017547148e-05,0.00021553997331557253,-1.465143024464764e-06,,,,,,,,,,,0.0,0.24105684207399708,1.0,-0.3331418429820492,0.3173378078907599,0.771799237269382,2.3962659183677704,-0.017494985832376582,0.033259016044350144,6.317532694442692,-0.0014602255726812174,0.001036590106814561,0.18625641119328948,,,,,,,,,,,,,,,,,auto,85.0,True,0,False,-10,15.0,0.0,-10.0,19.23131955506772,0.18626501949742572
1760872806.0646994,0.8618197441101074,-3.4614352234175914e-10,4.474014135348378e-11,3.3668857303183515,-1.6128835721756412e-09,2.488201585403122e-10,7.29529534451185,5.650720747323375e-05,0.0002847306427162658,-2.2602807573447947e-06,,,,,,,,,,,0.0,0.2280124953005506,1.0,-0.011816754567959841,-0.6750075334292351,0.7928697817182414,3.458523240690123,-0.017981136655411265,-0.022206604971795753,7.084231888661185,-0.0003791804077475369,0.0019593891108109496,0.03926007848949695,,,,,,,,,,,,,,,,,auto,85.0,True,0,False,-10,15.0,0.0,-10.0,20.675259405483196,0.03931077137974584
1760872806.1710024,0.9681227207183838,-5.514356961254759e-10,7.830942352177437e-11,4.188419708248062,-2.2131319166582127e-09,3.8019366795897606e-10,7.935147641295192,7.974639976612918e-05,0.0003620694873511857,-3.189842192612872e-06,,,,,,,,,,,0.0,0.042254293556027236,1.0,-0.009742570419097148,-0.18192155380580335,0.3400309243735789,4.061420442359969,0.038709113205399624,-0.051011320810260934,7.813176895560076,-0.0016185432721509407,-0.000309880676645502,0.017207929794188375,,,,,,,,,,,,,,,,,auto,85.0,True,0,False,-10,15.0,0.0,-10.0,20.69613268106538,0.01728665832829756
1760872806.2776647,1.0747849941253662,-8.250606590798281e-10,1.2767612973894332e-10,5.065528630942142,-2.9447950218123814e-09,5.534553778818749e-10,8.500454489156525,0.00010396045997882613,0.00044727747455045595,-4.158395332864367e-06,,,,,,,,,,,0.0,-0.348846617513776,1.0,-0.18111760831029244,0.06382810993652431,-0.6259932036522675,4.8350652339834115,0.0528108404376104,-0.03072042125773549,8.420045650380203,0.002187616457013153,0.002479022957857069,0.1120735856824193,,,,,,,,,,,,,,,,,auto,85.0,True,0,False,-10,15.0,0.0,-10.0,21.060870321928398,0.11212234312706437
1760872806.3839002,1.1810204982757568,-1.1894073756623755e-09,1.9885521295349996e-10,6.000201690412397,-3.891574790329856e-09,7.82221933226985e-10,9.001824560231066,0.00012541500755537026,0.0005417122809360787,-5.016564615733674e-06,,,,,,,,,,,0.0,-0.2578405476230547,1.0,-0.1853938809299968,0.06943582441655982,-0.6292816334888007,6.043217519152524,0.05286642102967776,-0.03029033810360733,8.927137488963393,0.005567988794433987,0.0032404160915810998,0.10869372624500823,,,,,,,,,,,,,,,,,auto,85.0,True,0,False,-10,15.0,0.0,-10.0,21.924930338368338,0.10888447511324244
1760872806.493258,1.2903783321380615,-1.680682934811666e-09,2.9975094344386497e-10,7.009848199030751,-5.109152015297372e-09,1.0633370316736184e-09,9.453061040398264,0.00014156951155072124,0.0006485088870245277,-5.662728763858028e-06,,,,,,,,,,,0.0,-0.3864497951461455,1.0,-0.10067612998167776,-0.5839957885889041,-1.1893275567322512,6.915085333646917,0.033667821569844124,-0.029017706466663053,9.445110099470789,-0.000533941067109911,-0.006466447530781405,0.05856295215690819,,,,,,,,,,,,,,,,,auto,85.0,True,0,False,-10,15.0,0.0,-10.0,23.0303177707238,0.05892129837388016
1760872806.6000125,1.3971328735351562,-2.2982771034819415e-09,4.285822551046181e-10,8.039996641877623,-6.559078257570609e-09,1.364074784710742e-09,9.837525144616842,0.000150467706746913,0.0007628925402280182,-6.018638772373596e-06,,,,,,,,,,,0.0,-0.38498040603072026,1.0,0.11317154381030005,-0.580213481758858,-1.192309307516256,7.948989975135008,0.037011421293899074,-0.026073220239528253,9.83830516814792,0.005981365860044274,-0.005785438193674608,-0.057207797916181954,,,,,,,,,,,,,,,,,auto,85.0,True,0,False,-10,15.0,0.0,-10.0,23.79770776250241,0.05780986226469705
1760872806.7078476,1.5049679279327393,-3.085764769719748e-09,5.903360439426456e-10,9.119455363745262,-7.986215940545353e-09,1.6162598053063352e-09,10.174937768998731,0.00015213211226560626,0.000888933634246193,-6.0851960627029206e-06,,,,,,,,,,,0.0,-0.14012832104944026,1.0,-0.10768367209327913,0.41597491359338834,-0.5724031523358591,9.00305875936425,0.039673104528048585,-0.029700547936216196,10.175668868135858,0.008821775108991403,-0.004870422441191291,0.038455953962660494,,,,,,,,,,,,,,,,,auto,85.0,True,0,False,-10,15.0,0.0,-10.0,23.961170157185393,0.03975430952749077
1760872806.8160465,1.6131668090820312,-4.018627283637187e-09,7.749391083815468e-10,10.225688428478431,-9.431573036341058e-09,1.8231406648422777e-09,10.464762781297154,0.00015357988298029038,0.0010231740718522884,-6.143087861961113e-06,,,,,,,,,,,0.0,0.08558783435440394,1.0,0.0305660328050964,0.7208903009573695,0.1886873889929008,10.168695808318173,-0.03584361914835178,-0.01832081014181705,10.440344390362702,0.01192491469347079,-0.005148601109165707,-0.022844067387827426,,,,,,,,,,,,,,,,,auto,85.0,True,0,False,-10,15.0,0.0,-10.0,24.71244357275357,0.026278567286811102
1760872806.9245994,1.721719741821289,-5.1322973344885e-09,9.838873413832575e-10,11.376113157055851,-1.1133210750523747e-08,2.0256325766339106e-09,10.717444978668954,0.00015405568431648624,0.0011681937378693018,-6.162100317354911e-06,,,,,,,,,,,0.0,-0.09375250015596004,1.0,-0.05144905548390155,1.1634865845944875,-0.21538716088352725,11.389591980928587,-0.03500265206776702,-0.0298062444669038,10.718643945643548,0.013607208722648423,-0.003274366641657256,0.006953363602969775,,,,,,,,,,,,,,,,,auto,85.0,True,0,False,-10,15.0,0.0,-10.0,25.47567742444496,0.01562775964496581
1760872807.0343118,1.8314321041107178,-6.45854699508054e-09,1.2169615466483183e-09,12.56971663872167,-1.2961013875526927e-08,2.1997815560496153e-09,10.936811610649544,0.00015203451578094606,0.001324748431292432,-6.081233936445556e-06,,,,,,,,,,,0.0,-0.08929235808695737,1.0,0.010567559730387517,1.1597837406873457,-0.2178518257534668,12.423304687601304,-0.032772318317336374,-0.014233220674899565,10.94160110686694,0.011952828540395366,-0.00030211224252374436,-0.009445194311084436,,,,,,,,,,,,,,,,,auto,85.0,True,0,False,-10,15.0,0.0,-10.0,26.351539587574933,0.015237226699675848
1760872807.1421998,1.9393200874328613,-7.96950414942365e-09,1.4637479342320598e-09,13.765430541340887,-1.494216855509222e-08,2.3492717545973994e-09,11.120781489592838,0.00014856460577837097,0.0014877397175843295,-5.9424189140419695e-06,,,,,,,,,,,0.0,-0.09014674261627685,1.0,-0.21565272585017753,1.1563792528571608,-0.2188548249137914,13.638117007592616,-0.029466548329568572,-0.0041452377880429395,11.128653254321044,0.01106134122890401,-0.002279232695800104,0.10716114368888627,,,,,,,,,,,,,,,,,auto,85.0,True,0,False,-10,15.0,0.0,-10.0,27.394421119814726,0.1077546235118196
1760872807.2526498,2.0497701168060303,-9.741722979371088e-09,1.7298211232491063e-09,14.991382583583178,-1.7502959495899586e-08,2.5102651586063787e-09,11.278839947716053,0.00014194638322454945,0.0016618394428470785,-5.677672460615876e-06,,,,,,,,,,,0.0,-0.3160730529798832,1.0,-0.0012997224016889275,0.5208824383018713,-0.7056671461632996,14.700829413402527,0.008534764672436109,-0.004193462585436922,11.292432746354173,0.014133589345749709,0.0007778764914778691,0.004263980901151175,,,,,,,,,,,,,,,,,auto,85.0,True,0,False,-10,15.0,0.0,-10.0,28.640422224483018,0.014783266646978453
1760872807.360831,2.1579513549804688,-1.1779370641080046e-08,2.0086988947026344e-09,16.224452329016344,-2.002408500150378e-08,2.6153806800910422e-09,11.412048610963373,0.0001299087089268925,0.0018445024956937263,-5.196150781528605e-06,,,,,,,,,,,0.0,-0.17333223616081414,1.0,0.026652870349697252,0.2536193672097017,-0.4682155744589054,15.77362823201602,0.015797652634539028,0.06255722721463682,11.455438649858065,0.012862124470086389,0.0010550184845325994,-0.02088891296087241,,,,,,,,,,,,,,,,,auto,85.0,True,0,False,-10,15.0,0.0,-10.0,29.69772516260247,0.024553899783407194
1760872807.4702525,2.2673728466033936,-1.4109742242903836e-08,2.2982185897415264e-09,17.47978858498317,-2.2624197293676495e-08,2.670408051085263e-09,11.525700577178688,0.00011461536132216582,0.002037819094442265,-4.584406247825589e-06,,,,,,,,,,,0.0,-0.24069797812810098,1.0,0.04760528699546279,-0.6753990047548895,-0.6470006675027457,17.42792593125591,0.001488525200033699,0.0412720037962165,11.531235917878947,0.007883066473764355,-0.0023620468136198447,-0.02955216383910294,,,,,,,,,,,,,,,,,auto,85.0,True,0,False,-10,15.0,0.0,-10.0,31.597909182610167,0.030676577217034866
1760872807.5757,2.3728203773498535,-1.666230131065108e-08,2.5828770560294634e-09,18.70603414243964,-2.5609049636136785e-08,2.696048004706491e-09,11.618944740862593,9.60657788100831e-05,0.0022340795191518187,-3.842417795493272e-06,,,,,,,,,,,0.0,-0.23010418190164914,1.0,-0.003780197251280447,-0.6749857342331549,-0.6423738713274139,18.639925043828203,0.005630076082181165,0.04723102201604457,11.62453964917748,0.011559798169202384,0.0024509621048611763,-0.016451793198379194,,,,,,,,,,,,,,,,,auto,85.0,True,0,False,-10,15.0,0.0,-10.0,32.65521594592624,0.020255805301058666
1760872807.6839964,2.481116771697998,-1.9601645687678447e-08,2.8736402139109487e-09,19.96881848219234,-2.8797072229609092e-08,2.6682250670447274e-09,11.699684139916304,7.306863843143402e-05,0.002444082325290212,-2.9225337662509118e-06,,,,,,,,,,,0.0,-0.21934289054641648,1.0,-0.035544110370574214,-0.6743636898234706,-0.6365442268474166,19.849651720043582,0.005228239429446195,0.0604972110847563,11.70649239408821,0.012464774602504392,0.0032450861129267317,0.002116429654027363,,,,,,,,,,,,,,,,,auto,85.0,True,0,False,-10,15.0,0.0,-10.0,33.720803273965615,0.013052986794293283
1760872807.7916908,2.588811159133911,-2.287226144144615e-08,3.1568103739977033e-09,21.232564524996135,-3.195279061413942e-08,2.5808183416427814e-09,11.767527667416834,4.6124042689409896e-05,0.00266225915572079,-1.8447600960001453e-06,,,,,,,,,,,0.0,-0.1365475901970411,1.0,-0.13102264398248883,-1.070099414066833,-0.4541211214046032,21.18352926499568,0.027209140818165712,0.07547057163171905,11.753727365737031,0.00977016772434336,0.007486919062575925,0.050152624135076734,,,,,,,,,,,,,,,,,auto,85.0,True,0,False,-10,15.0,0.0,-10.0,35.08371158517495,0.05164102866951475
1760872807.8992832,2.6964035034179688,-2.6480325809552934e-08,3.4272447143157048e-09,22.501826943089114,-3.520205325032683e-08,2.4382289318761877e-09,11.824775344347232,1.7872000453206023e-05,0.0028891143731789967,-7.146984355900495e-07,,,,,,,,,,,0.0,-0.17503447170894473,1.0,0.0893934781553703,-1.1081432098429482,-0.5460927172770773,22.37938067838486,0.026024408133943897,-0.009241370845058983,11.792347848974215,0.00610509769931511,-0.00033248550036635294,-0.037151933560298424,,,,,,,,,,,,,,,,,auto,85.0,True,0,False,-10,15.0,0.0,-10.0,36.168975490611224,0.03765167900366417
1760872808.0096273,2.8067476749420166,-3.056367939521921e-08,3.6858237368834263e-09,23.80942934744968,-3.89516382763593e-08,2.238983090018481e-09,11.874223014679632,-1.3433914192869873e-05,0.003131068575624394,5.375063355512009e-07,,,,,,,,,,,0.0,-0.16041569840483888,1.0,0.15772245712635508,-1.1051067868858537,-0.5467824456483392,23.510890946004427,0.02970726412142502,-0.003424886328000735,11.84218693699636,0.0036720988687304335,-0.0035794605676420232,-0.07285372304425236,,,,,,,,,,,,,,,,,auto,85.0,True,0,False,-10,15.0,0.0,-10.0,37.18404560634664,0.07303397708919912
1760872808.1212645,2.9183847904205322,-3.5098399822922776e-08,3.920986651344158e-09,25.131410672346114,-4.271518859442917e-08,1.9840963507200027e-09,11.916016179906062,-4.70787544150953e-05,0.003384340847044022,1.8832549274411239e-06,,,,,,,,,,,0.0,0.11878305983944445,1.0,0.09031426801503077,-0.02203920115789193,0.08860233568736534,25.198276405614255,-0.00490784481062774,0.014047931189149584,11.903116124292895,-0.00104586622287961,-0.004518195074277198,-0.03887002789455407,,,,,,,,,,,,,,,,,auto,85.0,True,0,False,-10,15.0,0.0,-10.0,38.269938255255056,0.039145714853720516
1760872808.2254922,3.0226125717163086,-3.977712162291027e-08,4.113960220716231e-09,26.381210479918476,-4.6661132255506747e-08,1.693781108303318e-09,11.949192858229107,-7.788746159106184e-05,0.0036317785071462946,3.115548215789746e-06,,,,,,,,,,,0.0,-0.270848328582506,1.0,-0.07544037630430409,-0.5524145694694622,-0.7555212749036606,26.16938450263054,-0.057801109298638347,-0.015284052085293431,11.912452385276936,-0.005723846984484915,-0.002989451646019603,0.057320161849509534,,,,,,,,,,,,,,,,,auto,85.0,True,0,False,-10,15.0,0.0,-10.0,39.37858284190288,0.05768275478771497
1760872808.341117,3.138237237930298,-4.537666777408953e-08,4.287778254560914e-09,27.752690338628803,-5.113003975150476e-08,1.3300728715954615e-09,11.979688143351328,-0.00011139428571705209,0.003912344902883061,4.4557467223938435e-06,,,,,,,,,,,0.0,0.10292541582000107,1.0,-0.09933502390280566,-0.2005236614702247,0.027696180603148712,27.496425604133606,-0.02532560978997341,-0.022659412466395544,11.97897565736366,-0.006896222058120571,-0.005988410609182093,0.07325504338821452,,,,,,,,,,,,,,,,,auto,85.0,True,0,False,-10,15.0,0.0,-10.0,40.46033390553843,0.07382222105916528
1760872808.44276,3.239880323410034,-5.077252109600626e-08,4.405412807650255e-09,28.971578730533015,-5.5080347369772924e-08,9.794050580949707e-10,12.002434834246516,-0.00013935553369297918,0.004169578467870705,5.574118259431043e-06,,,,,,,,,,,0.0,0.09372342075543053,1.0,0.03201076944876875,-0.20264813848344793,0.025129688582116505,28.726394750873222,-0.016336927586886835,-0.028185260318818055,12.001888777936644,-0.009616063235756478,-0.005578412290554446,0.005660105460730827,,,,,,,,,,,,,,,,,auto,85.0,True,0,False,-10,15.0,0.0,-10.0,41.603543026096276,0.012474940868159302
1760872808.584521,3.381641387939453,-5.7093889857275934e-08,4.49077507472225e-09,30.29540987260513,-5.969570168279761e-08,5.639066943057991e-10,12.023254068957346,-0.0001702032567205574,0.0044573158796768955,6.807928958221941e-06,,,,,,,,,,,0.0,0.04395061552441141,1.0,0.27264900039645146,-0.20391219626848278,0.021464566413978692,30.047420125235742,-0.007813581629714307,-0.03762937163658321,12.022280195894398,-0.004638935661856358,-0.005633603493985895,-0.13473956970272757,,,,,,,,,,,,,,,,,auto,85.0,True,0,False,-10,15.0,0.0,-10.0,42.83637782874026,0.1349370551630592
1760872808.6755877,3.472707986831665,-6.402737142633805e-08,4.527329880662929e-09,31.632281618089152,-6.49721437734922e-08,9.484347741829584e-11,12.040833397752241,-0.00020453406968309133,0.004757087831827391,8.181047153276895e-06,,,,,,,,,,,0.0,0.22576398713675627,1.0,0.14674130333015872,-0.08915064793124629,0.4356358221089354,31.4885703441899,-0.04291701904551016,-0.04328498221988883,12.05534217868036,-0.00538388367268583,-0.0004482019546334648,-0.09983643558853172,,,,,,,,,,,,,,,,,auto,85.0,True,0,False,-10,15.0,0.0,-10.0,44.14944750560602,0.09998250326640254
1760872808.7717502,3.5688705444335938,-7.143481410460618e-08,4.505875944142394e-09,32.92955932454656,-7.209340702760731e-08,-4.73337456754608e-10,12.055124316867667,-0.0002341989478464954,0.0050578864559915355,9.367515900887953e-06,,,,,,,,,,,0.0,0.3346279651988431,1.0,-0.03984848083407106,0.33814538006761585,0.9280188748186607,32.68166948615851,-0.0020204933334149002,-0.04805033289407796,12.037141314169832,-0.0010815377311637064,0.005433195939692936,0.007489332434131657,,,,,,,,,,,,,,,,,auto,85.0,True,0,False,-10,15.0,0.0,-10.0,45.139296738581635,0.009315548416060266
1760872808.884238,3.6813583374023438,-7.991085377457201e-08,4.421042051500601e-09,34.286433431379116,-7.863902157842835e-08,-1.0366535405263772e-09,12.067635435187935,-0.00025795540779175266,0.005382942404548668,1.0317628665463652e-05,,,,,,,,,,,0.0,0.2901910365899484,1.0,-0.06303399680670109,0.33791933795584417,0.9226379315430101,33.92562961231088,-0.0016267804464525416,-0.047772515760453105,12.050518254297225,-0.00039161387016584115,0.006342789118600756,0.031336908843780494,,,,,,,,,,,,,,,,,auto,85.0,True,0,False,-10,15.0,0.0,-10.0,46.31726251551287,0.03197477429333559
1760872808.9919622,3.7890825271606445,-8.86589357648325e-08,4.283245404757437e-09,35.58537050400534,-8.403967826545156e-08,-1.5255486436363554e-09,12.077658583196007,-0.0002761373667702518,0.005703514987530926,1.1044757404760344e-05,,,,,,,,,,,0.0,-0.20995401454469753,1.0,-0.051267926584473406,-0.5723972778093446,-0.20181724893460715,35.08917012111534,0.006331568805710081,-0.025566479386881506,12.07493572721384,-0.0007266286011335943,0.0066089272512375175,0.021749268994653403,,,,,,,,,,,,,,,,,auto,85.0,True,0,False,-10,15.0,0.0,-10.0,47.702972123241665,0.022742836462014297
1760872809.1327314,3.929851770401001,-1.0104961533055982e-07,4.021731429828869e-09,37.287886176032046,-9.240627519238972e-08,-2.212364692480057e-09,12.088413719187097,-0.00030403605739964703,0.006137224211243906,1.21604938950033e-05,,,,,,,,,,,0.0,-0.15305755315804417,1.0,0.2511619849810518,-0.5718237853646511,-0.20539536181801213,36.960668369418556,0.0012265411588497218,-0.025049406251599387,12.084336960797515,0.00035943466724130957,0.00857946345840821,-0.13225761063765773,,,,,,,,,,,,,,,,,auto,85.0,True,0,False,-10,15.0,0.0,-10.0,49.47553190173515,0.13253607794897376
1760872809.2577055,4.054825782775879,-1.1298979778560249e-07,3.7109063081200127e-09,38.799089088812494,-9.877984394351732e-08,-2.7671586142212987e-09,12.096110049971369,-0.00033382104230494035,0.0065352625376776975,1.3351687572772526e-05,,,,,,,,,,,0.0,-0.08812171262477692,1.0,0.04105107216047864,-0.7957327811281116,-0.14634800534268563,38.377098304507314,0.0004239802275335558,-0.001287828187624291,12.10836296378784,0.0014828194849103582,0.008802453639789043,-0.023130586231329513,,,,,,,,,,,,,,,,,auto,85.0,True,0,False,-10,15.0,0.0,-10.0,50.890767651858404,0.024793264470626606
1760872809.3689442,4.166064500808716,-1.2431540381883796e-07,3.374419843670181e-09,40.14500950125424,-1.0497956633035397e-07,-3.290239288025882e-09,12.10177067017754,-0.0003619945145153539,0.006899586321323366,1.4478426643859492e-05,,,,,,,,,,,0.0,-0.06887426852565187,1.0,0.20228229248029916,-0.7958741873515364,-0.14651192944598773,40.052117890004446,-0.002978346548850523,-0.0004481844742319269,12.1143037178036,0.0017860988721083437,0.010496240403240265,-0.10055266283888264,,,,,,,,,,,,,,,,,auto,85.0,True,0,False,-10,15.0,0.0,-10.0,52.48567054313979,0.10111478238009303
1760872809.4789486,4.276068925857544,-1.362046300354657e-07,2.9836822831166333e-09,41.476505669992854,-1.1128947108167184e-07,-3.819855685711702e-09,12.106453069892273,-0.00039011806105436947,0.0072691987742387375,1.5603154369273748e-05,,,,,,,,,,,0.0,0.07321289375868993,1.0,0.1287640744402617,-0.20195274575164907,0.15836549656858087,41.22078793225761,0.026169871360794388,-0.009543875038531786,12.139114011815265,-0.0001626483635406295,0.009831131000610505,-0.057350091778148704,,,,,,,,,,,,,,,,,auto,85.0,True,0,False,-10,15.0,0.0,-10.0,53.429332424389095,0.05818685949768562
1760872809.5931258,4.390246152877808,-1.4931543997702451e-07,2.514543105331495e-09,42.8590515624563,-1.1842220584995028e-07,-4.400187685035563e-09,12.110509202615967,-0.00041716861691255125,0.007662745892007057,1.6684937072821633e-05,,,,,,,,,,,0.0,0.12462373090361514,1.0,-0.0048244774938819915,0.740540068187485,0.33189298881192897,42.5313090477632,-0.009900864405249284,0.024462125138938504,12.114967592816463,0.0014346683970014595,0.010509237866880294,0.011956047395917907,,,,,,,,,,,,,,,,,auto,85.0,True,0,False,-10,15.0,0.0,-10.0,54.433269061986316,0.01598278521677185
1760872809.6984375,4.49555778503418,-1.6216636119653995e-07,2.0214771871468266e-09,44.134592914145706,-1.2578788513939806e-07,-4.97011512865706e-09,12.113642041521054,-0.00043824515240791753,0.00803485135665304,1.7527763418317132e-05,,,,,,,,,,,0.0,0.2158749041734165,1.0,-0.13010926341428367,0.3612384955378056,0.6207927441948662,43.86140773011806,0.010024099320648265,0.023811275781242987,12.147462134935575,0.0036023556866577877,0.01240820551629529,0.07420239597043121,,,,,,,,,,,,,,,,,auto,85.0,True,0,False,-10,15.0,0.0,-10.0,55.818724140612446,0.07531889602470607
1760872809.8063438,4.603464126586914,-1.7612361753293596e-07,1.4556834860001701e-09,45.44188175259898,-1.3285043211776834e-07,-5.510170020225672e-09,12.116344565600494,-0.00045611828335915383,0.008425262840887852,1.8242435910533953e-05,,,,,,,,,,,0.0,0.19875032328339576,1.0,-0.0353422885743464,0.3620422266850096,0.6235089268982262,45.430898917798444,0.004257667130175259,0.026866107418692234,12.146816099927438,0.0008557944898015535,0.014218023965731685,0.014313771324158883,,,,,,,,,,,,,,,,,auto,85.0,True,0,False,-10,15.0,0.0,-10.0,57.33448461432668,0.02019328203188398
1760872809.947365,4.744485378265381,-1.9552948329135454e-07,6.297377933871983e-10,47.150743862880475,-1.425005409050952e-07,-6.203273220860926e-09,12.119235690503327,-0.0004758441699284105,0.008949034043931782,1.903112532487583e-05,,,,,,,,,,,0.0,0.21057348932525483,1.0,0.009048553307919063,0.35784777683933433,0.7273702565132029,47.16013036533177,0.026097875284209208,0.02671465903200368,12.133024315508887,0.00466500545245907,0.014702914593576644,-0.013497872601059016,,,,,,,,,,,,,,,,,auto,85.0,True,0,False,-10,15.0,0.0,-10.0,59.01018719338206,0.02049708608978119
1760872810.0573604,4.854480743408203,-2.1171031016211059e-07,-8.563665102094915e-11,48.48387887822203,-1.5103186402156398e-07,-6.7624035176159055e-09,12.121075148439324,-0.00048690575280314403,0.009368623945769677,1.9473308639600566e-05,,,,,,,,,,,0.0,0.11672556262219741,1.0,0.12235798504491444,-0.10870820341989743,0.45244540533752436,48.165349777256615,-0.022339689900736814,-0.004719938336674236,12.121904834272065,-0.0022176228629740002,0.014854872694642918,-0.0576415478326283,,,,,,,,,,,,,,,,,auto,85.0,True,0,False,-10,15.0,0.0,-10.0,60.09730181240673,0.05956620795784812
1760872810.1584868,4.955607175827026,-2.273763185317845e-07,-7.938875118513816e-10,49.709664880256,-1.5852794815622355e-07,-7.225418891632746e-09,12.122500794669818,-0.0004948841895208037,0.009762763502264897,1.979218283352587e-05,,,,,,,,,,,0.0,0.14280430557912435,1.0,0.020434097016261386,-0.11127100148958965,0.45180122948104257,49.47831211731438,-0.03113013879892148,-0.008940586200022839,12.1231488196058,-0.006955034179781272,0.021571572244905912,-0.016974524995019856,,,,,,,,,,,,,,,,,auto,85.0,True,0,False,-10,15.0,0.0,-10.0,61.36957102633264,0.028316774681550066
1760872810.2619748,5.059095144271851,-2.4422567826928697e-07,-1.5670072592767635e-09,50.96429831743243,-1.6853078290143093e-07,-7.780776017820597e-09,12.123737315182508,-0.0005010001983635121,0.010174478587467884,2.0036549044962448e-05,,,,,,,,,,,0.0,0.39872725646578744,1.0,-0.1336413677078514,0.3289091040979305,1.029974723706735,50.771940972412416,-0.05113545148171044,-0.05310230962329415,12.154827028726013,-0.008704335545589803,0.020923560136414388,0.05981074612954914,,,,,,,,,,,,,,,,,auto,85.0,True,0,False,-10,15.0,0.0,-10.0,62.52623901660546,0.06396003579303051
1760872810.36215,5.159270286560059,-2.6167573224687387e-07,-2.3753536408093993e-09,52.19102356904701,-1.7663965937979732e-07,-8.202814806174572e-09,12.124762018931067,-0.0005039318301347842,0.010585777208885408,2.0153543640461798e-05,,,,,,,,,,,0.0,-0.16630641424126408,1.0,0.06834141533523932,-0.3828423449831309,-0.3498954475873997,52.092469163786305,-0.04766454143296859,-0.08503798708187503,12.11106674826728,-0.00952155522779119,0.020592147655448034,-0.03913081762661005,,,,,,,,,,,,,,,,,auto,85.0,True,0,False,-10,15.0,0.0,-10.0,63.9705322182847,0.04523181896791978
1760872810.4955933,5.292713642120361,-2.857898734644911e-07,-3.4962282537198836e-09,53.79695929344267,-1.8734812241232146e-07,-8.707537963617582e-09,12.125873445177353,-0.0005109905342480384,0.011136487732623358,2.043553342804565e-05,,,,,,,,,,,0.0,-0.16419212940597275,1.0,-0.07647196444312904,-0.0569225890664446,-0.5143566973368816,53.561116986689896,0.01515276360189193,-0.09158522857891979,12.165668907405198,-0.011015103780720903,0.01105687686018264,0.03558587918956296,,,,,,,,,,,,,,,,,auto,85.0,True,0,False,-10,15.0,0.0,-10.0,65.32220964772175,0.03885797003055441
1760872810.5956502,5.392770528793335,-3.050342736742089e-07,-4.389594544450884e-09,55.016254048995755,-1.9602423088533276e-07,-9.085017926358829e-09,12.126571778255434,-0.0005193092088321048,0.01156372114326404,2.0768003000446667e-05,,,,,,,,,,,0.0,-0.24807551301249853,1.0,0.20226267048679863,0.26651848876076834,-0.8901457480429871,54.70029808933521,0.009410884137814933,-0.1138316219894148,12.135327577095715,-0.015225459198526359,0.012788286807201565,-0.08969228561367104,,,,,,,,,,,,,,,,,auto,85.0,True,0,False,-10,15.0,0.0,-10.0,66.3626130418598,0.09186980453812654
1760872810.6977055,5.494825839996338,-3.2538189189967345e-07,-5.330591527414631e-09,56.247849770263855,-2.0439058904914232e-07,-9.43074424591129e-09,12.127170858535518,-0.0005311528749523599,0.012003463377564678,2.1241462376310412e-05,,,,,,,,,,,0.0,-0.21163285962820094,1.0,-0.19188202447297523,0.26748830463797346,-0.9024437980752336,55.99233435604535,0.010124755545444907,-0.12777991874074862,12.13623363619221,-0.016762072430987374,0.011284211253892007,0.11524316203283644,,,,,,,,,,,,,,,,,auto,85.0,True,0,False,-10,15.0,0.0,-10.0,67.62284746609497,0.11700122602404953
1760872810.8026118,5.599732160568237,-3.478193483000362e-07,-6.3624552882584174e-09,57.532241924232274,-2.1905504455110078e-07,-1.0042505887549975e-08,12.127698726402144,-0.0005485426500794041,0.01247152896108491,2.193674338860216e-05,,,,,,,,,,,0.0,-0.45783040338182845,1.0,0.0093840904567808,0.1818853403897581,-1.604459674823898,57.375268402581284,0.04212652106630685,-0.10904518598980271,12.1241054440903,-0.01831100379843198,0.008357490897223485,0.007024387306405852,,,,,,,,,,,,,,,,,auto,85.0,True,0,False,-10,15.0,0.0,-10.0,69.00418541822923,0.021318595902023178
1760872810.9131467,5.710267066955566,-3.72397739296692e-07,-7.486362838426793e-09,58.86068081365745,-2.2918873072010048e-07,-1.0457101551706729e-08,12.128157817797975,-0.0005732972771044753,0.012966034404186635,2.2926591006608758e-05,,,,,,,,,,,0.0,-0.4433256809294076,1.0,-0.1486903122409784,0.18681370288335164,-1.6173799264544009,58.51234719899698,0.050091796911636725,-0.1265999181719516,12.124114964340876,-0.014979362179226463,0.005661605276753079,0.10029967741589317,,,,,,,,,,,,,,,,,auto,85.0,True,0,False,-10,15.0,0.0,-10.0,70.11410788718267,0.10156997762793114
1760872811.022571,5.81969141960144,-3.9829367538797745e-07,-8.665599877934598e-09,60.18774596186715,-2.4350622138679727e-07,-1.1073070134016114e-08,12.128541725942995,-0.0006043123755913976,0.013470334417680772,2.416683585401899e-05,,,,,,,,,,,0.0,-0.42734673135607737,1.0,-0.047255231189171756,0.19282650499682383,-1.6320926753510028,59.949523796991116,0.06089009242864588,-0.14222193705543643,12.124299690253727,-0.013049255445484853,0.0037116698242507518,0.035597335197638,,,,,,,,,,,,,,,,,auto,85.0,True,0,False,-10,15.0,0.0,-10.0,71.5181934394171,0.03809501061476118
1760872811.1330855,5.930205821990967,-4.2536419278317974e-07,-9.896142507787162e-09,61.51111060491651,-2.5262056257716864e-07,-1.148437985724349e-08,12.128862910827197,-0.0006407471851302634,0.013983213652769423,2.5623842390938795e-05,,,,,,,,,,,0.0,-0.18871767475447576,1.0,-0.07965060029809959,-0.09985607380551406,-1.088249239665573,61.393958535396656,0.021595958174249516,-0.10474750507449304,12.088711862503457,-0.015394591140429625,0.0026883961585015825,0.05122949003038095,,,,,,,,,,,,,,,,,auto,85.0,True,0,False,-10,15.0,0.0,-10.0,72.98141719103027,0.053560074300349335
1760872811.2370439,6.034164190292358,-4.5246863358414276e-07,-1.1129506308901273e-08,62.78872135537501,-2.624929010721319e-07,-1.1961203554142635e-08,12.129123547032663,-0.0006789730492991473,0.014487140515597156,2.715247465354013e-05,,,,,,,,,,,0.0,-0.24096972714000559,1.0,0.221784770520218,-0.09687790591712432,-1.1000897748643008,62.67845498253561,0.03437814612397917,-0.12071181121634865,12.089531823326721,-0.014161748234527316,0.004565857062222456,-0.09807610083405555,,,,,,,,,,,,,,,,,auto,85.0,True,0,False,-10,15.0,0.0,-10.0,74.23802084287664,0.09919840582682071
1760872811.341992,6.139112234115601,-4.80590830221315e-07,-1.2413908871987502e-08,64.06196171647676,-2.729285580564877e-07,-1.2498086709877521e-08,12.129342646681307,-0.0007209278143146605,0.014998273813301417,2.8830231767632162e-05,,,,,,,,,,,0.0,0.010290935370653273,1.0,0.22055824971551097,-0.5892089837302276,-0.4139318450334564,63.80357447631028,0.051913121581223715,-0.12941913643802708,12.118831978773256,-0.010971909667619961,0.005263601631428028,-0.10342920234655303,,,,,,,,,,,,,,,,,auto,85.0,True,0,False,-10,15.0,0.0,-10.0,75.43316499916351,0.10414263393026411
1760872811.460854,6.25797438621521,-5.136501390156091e-07,-1.3933644817578723e-08,65.50379251974651,-2.8332480542608186e-07,-1.3079889968755112e-08,12.129549852328967,-0.0007700402626823103,0.01558744705635435,3.079419628105315e-05,,,,,,,,,,,0.0,0.21509715648833216,1.0,0.2503405185318651,0.495255418121365,0.14926713561752974,65.632498653889,0.004095315625841658,-0.11486498469393003,12.094120134163427,-0.013446985272910439,0.003406779533451143,-0.13991458473830062,,,,,,,,,,,,,,,,,auto,85.0,True,0,False,-10,15.0,0.0,-10.0,77.01093914953793,0.14060056394698606
1760872811.5613875,6.358507871627808,-5.42927548940583e-07,-1.529176356174974e-08,66.72923257421495,-2.972201449659541e-07,-1.3858194026628694e-08,12.129696918427994,-0.0008099160977943397,0.016097160400585963,3.2388739799815946e-05,,,,,,,,,,,0.0,0.3101995032556414,1.0,0.010967846396003993,0.43376463613342053,0.5315200990160425,66.63343881251647,-0.012788338867189079,-0.08432135415858238,12.040132765903879,-0.01849269568357892,0.00648195730397072,-0.007552319297236293,,,,,,,,,,,,,,,,,auto,85.0,True,0,False,-10,15.0,0.0,-10.0,78.00731805749331,0.021000787863872286
1760872811.6792588,6.476379156112671,-5.785499851623025e-07,-1.6961949693948372e-08,68.15296607875236,-3.095818550875666e-07,-1.4593667181600922e-08,12.129840402076209,-0.0008498996700439341,0.0167002536469519,3.398747545657097e-05,,,,,,,,,,,0.0,0.36972227974924715,1.0,0.16073777123184266,0.41367398197542055,0.8202274607064463,67.85931963305426,-0.02973399837748595,-0.11542770884162253,12.035088224568018,-0.019456971169439896,0.011307270767163757,-0.08889982072303425,,,,,,,,,,,,,,,,,auto,85.0,True,0,False,-10,15.0,0.0,-10.0,79.21809978479354,0.09170390517245164
1760872811.7810328,6.578153133392334,-6.108541299826933e-07,-1.8492198697522028e-08,69.39332993003786,-3.2199844562733454e-07,-1.5323175137784865e-08,12.129944947664349,-0.0008799238930664353,0.017234841241866593,3.5187885734834246e-05,,,,,,,,,,,0.0,0.20143702137780475,1.0,-0.08370660379060246,0.5174715441142314,0.5444139140984438,69.14627130914913,-0.007964973036264561,-0.108130168402185,12.110445700682629,-0.01772106842030885,0.009048659428162242,0.04256728346692405,,,,,,,,,,,,,,,,,auto,85.0,True,0,False,-10,15.0,0.0,-10.0,80.4622413255239,0.04698817005542568
1760872811.8817613,6.678881645202637,-6.4369996033232e-07,-2.006173556608502e-08,70.60865002317826,-3.3480144726456255e-07,-1.606390979573881e-08,12.13003188196932,-0.0009051782870720128,0.017766970605512564,3.6197490852482445e-05,,,,,,,,,,,0.0,0.2410380451246374,1.0,0.03239500559733663,0.19507131859570606,0.7389557023535146,70.53085110578218,-0.0040015526926935946,-0.05547673267974816,12.117603022609817,-0.00840210478184611,0.005489277510326573,-0.011867851042950878,,,,,,,,,,,,,,,,,auto,85.0,True,0,False,-10,15.0,0.0,-10.0,81.88375875967814,0.015542632361610067
1760872811.9910452,6.78816556930542,-6.810517738457528e-07,-2.1860191623850582e-08,71.94058246098346,-3.457181333803057e-07,-1.6699411537281527e-08,12.130112471119231,-0.0009293025352744599,0.018359591782405645,3.7161812514773486e-05,,,,,,,,,,,0.0,-0.3143569628848345,1.0,-0.019136748323232065,-0.06539333069797477,-0.5952395100264645,71.77083582126276,-0.013672364802884019,-0.01238724212486988,12.128158647936358,-0.009243040734961294,0.005306360305134206,0.004273264409343561,,,,,,,,,,,,,,,,,auto,85.0,True,0,False,-10,15.0,0.0,-10.0,83.14920310616841,0.011482684809234301
1760872812.1006825,6.897802829742432,-7.196334255455308e-07,-2.3729060139097427e-08,73.27087452912862,-3.576076338534932e-07,-1.736639732236368e-08,12.130179840053996,-0.0009563552917049259,0.018960959372378353,3.8243251196389535e-05,,,,,,,,,,,0.0,-0.04816019500406162,1.0,0.11492059635568255,0.8221281113992254,-0.1806367424141936,73.1652001265124,-0.001428433084570939,-0.02805681967545421,12.16163692008218,-0.006489373961649836,0.00264672153576484,-0.06758839129814531,,,,,,,,,,,,,,,,,auto,85.0,True,0,False,-10,15.0,0.0,-10.0,84.36524872840205,0.06795077444424916
1760872812.2096255,7.0067458152771,-7.58996483989014e-07,-2.564478335997097e-08,74.58740131888531,-3.680018783303153e-07,-1.794635452750786e-08,12.130235808720377,-0.0009843962463433578,0.01956520780915359,3.9364197965257385e-05,,,,,,,,,,,0.0,0.06153769188144968,1.0,-0.02955156083277856,0.23396244797527369,0.11517892720518041,74.46388513980999,0.02869783485403321,-0.0205577411849725,12.153947933841696,-0.002452145990390786,0.004551691918389444,0.017661128298549975,,,,,,,,,,,,,,,,,auto,85.0,True,0,False,-10,15.0,0.0,-10.0,85.74495334469599,0.018402346917063706
1760872812.3171983,7.114318609237671,-7.99387141241041e-07,-2.761810957188933e-08,75.89725006769218,-3.804203004289818e-07,-1.8617515299937734e-08,12.130282467730938,-0.0010128342849460802,0.020175410368612947,4.050100463512716e-05,,,,,,,,,,,0.0,-0.13913220349697608,1.0,0.09375824911026147,0.009066705417053997,-0.3455206417319143,75.68659658613936,0.04864895049064241,-0.04620519124550243,12.145718105380109,0.002513329108702944,0.008174579166031481,-0.057928497833388874,,,,,,,,,,,,,,,,,auto,85.0,True,0,False,-10,15.0,0.0,-10.0,86.98873662763638,0.05855639528679433
1760872812.42469,7.221810340881348,-8.41089566928029e-07,-2.9662080475960138e-08,77.20728275164856,-3.925319830897665e-07,-1.9267645168055268e-08,12.130321682627642,-0.0010440981119591985,0.020794790497863935,4.175081320571419e-05,,,,,,,,,,,0.0,-0.2533279420898613,1.0,0.082332934362277,0.27339752373326176,-0.6854494828075045,77.10291332774715,0.041014533447472565,-0.025666237507010543,12.159182494056054,0.0008595362987051658,0.006649289995803276,-0.04249433697805334,,,,,,,,,,,,,,,,,auto,85.0,True,0,False,-10,15.0,0.0,-10.0,88.3417238436544,0.04302000157254103
1760872812.5325356,7.329655885696411,-8.839732989864359e-07,-3.177009579279576e-08,78.50934000663581,-4.062453650651489e-07,-1.9997763710401674e-08,12.130354368750405,-0.00107843498334295,0.02141960224131055,4.312351569734137e-05,,,,,,,,,,,0.0,-0.20851971445513215,1.0,0.08786549769502111,0.2787342944140486,-0.6881795477353442,78.4713545653907,0.06023156908791206,-0.02407935291737501,12.159574144998444,-0.0003777905482542643,7.127781099258712e-05,-0.03428998163437165,,,,,,,,,,,,,,,,,auto,85.0,True,0,False,-10,15.0,0.0,-10.0,89.69041104655201,0.034292136805836926
1760872812.6393042,7.436424493789673,-9.280150984168199e-07,-3.394118149289344e-08,79.804485455246,-4.188788555441976e-07,-2.06791131154224e-08,12.13038176639676,-0.0011155558217982957,0.02205009685807434,4.460754517430516e-05,,,,,,,,,,,0.0,-0.1824522874291225,1.0,0.10951559621526916,0.2860556373910576,-0.6907841343559109,79.66725441687267,0.076603800262021,-0.02469799743760995,12.15793548753592,-0.003566496624653137,0.00975156687651113,-0.04685672610339532,,,,,,,,,,,,,,,,,auto,85.0,True,0,False,-10,15.0,0.0,-10.0,90.86910286828191,0.0479933926269996
1760872812.7465646,7.543684959411621,-9.73851780611167e-07,-3.620764602513132e-08,81.11173997929467,-4.317786320028093e-07,-2.1385195595183475e-08,12.130405023170928,-0.0011561897460092537,0.022695497845602063,4.6232050668095174e-05,,,,,,,,,,,0.0,-0.1892576395203202,1.0,0.08730481230733982,0.2950374976536477,-0.6936061352373766,81.07290362208744,0.09136505192607987,-0.02724477320488136,12.156969471762807,-0.0021974652593685917,0.0072953855216795205,-0.036243988601982774,,,,,,,,,,,,,,,,,auto,85.0,True,0,False,-10,15.0,0.0,-10.0,92.25503122228228,0.03703617438743803
1760872812.8557057,7.6528260707855225,-1.021371801324321e-06,-3.8565748275129975e-08,82.42348247457629,-4.4849691734758274e-07,-2.230185352621257e-08,12.13042447569324,-0.0011983179835117462,0.023352371075747627,4.791628210827101e-05,,,,,,,,,,,0.0,0.3467834284087522,1.0,-0.09574923681606855,-0.6953398070335471,0.7022575930523276,82.68302891798793,0.06324300193905068,-0.03703480202379794,12.132902346362265,-0.004172526078398242,0.004542659234764379,0.04773094917753583,,,,,,,,,,,,,,,,,auto,85.0,True,0,False,-10,15.0,0.0,-10.0,94.00521638078303,0.048127842629673435
1760872812.9625459,7.759666204452515,-1.0704592036874872e-06,-4.101140421513704e-08,83.73168405419561,-4.6189595565875533e-07,-2.3057289223316546e-08,12.130440905379073,-0.0012378632041355122,0.024016965413462682,4.9497152685225056e-05,,,,,,,,,,,0.0,-0.15340771652849206,1.0,0.09556422690315229,-1.1285932368363716,-0.3646450755507997,83.8832097170441,0.09800205494614836,-0.05536642894178055,12.17578613225441,0.0005640913745534881,0.0027102469133843954,-0.0495545694326016,,,,,,,,,,,,,,,,,auto,85.0,True,0,False,-10,15.0,0.0,-10.0,95.25923342440316,0.04963183443175245
1760872813.0697715,7.866891860961914,-1.1203493692140437e-06,-4.350690819530992e-08,85.02097853829545,-4.763013278609053e-07,-2.3872053462307572e-08,12.13045448823733,-0.0012794814567231982,0.024680955932708123,5.116091531181701e-05,,,,,,,,,,,0.0,0.19797597330521696,1.0,0.24446435178389767,-0.903047571114792,0.4248656197193721,84.82340849434962,0.05982605843047456,-0.06698019573435299,12.211844460270491,0.003324209359703456,0.0021223843380160368,-0.12888135716273105,,,,,,,,,,,,,,,,,auto,85.0,True,0,False,-10,15.0,0.0,-10.0,96.14866734037584,0.128941688787036
1760872813.1778069,7.974927186965942,-1.1725931071301395e-06,-4.613093213520126e-08,86.33071880570054,-4.918706902969651e-07,-2.475755867447433e-08,12.130466064756481,-0.001320045748381123,0.02536462273264122,5.278245896473943e-05,,,,,,,,,,,0.0,0.3101434707078416,1.0,0.07682580402538716,-0.36149057598453377,0.8400784768503153,86.27427994545928,0.05827196932679089,-0.060425452040760955,12.217533979944083,0.002494906347223047,0.003152344535542806,-0.039182422052508735,,,,,,,,,,,,,,,,,auto,85.0,True,0,False,-10,15.0,0.0,-10.0,97.49573377117581,0.03938812043818673
1760872813.2831285,8.080248832702637,-1.2258108614147697e-06,-4.881510094560398e-08,87.62049872887134,-5.100842601680792e-07,-2.577885886223393e-08,12.130475550669246,-0.0013551847912265423,0.02604718866860955,5.418696720866786e-05,,,,,,,,,,,0.0,0.3558369534333365,1.0,-0.14382447187897757,-0.9654811053903393,1.1298217515054512,87.4463963455723,0.05820604318531953,-0.06699023207872805,12.203160128387168,0.006704456133663772,0.005780543633786106,0.0756267998680884,,,,,,,,,,,,,,,,,auto,85.0,True,0,False,-10,15.0,0.0,-10.0,98.75207969888591,0.07614313675596916
1760872813.391035,8.18815541267395,-1.282251852421069e-06,-5.1673041614005295e-08,88.92945729376734,-5.359639240612767e-07,-2.718409990874965e-08,12.130483381858287,-0.0013834618094555255,0.026750277300715643,5.5316943134150344e-05,,,,,,,,,,,0.0,0.4321734775279225,1.0,-0.07244795418697156,-0.8342406886464463,1.5277655175738716,88.97438496138204,0.09951303904827728,-0.05712855256784333,12.193598490373942,0.010012180082017874,0.007469874706212742,0.04781040986276854,,,,,,,,,,,,,,,,,auto,85.0,True,0,False,-10,15.0,0.0,-10.0,100.24463139812786,0.04941536268578009
1760872813.4992366,8.296356916427612,-1.3409046836336644e-06,-5.46508947603871e-08,90.23588024843713,-5.530963541514983e-07,-2.8101609689707076e-08,12.13049024336162,-0.0014048763053307513,0.027462301084123782,5.6172392730362835e-05,,,,,,,,,,,0.0,-0.05751641499797312,1.0,0.30241639279351273,-0.5327591980088994,0.42900280453505557,90.00994164132092,0.05314270647812598,-0.00948702397006001,12.142645908740274,0.014276125410086937,0.005874760395363943,-0.14412428969922314,,,,,,,,,,,,,,,,,auto,85.0,True,0,False,-10,15.0,0.0,-10.0,101.20987638965894,0.14494872006241746
1760872813.6075227,8.404643058776855,-1.4013226004712236e-06,-5.772130107532734e-08,91.54337686857191,-5.683015066866855e-07,-2.8880644568910236e-08,12.130496085820296,-0.0014242938283290155,0.028184343283137188,5.6947939032535244e-05,,,,,,,,,,,0.0,0.2104044741553909,1.0,-0.15686535880520358,0.2952049356645039,1.0020868675918848,91.35709580344887,0.020834466127354852,-0.001129044653029006,12.101320500284777,0.01775917535591276,0.008308986153042763,0.08019088374958888,,,,,,,,,,,,,,,,,auto,85.0,True,0,False,-10,15.0,0.0,-10.0,102.42312261244439,0.08255304595684884
1760872813.7151651,8.512285470962524,-1.4639878242143677e-06,-6.090426267908389e-08,92.86131467752989,-5.839356260150239e-07,-2.9637456799753453e-08,12.130501032079454,-0.0014394192506366355,0.028921696395227642,5.755177197633788e-05,,,,,,,,,,,0.0,0.21845227824041563,1.0,-0.02040530243577025,0.29857008174213123,1.0030461967702076,92.57588228533326,0.04051829618360542,0.01850978474517094,12.10022594134852,0.01661096104308113,0.01011945479109233,0.014451860668103077,,,,,,,,,,,,,,,,,auto,85.0,True,0,False,-10,15.0,0.0,-10.0,103.62890412394049,0.02423187299434332
1760872813.8235297,8.620650053024292,-1.5276372394493373e-06,-6.413054380237941e-08,94.16362386532536,-6.033612608915315e-07,-3.053492202106904e-08,12.130505014004925,-0.0014553233950678345,0.029659651791722908,5.818674856697538e-05,,,,,,,,,,,0.0,-0.6934956538477741,1.0,-0.11930752328769481,0.4887743848862789,-1.3471957750455719,93.6821409578093,0.0268685538395601,0.00600380711082114,12.120319064297219,0.017288452083441985,0.013239385701483197,0.05998909750088571,,,,,,,,,,,,,,,,,auto,85.0,True,0,False,-10,15.0,0.0,-10.0,104.70137037739319,0.06381899190809016
1760872813.9300036,8.727123975753784,-1.5944475782798664e-06,-6.750320287293267e-08,95.45520066671948,-6.429144540821323e-07,-3.238706795405129e-08,12.130507701455514,-0.0014805103778394472,0.03040325988094563,5.919301372899931e-05,,,,,,,,,,,0.0,-0.5666484143184642,1.0,0.028538486086282774,0.49249002509215145,-1.3456805925867612,95.15912307654807,0.04169970508562318,0.02270220328984618,12.119523460931811,0.014187688322836678,0.01371184973413575,-0.012607925339458856,,,,,,,,,,,,,,,,,auto,85.0,True,0,False,-10,15.0,0.0,-10.0,106.16364664120154,0.02341506148706092
1760872814.0376596,8.834779977798462,-1.6644496505044733e-06,-7.102336316048357e-08,96.76113147293368,-6.575262905570749e-07,-3.300717494869374e-08,12.130510735939964,-0.0015129266708741437,0.031165531047046533,6.048840235305864e-05,,,,,,,,,,,0.0,-0.25179915634264627,1.0,0.1116289213900501,0.44296390608517844,-0.675409297347706,96.50941714825059,0.09341249528994516,0.04108946323689165,12.145701208251635,0.017959912857699933,0.017151079069138486,-0.05223064493092999,,,,,,,,,,,,,,,,,auto,85.0,True,0,False,-10,15.0,0.0,-10.0,107.50171821333154,0.057833884989622636
1760872814.154657,8.951777219772339,-1.7422760633530223e-06,-7.492307552128169e-08,98.18041710699718,-6.7160835009486e-07,-3.359582577235593e-08,12.130513558595355,-0.001552389785501636,0.0320044802330736,6.206550609040143e-05,,,,,,,,,,,0.0,0.04068942648032457,1.0,0.09417659407521241,-0.05517599411200293,-0.00847355267033012,97.5951559819881,0.04225731653678399,-0.03383838856907857,12.195253931542766,0.01572342881135702,0.012725524058210702,-0.051496137860409685,,,,,,,,,,,,,,,,,auto,85.0,True,0,False,-10,15.0,0.0,-10.0,108.64334303952144,0.055326461938933265
1760872814.2630224,9.060142755508423,-1.815673453866788e-06,-7.858920946977066e-08,99.49491501884634,-6.836895668759424e-07,-3.4099867919924707e-08,12.130515781831821,-0.001589033327095228,0.03279080726554079,6.352988387333209e-05,,,,,,,,,,,0.0,-0.2652154355237206,1.0,-0.0502262946312948,-0.4503403553061446,-0.5927273811538515,99.5381525701816,0.06110530824482113,0.008109428597843658,12.186960329160343,0.012827507157077811,0.011760241574432229,0.034682211301142775,,,,,,,,,,,,,,,,,auto,85.0,True,0,False,-10,15.0,0.0,-10.0,110.62400829535852,0.03880340194481667
1760872814.3634408,9.160561084747314,-1.8850189108817994e-06,-8.20432913887346e-08,100.71302388028033,-6.970941342469715e-07,-3.467803650630046e-08,12.130517475528066,-0.001624341907847803,0.03352762767375029,6.494092145318078e-05,,,,,,,,,,,0.0,0.08007597684501765,1.0,0.0749896570266443,0.04882050939156342,0.11497683666037274,100.5121710738121,0.07790646741016537,-0.005494856600858213,12.18272188651861,0.006702021455835538,0.014218459959626895,-0.03323217804091302,,,,,,,,,,,,,,,,,auto,85.0,True,0,False,-10,15.0,0.0,-10.0,111.51901606130171,0.03676220005060816
1760872814.4692812,9.266401529312134,-1.9604130228341923e-06,-8.578898837710666e-08,102.0091281566735,-7.149808154151443e-07,-3.547694357327894e-08,12.130518910208245,-0.0016648333434599964,0.03432041243686552,6.655914208247758e-05,,,,,,,,,,,0.0,-0.240653183667378,1.0,0.0630382650970265,0.10394637291639217,-0.6937225312452269,101.77061332289982,0.09201435846043998,0.04302487158729436,12.168717016231202,0.006310919533123016,0.007537087933023656,-0.03400772208820737,,,,,,,,,,,,,,,,,auto,85.0,True,0,False,-10,15.0,0.0,-10.0,112.76100242188565,0.035400007930683174
1760872814.5798805,9.37700080871582,-2.039813043446987e-06,-8.972441663856214e-08,103.33780097476296,-7.338030929743892e-07,-3.633604895869016e-08,12.130520141616756,-0.0017117970620330804,0.035142915180817615,6.84361607879311e-05,,,,,,,,,,,0.0,-0.18625913166591837,1.0,0.13756629307107432,0.3767218314390449,-0.6313995554001003,103.18614693780079,0.12130814179053498,0.039495727369026686,12.117229484384008,0.002761416282277107,0.004978503562155012,-0.07540924703223419,,,,,,,,,,,,,,,,,auto,85.0,True,0,False,-10,15.0,0.0,-10.0,114.12862387858316,0.07562384184614622
1760872814.6986976,9.49581789970398,-2.1279150759052103e-06,-9.408389312402418e-08,104.77994132074805,-7.492063564780392e-07,-3.70508312735845e-08,12.13052139504029,-0.00176643073824875,0.03604629976950124,7.061977391350897e-05,,,,,,,,,,,0.0,-0.15814964192828065,1.0,0.05532761444885499,0.6029918656245773,-0.5594841711621098,104.38079239521109,0.10655091573098784,0.08278204355348609,12.107215753937092,0.003486754163325667,0.010155740807716196,-0.02384566002943311,,,,,,,,,,,,,,,,,auto,85.0,True,0,False,-10,15.0,0.0,-10.0,115.28465871361823,0.026151711764018138
1760872814.7987318,9.595852136611938,-2.2039084370312024e-06,-9.784103537852745e-08,105.99932324725083,-7.627744928741451e-07,-3.770598803024376e-08,12.130522282897225,-0.0018150081824826532,0.036818659703913334,7.256134209257992e-05,,,,,,,,,,,0.0,-0.19042624922370485,1.0,-0.13528642182990622,0.6149607452719817,-0.5507117020808725,105.73260276702909,0.13220663196268229,0.09268917512607865,12.108040821563177,0.010895650133405432,0.010956886519239095,0.07481247903487145,,,,,,,,,,,,,,,,,auto,85.0,True,0,False,-10,15.0,0.0,-10.0,116.62447419375499,0.07639159360406185
1760872814.90205,9.699170351028442,-2.2830582444446575e-06,-1.0175380163645323e-07,107.24422840637435,-7.796905717307865e-07,-3.8549259830348525e-08,12.130522985743355,-0.0018643052127096241,0.0376153348060376,7.453159928047448e-05,,,,,,,,,,,0.0,0.2490038944735601,1.0,-0.046368356002864694,-0.0569014759058204,0.5877002570641843,107.09037942693823,0.023658951463508843,0.02566556475185834,12.124278661224682,0.009896468776808387,0.012032859825328313,0.024415668610434954,,,,,,,,,,,,,,,,,auto,85.0,True,0,False,-10,15.0,0.0,-10.0,118.05597243677106,0.028962988166294616
1760872815.011082,9.808202266693115,-2.36962041678358e-06,-1.0603494458639063e-07,108.56917654931299,-8.029590883278785e-07,-3.972554631119322e-08,12.130523494516538,-0.0019118710834853203,0.038472832624415254,7.643243919892091e-05,,,,,,,,,,,0.0,0.16083860097712688,1.0,0.16776909022903633,-0.05297118505142257,0.5913153800992335,108.43735162889506,0.049558507356033905,0.041784992637353906,12.125117107146616,0.01431011009972849,0.012842341966477377,-0.06171132091697423,,,,,,,,,,,,,,,,,auto,85.0,True,0,False,-10,15.0,0.0,-10.0,119.39157364003233,0.06463738954790856
1760872815.1201048,9.917225122451782,-2.458135393953997e-06,-1.1041566433455802e-07,109.8917907952562,-8.232256620839245e-07,-4.0757161809873414e-08,12.130523990587955,-0.001955423755430078,0.039338403413430145,7.817269184446573e-05,,,,,,,,,,,0.0,0.322541302492323,1.0,-0.04971179743343083,0.25899815170804336,1.0936598857899649,109.79334154419847,0.008284376629625542,0.02058674850503174,12.129098776926531,0.0158471838008154,0.01541928952004934,0.0277329531119389,,,,,,,,,,,,,,,,,auto,85.0,True,0,False,-10,15.0,0.0,-10.0,120.70185543628615,0.035468357898681066
1760872815.2309003,10.02802062034607,-2.551042505667504e-06,-1.15016761003305e-07,111.24171558478365,-8.462542959253508e-07,-4.191895220110014e-08,12.13052436665415,-0.001993960960544151,0.04023206951584616,7.971222907658874e-05,,,,,,,,,,,0.0,0.35151931222412797,1.0,0.15483682335888904,0.3630410067698286,1.2890428603360344,111.15384395903205,-0.01802495398017562,0.07181111897831255,12.132951895195799,0.017142607310546065,0.013545282013842641,-0.07660705203951995,,,,,,,,,,,,,,,,,auto,85.0,True,0,False,-10,15.0,0.0,-10.0,122.04161628770233,0.07966168509656217
1760872815.3383582,10.135478496551514,-2.642761120093235e-06,-1.1956021021224747e-07,112.5393736145242,-8.662041033640644e-07,-4.290651981209526e-08,12.130524725785142,-0.002025617390269381,0.04110083351579525,8.097656259360811e-05,,,,,,,,,,,0.0,0.07117503112604114,1.0,-0.037186828394403446,0.33866209337915587,0.6660019260758143,112.72848307686048,0.018988300299770368,0.06026805158505459,12.149900170027372,0.015184510983902388,0.015023913862187488,0.026794736507787728,,,,,,,,,,,,,,,,,auto,85.0,True,0,False,-10,15.0,0.0,-10.0,123.60290832389376,0.03426726230792962
1760872815.4463644,10.243484735488892,-2.737524867985267e-06,-1.2425297281056762e-07,113.85552404968166,-8.817088881002131e-07,-4.364636796157937e-08,12.130525144936732,-0.0020558846877343673,0.04199103520415674,8.218526004950531e-05,,,,,,,,,,,0.0,0.1182779438983227,1.0,0.217096537435177,0.34226200077274177,0.6734507414804721,113.68088281611521,0.04615969423929297,0.0778674529730406,12.150063891158808,0.013413979172555823,0.01685850861510163,-0.10605112842186157,,,,,,,,,,,,,,,,,auto,85.0,True,0,False,-10,15.0,0.0,-10.0,124.54823801776087,0.10821730910310694
1760872815.5552616,10.352381944656372,-2.8345190148199663e-06,-1.290515059787984e-07,115.17652175402155,-8.994369620660527e-07,-4.4466076619336595e-08,12.13052546354074,-0.0020839390936714733,0.04289373562245193,8.330539234961714e-05,,,,,,,,,,,0.0,0.13601940115336342,1.0,-0.014498191723447938,0.3486521996860217,0.6829202497924624,114.93802457790541,0.06980476325083822,0.09570691589637252,12.150648998518895,0.012563347217407372,0.017065214720874966,0.01024036171820139,,,,,,,,,,,,,,,,,auto,85.0,True,0,False,-10,15.0,0.0,-10.0,125.79601884742871,0.023535595486290757
1760872815.655642,10.452762365341187,-2.925636859170504e-06,-1.3355225626649134e-07,116.39417744749646,-9.166258858826391e-07,-4.523218295969254e-08,12.130525701428724,-0.0021072504141330197,0.04373399839277702,8.423592713481327e-05,,,,,,,,,,,0.0,-0.17458208463462585,1.0,0.11125351587000026,0.9613834353694604,-0.00841558884272097,116.1259739804127,0.10626837357389757,0.05692913447099619,12.152494092528647,0.016507774363801353,0.023200233749119725,-0.05897774263049009,,,,,,,,,,,,,,,,,auto,85.0,True,0,False,-10,15.0,0.0,-10.0,126.90486254820418,0.06549146193396739
1760872815.7728126,10.56993293762207,-3.0337894530416815e-06,-1.388818414678471e-07,117.80949376632213,-9.382514667492097e-07,-4.6166506296155846e-08,12.130525907595393,-0.0021370776342928516,0.0447206308569791,8.542674563855106e-05,,,,,,,,,,,0.0,-0.1557559422109528,1.0,0.11933404875229141,0.14798134940863739,-0.059616715145692716,117.70862797264921,0.09302282467392047,0.03920632717298844,12.147134084049139,0.022819655180631226,0.022811289549002467,-0.07242089768611042,,,,,,,,,,,,,,,,,auto,85.0,True,0,False,-10,15.0,0.0,-10.0,128.56935743328097,0.07928352928013113
1760872815.8740625,10.671182870864868,-3.1305480948871693e-06,-1.4363623834247272e-07,119.04986149999111,-9.539076307590875e-07,-4.680574147245813e-08,12.130526136702658,-0.0021664308666748096,0.04559408213358336,8.659884378779723e-05,,,,,,,,,,,0.0,-0.12565391802964215,1.0,-0.22776404495414113,0.15862945502861836,-0.054333327891785695,118.82182728008657,0.11515069473361751,0.06636295728506006,12.1488398231961,0.025180952187788375,0.01864593703601214,0.11373023213542444,,,,,,,,,,,,,,,,,auto,85.0,True,0,False,-10,15.0,0.0,-10.0,129.6739465565235,0.11796744051903534
1760872815.9753854,10.772505760192871,-3.227088619485946e-06,-1.483661428621319e-07,120.26682314260604,-9.715598306204937e-07,-4.752704805174181e-08,12.130526289257626,-0.0021964239734471916,0.046458825064756876,8.779653458319794e-05,,,,,,,,,,,0.0,-0.11032706675462711,1.0,0.13386440606376826,0.17146730466440835,-0.04643469904106475,120.18205279766737,0.14028672579479573,0.09071165636363658,12.148553585045654,0.025664057884005942,0.022010451143978038,-0.0638811564899075,,,,,,,,,,,,,,,,,auto,85.0,True,0,False,-10,15.0,0.0,-10.0,131.02386961425222,0.07227659359103127
1760872816.079253,10.876373291015625,-3.329821243080611e-06,-1.5338354339589486e-07,121.53892928952874,-9.877266768072053e-07,-4.816184793115288e-08,12.130526479540963,-0.0022299233365546487,0.04737104126947748,8.91343372065872e-05,,,,,,,,,,,0.0,-0.07980510223682737,1.0,-0.16587330330885117,0.18759442745848395,-0.03550414180868416,121.56452974740372,0.1657155025105514,0.11828690686867793,12.146651687726077,0.022171505470228503,0.025472557462687728,0.09248633150532552,,,,,,,,,,,,,,,,,auto,85.0,True,0,False,-10,15.0,0.0,-10.0,132.39574807011374,0.09845886630374773
1760872816.1939328,10.991053104400635,-3.4432066154262383e-06,-1.5890215149286568e-07,122.9179203794891,-1.007268382410118e-06,-4.8935159922108014e-08,12.130526624401854,-0.002266654343350887,0.0483693620951469,9.06011674481941e-05,,,,,,,,,,,0.0,-0.06651710614119269,1.0,0.1350723290567106,0.20773298003618204,-0.020422101321727358,123.12644699274618,0.18792467955639766,0.14657146188189296,12.145204115957785,0.021003242037888725,0.027963979252538795,-0.055143819548748946,,,,,,,,,,,,,,,,,auto,85.0,True,0,False,-10,15.0,0.0,-10.0,133.94574449964657,0.0652990133628644
1760872816.2994914,11.096611738204956,-3.5515042051880275e-06,-1.6415434450437816e-07,124.21053763587352,-1.0251539773120653e-06,-4.963195444277226e-08,12.13052675589893,-0.0023016957807468724,0.049314128709869474,9.200051164799814e-05,,,,,,,,,,,0.0,0.014822302826679488,1.0,-0.05741636441566256,0.15858729690787907,0.16341863268556192,124.13431566531007,0.13038474768502997,0.04340639904676574,12.132717808310282,0.018228134446510946,0.024982568125041738,0.046946118417777724,,,,,,,,,,,,,,,,,auto,85.0,True,0,False,-10,15.0,0.0,-10.0,134.9529876500482,0.05621682692947405
1760872816.4137588,11.21087908744812,-3.6687229072716146e-06,-1.6981874797614703e-07,125.5845051031366,-1.0443820636560486e-06,-5.037390424742016e-08,12.13052687909936,-0.002338513012815287,0.05032780741078182,9.347068436418732e-05,,,,,,,,,,,0.0,0.03144728178896542,1.0,-0.043123491413271285,0.17488056832836896,0.1694578630343301,125.59036691777351,0.15770025963172998,0.06240576475280391,12.132749110173622,0.011365876012886744,0.02489438237011976,0.02818330709668726,,,,,,,,,,,,,,,,,auto,85.0,True,0,False,-10,15.0,0.0,-10.0,136.39853548710528,0.039283739766425324
