timestamp,simulation_time,position_x,position_y,position_z,velocity_x,velocity_y,velocity_z,attitude_roll,attitude_pitch,attitude_yaw,control_throttle,control_roll,control_pitch,control_yaw,estimated_position_x,estimated_position_y,estimated_position_z,flight_mode,battery_level,setpoint_altitude,setpoint_position_x,setpoint_position_y,setpoint_position_z,position_error,attitude_error
1761054452.1889436,0.10081911087036133,0.0,0.0,-0.0,0.0,0.0,-0.0,0.0,0.0,0.0,0.0,0.0,0.0,0.0,6.670046177284396e-05,1.6597669100181894e-05,-0.0663528993541386,manual,85.0,0.0,0.0,0.0,0.0,0.06635293495494127,0.018880479413356573
1761054452.311014,0.22288942337036133,0.0,0.0,-0.0,0.0,0.0,-0.0,0.0,0.0,0.0,0.0,0.0,0.0,0.0,-0.009890490175938564,0.01018715357706519,-0.17059172485013932,manual,85.0,0.0,0.0,0.0,0.0,0.1711815892006751,0.05448735987230206
1761054452.419946,0.3318214416503906,0.0,0.0,-0.0,0.0,0.0,-0.0,0.0,0.0,0.0,0.0,0.0,0.0,0.0,-0.11059725438968734,-0.10363967659644427,-0.2787904408274809,manual,85.0,0.0,0.0,0.0,0.0,0.31732797724173945,0.017873263102310938
1761054452.5215788,0.4334542751312256,0.0,0.0,-0.0,0.0,0.0,-0.0,0.0,0.0,0.0,0.0,0.0,0.0,0.0,-0.049630238756467736,-0.05136597215762326,-0.2797640693388268,manual,85.0,0.0,0.0,0.0,0.0,0.28873787106602694,0.029758403562305077
1761054452.628543,0.5404183864593506,0.0,0.0,-0.0,0.0,0.0,-0.0,0.0,0.0,0.0,0.0,0.0,0.0,0.0,-0.050546867251234924,-0.051378290942991296,-0.6259107216073303,manual,85.0,0.0,0.0,0.0,0.0,0.6300467807965894,0.03607118082814883
1761054452.730327,0.6422023773193359,0.0,0.0,-0.0,0.0,0.0,-0.0,0.0,0.0,0.0,0.0,0.0,0.0,0.0,-0.07841975668897506,-0.11345986252395858,-0.7231715717966739,manual,85.0,0.0,0.0,0.0,0.0,0.7362064390495274,0.09538582296446042
1761054452.8344507,0.746326208114624,0.0,0.0,-0.0,0.0,0.0,-0.0,0.0,0.0,0.0,0.0,0.0,0.0,0.0,0.09434331305503152,0.2676815508923153,-0.8277351741348447,manual,85.0,0.0,0.0,0.0,0.0,0.8750426229083681,0.04796886293812159
1761054452.9453032,0.8571786880493164,0.0,0.0,-0.0,0.0,0.0,-0.0,0.0,0.0,0.0,0.0,0.0,0.0,0.0,0.0941428520464857,0.2672819436244623,-0.8016978672723816,manual,85.0,0.0,0.0,0.0,0.0,0.8503069941898642,0.06968993420560676
1761054453.0524144,0.9642899036407471,0.0,0.0,-0.0,0.0,0.0,-0.0,0.0,0.0,0.0,0.0,0.0,0.0,0.0,0.09398425378555923,0.2668590817301882,-0.8428922401179167,manual,85.0,0.0,0.0,0.0,0.0,0.8891086198617734,0.023886119950746236
1761054453.1609588,1.0728342533111572,0.0,0.0,-0.0,0.0,0.0,-0.0,0.0,0.0,0.0,0.0,0.0,0.0,0.0,0.21260002188695531,-0.440470912570746,-0.798158656250553,manual,85.0,0.0,0.0,0.0,0.0,0.9360932831053368,0.012642917802336702
1761054453.2702477,1.1821231842041016,0.0,0.0,-0.0,0.0,0.0,-0.0,0.0,0.0,0.0,0.0,0.0,0.0,0.0,0.1889463216549874,-0.3454593942477234,-0.7043345242482152,manual,85.0,0.0,0.0,0.0,0.0,0.8069262838629769,0.010633110669593996
1761054453.3729103,1.2847857475280762,0.0,0.0,-0.0,0.0,0.0,-0.0,0.0,0.0,0.0,0.0,0.0,0.0,0.0,0.6473827582437082,-0.5483742041760453,-0.7427942033928175,manual,85.0,0.0,0.0,0.0,0.0,1.12763554931144,0.09399942351605947
1761054453.4815795,1.3934550285339355,0.0,0.0,-0.0,0.0,0.0,-0.0,0.0,0.0,0.0,0.0,0.0,0.0,0.0,0.6463178937901961,-0.5522162555392363,-0.9125839194277522,manual,85.0,0.0,0.0,0.0,0.0,1.247188447153552,0.0779490188437309
1761054453.589228,1.501103401184082,0.0,0.0,-0.0,0.0,0.0,-0.0,0.0,0.0,0.0,0.0,0.0,0.0,0.0,0.5625947302104761,-0.7745708673831527,-0.9778109798343522,manual,85.0,0.0,0.0,0.0,0.0,1.3684250696855504,0.042697594391920744
1761054453.6962857,1.608161211013794,0.0,0.0,-0.0,0.0,0.0,-0.0,0.0,0.0,0.0,0.0,0.0,0.0,0.0,0.44518549229236415,-0.565926625852259,-0.9812149297600234,manual,85.0,0.0,0.0,0.0,0.0,1.217064421787148,0.025191248393276577
1761054453.806997,1.7188725471496582,0.0,0.0,-0.0,0.0,0.0,-0.0,0.0,0.0,0.0,0.0,0.0,0.0,0.0,0.46663509139518095,-0.2998865543619025,-0.960618465485685,manual,85.0,0.0,0.0,0.0,0.0,1.1092646619452526,0.024466094181800443
1761054453.9172454,1.8291208744049072,0.0,0.0,-0.0,0.0,0.0,-0.0,0.0,0.0,0.0,0.0,0.0,0.0,0.0,0.6424107765100776,-0.28878747510930963,-0.8615876945424148,manual,85.0,0.0,0.0,0.0,0.0,1.1128446283930225,0.04159287789271109
1761054454.027414,1.9392895698547363,0.0,0.0,-0.0,0.0,0.0,-0.0,0.0,0.0,0.0,0.0,0.0,0.0,0.0,0.5608081395814483,-0.26581734535997104,-0.9537937817820223,manual,85.0,0.0,0.0,0.0,0.0,1.1379311089345783,0.02215466644074892
1761054454.1369362,2.048811674118042,0.0,0.0,-0.0,0.0,0.0,-0.0,0.0,0.0,0.0,0.0,0.0,0.0,0.0,0.30613582827543395,-0.2885204483242333,-0.959346537874546,manual,85.0,0.0,0.0,0.0,0.0,1.0475251663740497,0.030368175115482166
1761054454.2474053,2.159280776977539,0.0,0.0,-0.0,0.0,0.0,-0.0,0.0,0.0,0.0,0.0,0.0,0.0,0.0,0.5218058114130957,-0.23603548645194533,-1.0814292548951991,manual,85.0,0.0,0.0,0.0,0.0,1.2237169971166828,0.018809941487239603
1761054454.3564754,2.268350839614868,0.0,0.0,-0.0,0.0,0.0,-0.0,0.0,0.0,0.0,0.0,0.0,0.0,0.0,0.46886056021870204,-0.5384424923914102,-1.0053112671362572,manual,85.0,0.0,0.0,0.0,0.0,1.233045532968015,0.04384357052498982
1761054454.4661303,2.3780057430267334,0.0,0.0,-0.0,0.0,0.0,-0.0,0.0,0.0,0.0,0.0,0.0,0.0,0.0,0.8537303354013214,-0.2489669497869743,-0.98055736659595,manual,85.0,0.0,0.0,0.0,0.0,1.3237570686709352,0.012642545988728156
1761054454.5757635,2.4876389503479004,0.0,0.0,-0.0,0.0,0.0,-0.0,0.0,0.0,0.0,0.0,0.0,0.0,0.0,0.853452883271005,-0.2505376429175645,-1.0469546362680051,manual,85.0,0.0,0.0,0.0,0.0,1.3737776184249588,0.036405053763293546
1761054454.678034,2.589909553527832,0.0,0.0,-0.0,0.0,0.0,-0.0,0.0,0.0,0.0,0.0,0.0,0.0,0.0,0.6149676006689496,-0.14843297893111035,-1.078990418566538,manual,85.0,0.0,0.0,0.0,0.0,1.2507748888050483,0.0402841210662456
1761054454.7878423,2.6997177600860596,0.0,0.0,-0.0,0.0,0.0,-0.0,0.0,0.0,0.0,0.0,0.0,0.0,0.0,0.42438060761705637,-0.4026232658250588,-0.9235999469524383,manual,85.0,0.0,0.0,0.0,0.0,1.0932708979551247,0.04989441362209235
1761054454.8969631,2.8088386058807373,0.0,0.0,-0.0,0.0,0.0,-0.0,0.0,0.0,0.0,0.0,0.0,0.0,0.0,-0.031787807197105056,-0.39603980959998747,-0.8896264631138732,manual,85.0,0.0,0.0,0.0,0.0,0.9743168064581942,0.015587467509856453
1761054455.0056198,2.9174952507019043,0.0,0.0,-0.0,0.0,0.0,-0.0,0.0,0.0,0.0,0.0,0.0,0.0,0.0,-0.03460180760524272,-0.3945723718646398,-0.8852714828517105,manual,85.0,0.0,0.0,0.0,0.0,0.9698403167939061,0.02643372907476601
1761054455.113145,3.0250205993652344,0.0,0.0,-0.0,0.0,0.0,-0.0,0.0,0.0,0.0,0.0,0.0,0.0,0.0,0.04572658360252465,-0.22264435783770653,-0.860678652707326,manual,85.0,0.0,0.0,0.0,0.0,0.8901849098648108,0.04661529895050964
1761054455.2230613,3.134936809539795,0.0,0.0,-0.0,0.0,0.0,-0.0,0.0,0.0,0.0,0.0,0.0,0.0,0.0,0.384061888101761,-0.5238081612699728,-0.9953741364570854,manual,85.0,0.0,0.0,0.0,0.0,1.1885487769683698,0.0577725231612148
1761054455.3320599,3.2439353466033936,0.0,0.0,-0.0,0.0,0.0,-0.0,0.0,0.0,0.0,0.0,0.0,0.0,0.0,0.4975820864233994,-0.23027859717190907,-0.9409274214056045,manual,85.0,0.0,0.0,0.0,0.0,1.0890181712891323,0.032348429803970694
1761054455.4404404,3.352315902709961,0.0,0.0,-0.0,0.0,0.0,-0.0,0.0,0.0,0.0,0.0,0.0,0.0,0.0,0.5648869670730123,-0.842144675379963,-0.9272366442100448,manual,85.0,0.0,0.0,0.0,0.0,1.3740715899128673,0.052226662218067106
1761054455.5474885,3.4593639373779297,0.0,0.0,-0.0,0.0,0.0,-0.0,0.0,0.0,0.0,0.0,0.0,0.0,0.0,0.7876570928290125,-0.45327469314833196,-0.8606480190876258,manual,85.0,0.0,0.0,0.0,0.0,1.251629600198086,0.036593590118162614
1761054455.6488783,3.56075382232666,0.0,0.0,-0.0,0.0,0.0,-0.0,0.0,0.0,0.0,0.0,0.0,0.0,0.0,0.9612672613960052,-0.30872838517352397,-0.8760181545488399,manual,85.0,0.0,0.0,0.0,0.0,1.3366958407741019,0.04406452847818727
1761054455.7596214,3.671496868133545,0.0,0.0,-0.0,0.0,0.0,-0.0,0.0,0.0,0.0,0.0,0.0,0.0,0.0,0.9614722141359016,-0.3123909347083551,-0.9734873295851144,manual,85.0,0.0,0.0,0.0,0.0,1.4034580490724011,0.03158221120545906
1761054455.8662083,3.7780838012695312,0.0,0.0,-0.0,0.0,0.0,-0.0,0.0,0.0,0.0,0.0,0.0,0.0,0.0,0.43474185210976063,0.0482643622466376,-1.0069717268255445,manual,85.0,0.0,0.0,0.0,0.0,1.0978715704784958,0.029730346446511253
1761054455.9745364,3.8864119052886963,0.0,0.0,-0.0,0.0,0.0,-0.0,0.0,0.0,0.0,0.0,0.0,0.0,0.0,0.8088186686462306,0.10392471759122199,-0.9663227507933003,manual,85.0,0.0,0.0,0.0,0.0,1.2644238388996814,0.03245904912602471
1761054456.0828202,3.9946956634521484,0.0,0.0,-0.0,0.0,0.0,-0.0,0.0,0.0,0.0,0.0,0.0,0.0,0.0,0.4112336749268304,0.33110177376147276,-0.9552050112416302,manual,85.0,0.0,0.0,0.0,0.0,1.0914019119842802,0.04304465796644444
1761054456.194133,4.106008529663086,0.0,0.0,-0.0,0.0,0.0,-0.0,0.0,0.0,0.0,0.0,0.0,0.0,0.0,0.6555060683368549,0.5300603656955803,-0.900364009089114,manual,85.0,0.0,0.0,0.0,0.0,1.2334129664353282,0.03560770229379315
1761054456.3031132,4.214988708496094,0.0,0.0,-0.0,0.0,0.0,-0.0,0.0,0.0,0.0,0.0,0.0,0.0,0.0,0.6570038150609703,0.5241920820254791,-0.9991677886109203,manual,85.0,0.0,0.0,0.0,0.0,1.3056675004228728,0.03601256532881498
1761054456.41111,4.322985410690308,0.0,0.0,-0.0,0.0,0.0,-0.0,0.0,0.0,0.0,0.0,0.0,0.0,0.0,0.4058848356392092,0.6406970118309655,-1.0941888191227498,manual,85.0,0.0,0.0,0.0,0.0,1.3313468115649782,0.03957928022110024
1761054456.5208178,4.432693243026733,0.0,0.0,-0.0,0.0,0.0,-0.0,0.0,0.0,0.0,0.0,0.0,0.0,0.0,0.4960771757478537,0.4463184259111578,-1.1149841138747385,manual,85.0,0.0,0.0,0.0,0.0,1.299416128805094,0.03789071641671959
1761054456.6299863,4.5418617725372314,0.0,0.0,-0.0,0.0,0.0,-0.0,0.0,0.0,0.0,0.0,0.0,0.0,0.0,0.3502977574140293,0.4402407659306858,-1.3086606349430732,manual,85.0,0.0,0.0,0.0,0.0,1.4244694128994635,0.08832745181067422
1761054456.7307572,4.642632722854614,0.0,0.0,-0.0,0.0,0.0,-0.0,0.0,0.0,0.0,0.0,0.0,0.0,0.0,0.4033192042916296,0.12961098115936107,-1.2043852463362754,manual,85.0,0.0,0.0,0.0,0.0,1.2767181398335408,0.051911548309971786
1761054456.8399522,4.751827716827393,0.0,0.0,-0.0,0.0,0.0,-0.0,0.0,0.0,0.0,0.0,0.0,0.0,0.0,0.44825681500243747,0.22990932441337872,-1.0335319772079086,manual,85.0,0.0,0.0,0.0,0.0,1.1497742463456184,0.06570690239622738
1761054456.9476166,4.859492063522339,0.0,0.0,-0.0,0.0,0.0,-0.0,0.0,0.0,0.0,0.0,0.0,0.0,0.0,0.44700594956251444,0.22909731740341893,-1.0924298248538062,manual,85.0,0.0,0.0,0.0,0.0,1.2023738278987304,0.025278048021624883
1761054457.0573237,4.969199180603027,0.0,0.0,-0.0,0.0,0.0,-0.0,0.0,0.0,0.0,0.0,0.0,0.0,0.0,0.17592285932659255,0.04464613363272383,-1.0756616854279846,manual,85.0,0.0,0.0,0.0,0.0,1.0908667155889247,0.06182167850236808
1761054457.1671915,5.07906699180603,0.0,0.0,-0.0,0.0,0.0,-0.0,0.0,0.0,0.0,0.0,0.0,0.0,0.0,0.2234690311494031,-0.16473826514777049,-1.102315432227625,manual,85.0,0.0,0.0,0.0,0.0,1.1367393791075973,0.07347034034888918
1761054457.277594,5.189469575881958,0.0,0.0,-0.0,0.0,0.0,-0.0,0.0,0.0,0.0,0.0,0.0,0.0,0.0,-0.14196413151365747,-0.06488071386426347,-0.9730972575362556,manual,85.0,0.0,0.0,0.0,0.0,0.9855361963380875,0.02395110752226777
1761054457.3871493,5.299024820327759,0.0,0.0,-0.0,0.0,0.0,-0.0,0.0,0.0,0.0,0.0,0.0,0.0,0.0,-0.14282580313234805,-0.06485736676041268,-1.0640333988492143,manual,85.0,0.0,0.0,0.0,0.0,1.0755337102713731,0.055386627023145694
1761054457.4970522,5.40892767906189,0.0,0.0,-0.0,0.0,0.0,-0.0,0.0,0.0,0.0,0.0,0.0,0.0,0.0,-0.14354402355828938,-0.06485544778894696,-1.1271009513089605,manual,85.0,0.0,0.0,0.0,0.0,1.138054335367504,0.038314280563680976
1761054457.606188,5.518063545227051,0.0,0.0,-0.0,0.0,0.0,-0.0,0.0,0.0,0.0,0.0,0.0,0.0,0.0,-0.14420263268308975,-0.06487787908701141,-1.2026941404773306,manual,85.0,0.0,0.0,0.0,0.0,1.213044407268781,0.03162675210223275
1761054457.7155004,5.627375841140747,0.0,0.0,-0.0,0.0,0.0,-0.0,0.0,0.0,0.0,0.0,0.0,0.0,0.0,-0.14493538293205627,-0.06500366996925637,-1.475818410957493,manual,85.0,0.0,0.0,0.0,0.0,1.4843421857699233,0.09257880235455414
1761054457.825063,5.7369384765625,0.0,0.0,-0.0,0.0,0.0,-0.0,0.0,0.0,0.0,0.0,0.0,0.0,0.0,0.27732341590722326,-0.7364110752599521,-1.3558793758422545,manual,85.0,0.0,0.0,0.0,0.0,1.5676793137023755,0.06955692547890463
1761054457.9347718,5.846647262573242,0.0,0.0,-0.0,0.0,0.0,-0.0,0.0,0.0,0.0,0.0,0.0,0.0,0.0,0.2746154650376731,-0.7375394132621653,-1.522853658871543,manual,85.0,0.0,0.0,0.0,0.0,1.7141940689698474,0.03906214400156018
1761054458.0424538,5.954329252243042,0.0,0.0,-0.0,0.0,0.0,-0.0,0.0,0.0,0.0,0.0,0.0,0.0,0.0,0.44444506205903556,-0.3936365242151101,-1.474077402287807,manual,85.0,0.0,0.0,0.0,0.0,1.589146095964868,0.036564014381330556
1761054458.151438,6.0633134841918945,3.5523029159278276e-06,1.6974060360983252e-06,-0.0,0.000178709749784139,9.421195566715725e-05,-0.0,0.1299827549179774,-0.21541866950436292,0.0035697612381200648,0.0,0.5,0.5,-0.06802975658798768,-0.05179987304065663,-0.01120113764382625,-1.2496082737281713,stabilize,85.0,-1.4546005776494313,0.44417582035729,-0.3935040053622533,1.4546005776494313,0.6589151810166869,0.22452324908474883
1761054458.2619662,6.173841714859009,0.00010735380403302739,7.784690533493563e-05,-0.0,0.00206093922279599,0.00161318384186473,-0.0,0.6526473677933878,-1.3646342234518059,0.019638917692583923,0.0,-0.5,0.5,-0.04502635999745909,0.0811601350019947,0.1170840978479446,-1.1247459991406454,stabilize,85.0,-1.4546005776494313,0.44417582035729,-0.3935040053622533,1.4546005776494313,0.708014577474907,1.451323312910786
1761054458.3709872,6.282862663269043,0.00045795162243582744,0.0003662683136967505,-0.0,0.003683630005183574,0.003435740000250855,-0.0,0.34701548795037684,2.812960807269307,0.007897657396241299,0.0,0.5,-0.5,0.11050521249671433,-0.03151477095776377,0.04090789439741066,-1.0958922970630947,stabilize,85.0,-1.4546005776494313,0.44417582035729,-0.3935040053622533,1.4546005776494313,0.7373376891761818,2.914046080368217
1761054458.481168,6.393043518066406,0.0007227330770877321,0.0007983802614007282,-0.0,0.0007865171717128144,0.004264990919449802,-0.0,0.02957838261420055,1.07748814401194,-0.016850891529089525,0.0,0.5,-0.5,0.1249680854712844,-0.8226297371656487,0.37296489590633286,-1.1157885714552314,stabilize,85.0,-1.4546005776494313,0.44417582035729,-0.3935040053622533,1.4546005776494313,1.5189023907823096,1.1094218260546904
1761054458.5912132,6.503088712692261,0.0006908679614449968,0.0012530785661127866,-0.0,-0.0007526859487554636,0.003972493224862524,-0.0,-0.05461150739314512,-0.2097978006248376,-0.030495822543553867,0.0,-0.5,-0.4723298995713531,0.2591351110694617,-0.2884229608984962,0.0030068600620352104,-0.8774065493268841,stabilize,85.0,-1.4546005776494313,0.44417582035729,-0.3935040053622533,1.4546005776494313,1.0134469828403412,0.20610062562660725
1761054458.6973429,6.60921835899353,0.0007278252738537746,0.0016626003089040254,-0.0,0.001855971247746045,0.0035855790159177703,-0.0,-0.1830306466182259,-2.189268595905672,-0.04002192303390671,0.0,0.5,0.5,0.043337659533371056,-0.21676329245127357,0.050109239030920544,-0.8554018486238001,stabilize,85.0,-1.4546005776494313,0.44417582035729,-0.3935040053622533,1.4546005776494313,0.9963294326211289,2.0995178115113227
1761054458.807587,6.7194623947143555,0.00094565823046377,0.00203323521403468,-0.0,0.0009598050602335355,0.0034795236754572912,-0.0,0.2533149226192771,1.5332981850026324,-0.044588582447699074,0.0,-0.5,-0.5,-0.09722893301851951,-0.3092844355238961,0.02168033576965837,-0.782566900760622,stabilize,85.0,-1.4546005776494313,0.44417582035729,-0.3935040053622533,1.4546005776494313,1.091654550298021,1.6270642061414184
1761054458.915759,6.827634572982788,0.0009308011247512063,0.0024896274618910466,-0.0,-0.0004259595487885691,0.004993016440730969,-0.0,0.49203915388479386,-0.43149803207192605,-0.04564541985845411,0.0,-0.5,0.5,0.28874587839708854,-0.3411313873870441,-0.020742563689051585,-0.572994238029827,stabilize,85.0,-1.4546005776494313,0.44417582035729,-0.3935040053622533,1.4546005776494313,1.2380986394431437,0.5905732371216096
1761054459.024662,6.936537504196167,0.0010230956596910892,0.003102256036662572,-0.0,0.0020435864937384776,0.006259642657840822,-0.0,0.4161486029083988,-3.0064733786176885,-0.04541609143941943,0.0,0.5,0.5,-0.22001150865920788,-0.2987507226180242,0.26742338805861116,-0.4361278067049229,stabilize,85.0,-1.4546005776494313,0.44417582035729,-0.3935040053622533,1.4546005776494313,1.423394412236726,2.902039837298493
1761054459.1347237,7.0465991497039795,0.0011527228103090697,0.003883580049464678,-0.0,-4.633378454510078e-05,0.007957357011961177,-0.0,0.4294239359968857,0.6736623456376927,-0.021975975110198984,0.0,0.2213082091900021,-0.5,0.3,-0.41473296089665684,0.22015022056071307,-0.4007639816605072,stabilize,85.0,-1.4546005776494313,0.44417582035729,-0.3935040053622533,1.4546005776494313,1.4915989322045582,0.8712477736237741
1761054459.2401333,7.152008771896362,0.0011563608867380464,0.004789142855442526,-0.0,0.0010461547326012389,0.009200429807173713,-0.0,0.4138784635258391,-1.8179267738633753,0.022858383644352314,0.0,0.40748202924355004,0.5,-0.2614716585349332,-0.20261782221827596,0.31908101316649345,-0.41419180934020783,stabilize,85.0,-1.4546005776494313,0.44417582035729,-0.3935040053622533,1.4546005776494313,1.4172402160122677,1.7176079714606105
1761054459.3498874,7.261762857437134,0.0013028712188495638,0.005888828144225733,-0.0,0.00039754550517588313,0.010699516601729341,-0.0,0.42155843782087454,1.2473235815660262,0.07262816419024115,0.0,-0.5,-0.5,-0.25672955539984377,-0.3109429997128279,0.13992230644748388,-0.31988812006193645,stabilize,85.0,-1.4546005776494313,0.44417582035729,-0.3935040053622533,1.4546005776494313,1.4636667735380475,1.4382842934754643
1761054459.4594345,7.371309995651245,0.0013025587145884892,0.0071066343959259376,-0.0,0.0008677964561769091,0.011292550398763165,-0.0,-0.21427070435245682,-1.8869003570503473,0.12216068678717354,0.0,0.118248967029155,0.5,-0.3,0.44011422735174843,-0.5712108932784841,-0.3886262957570356,stabilize,85.0,-1.4546005776494313,0.44417582035729,-0.3935040053622533,1.4546005776494313,1.0806930203377012,1.7422926795450124
1761054459.5679739,7.479849338531494,0.0014215798727789577,0.008257483245493415,-0.0,0.00018279554968741709,0.009693616661666224,-0.0,-0.4567328191679243,0.976184188106791,0.1583884771557061,0.0,0.5,-0.5,-0.3,0.22406578892767623,-0.6537966643284949,-0.3291202818426816,stabilize,85.0,-1.4546005776494313,0.44417582035729,-0.3935040053622533,1.4546005776494313,1.175970488786564,1.2392641143118932
1761054459.6769001,7.588775634765625,0.0014553815176235366,0.009257437941417899,-0.0,0.0015517856223282403,0.008865315712961574,-0.0,-0.2820448721073873,-2.311221531461733,0.16606494196994634,0.0,-0.43436895019278976,0.5,-0.22076045067548639,0.14197175726732333,-0.7146738871538377,-0.32937291139286273,stabilize,85.0,-1.4546005776494313,0.44417582035729,-0.3935040053622533,1.4546005776494313,1.2085589309699831,2.157548398295495
1761054459.7819545,7.6938300132751465,0.001590028194139786,0.010117981820136995,-0.0,0.00026683207763052505,0.007302757839952973,-0.0,-0.40242134861242085,0.4883049137095057,0.14328125550836954,0.0,0.4551782191896596,-0.5,-0.06298771874196973,0.0057957092442073,-0.7427906831629737,-0.2700305088179493,stabilize,85.0,-1.4546005776494313,0.44417582035729,-0.3935040053622533,1.4546005776494313,1.3104901957206718,0.7904520990568297
1761054459.890977,7.802852392196655,0.0016964543843006972,0.010868231415378028,-0.0,0.0021230251879026858,0.0066429853078444215,-0.0,-0.06113136893014003,-3.088341831160815,0.10488057392194797,0.0,0.5,0.5,0.08260396617127193,0.2783289406524296,-0.0031905507531648225,-0.39631106238405217,stabilize,85.0,-1.4546005776494313,0.44417582035729,-0.3935040053622533,1.4546005776494313,1.1400993283382594,2.8959790104373475
1761054459.999938,7.911813497543335,0.0018116894406769615,0.011618759437130201,-0.0,0.000290306081782516,0.0075410488469233785,-0.0,0.5645044718760555,-0.4651945641613101,0.07592704681660353,0.0,-0.5,0.5,0.21682096870104978,0.4179816284258939,0.34574153615794767,-0.47388504136184223,stabilize,85.0,-1.4546005776494313,0.44417582035729,-0.3935040053622533,1.4546005776494313,1.228402649567432,0.5906915350121769
1761054460.1080904,8.019965887069702,0.001936843926656791,0.012534673826222796,-0.0,0.001034636541395663,0.009156020925383692,-0.0,0.28517985193805995,1.8264013070958725,0.03295031608577283,0.0,0.5,-0.5,0.10373692288915047,0.2955599467919336,0.311420234112445,-0.25792246383645984,stabilize,85.0,-1.4546005776494313,0.44417582035729,-0.3935040053622533,1.4546005776494313,1.3967975405739899,2.0393497217450984
1761054460.216756,8.128631591796875,0.001977528030894747,0.013564362410014925,-0.0,0.0012009351273403277,0.009624248545020173,-0.0,-0.06976132688226108,-2.1404206376813444,-0.031024624755871852,0.0,-0.5,0.5,0.11509697296779803,0.03483176780898132,0.0018960740141820984,-0.07288278126712021,stabilize,85.0,-1.4546005776494313,0.44417582035729,-0.3935040053622533,1.4546005776494313,1.4943385978308776,1.9313837486199341
1761054460.3270702,8.238945722579956,0.0020788722905842336,0.01455829139601391,-0.0,7.907380348659335e-05,0.007972449250766423,-0.0,-0.9463843506019489,-0.14714751491613864,-0.12082264536378401,0.0,0.5,0.5,0.28021990791345397,-0.11998943468975723,-0.04582382042745731,-0.0005999399435605013,stabilize,85.0,-1.4546005776494313,0.44417582035729,-0.3935040053622533,1.4546005776494313,1.5978991834429583,0.9558452677554692
1761054460.4356918,8.347567319869995,0.002112082251439565,0.015245371385001354,-0.0,3.613638636249485e-05,0.004725011974441304,-0.0,-1.2483314562657588,1.5360852554722557,-0.19343656475508478,0.0,0.5,-0.5,0.3,-0.024150098563788653,0.08177384079472948,-0.19569092210900565,stabilize,85.0,-1.4546005776494313,0.44417582035729,-0.3935040053622533,1.4546005776494313,1.424805852807254,2.1868581337317905
1761054460.5432053,8.45508074760437,0.0020774851475312555,0.015583467120195862,-0.0,-0.00035348193415378384,0.0014806430279675682,-0.0,-1.0314258816651558,3.0461852785349204,-0.25197839819332496,0.0,0.5,0.5,0.3,0.21435856249780585,0.03318403531932739,-0.1272740136139328,stabilize,85.0,-1.4546005776494313,0.44417582035729,-0.3935040053622533,1.4546005776494313,1.413037318567709,3.1904139637331554
1761054460.6521077,8.56398320198059,0.00195538697596648,0.01563032696165443,-0.0,-0.0008841195964356128,-0.0005388650487950542,-0.0,-0.22503956259844884,-2.14481782477265,-0.2947057981902603,0.0,-0.5,0.5,0.3,0.10063851928848218,0.2578076205215488,-0.16248910050081414,stabilize,85.0,-1.4546005776494313,0.44417582035729,-0.3935040053622533,1.4546005776494313,1.4872043506580472,1.945544822806344
1761054460.7600768,8.671952247619629,0.0018155487124613488,0.015584509188345587,-0.0,-0.0014772476582790837,-0.0001668587056717092,-0.0,0.14258263807536092,-1.170738346877999,-0.3247634281864452,0.0,-0.5,0.5,0.3,-0.20439883049476737,1.0352851350781715,-0.16402097560497736,stabilize,85.0,-1.4546005776494313,0.44417582035729,-0.3935040053622533,1.4546005776494313,2.031670050668065,0.9837804931554411
1761054460.8606272,8.772502660751343,0.001708661330924644,0.01556488627654611,-0.0,-0.0017965828107815059,1.1784475720511907e-05,-0.0,-0.11904235192756188,0.19843957173624416,-0.34871276434936826,0.0,0.5,-0.5,0.3,-0.32233836776517905,1.2241854283632274,-0.1909719105224253,stabilize,85.0,-1.4546005776494313,0.44417582035729,-0.3935040053622533,1.4546005776494313,2.1911687550175794,0.6001174389787782
1761054460.9696414,8.881516933441162,0.0015790956342354578,0.015519173452079869,-0.0,-0.0015438954774578345,-0.00032661658631046356,-0.0,0.10908438556299888,0.9097159564002818,-0.36222628596684453,0.0,-0.20639943848261866,-0.5,0.3,-0.47040554506984467,1.4462807050095958,-0.08409240930875192,stabilize,85.0,-1.4546005776494313,0.44417582035729,-0.3935040053622533,1.4546005776494313,2.4697286276012425,1.2607279567009138
1761054461.0780594,8.989934921264648,0.001454621142999538,0.015498301031382987,-0.0,-0.0010301083137441655,6.0548946582938637e-05,-0.0,0.15710346452893828,1.6295292842888691,-0.3627757710394091,0.0,0.13722249644700257,-0.5,0.3,-1.0935263013788596,1.2685147908547862,-0.05955873547480689,stabilize,85.0,-1.4546005776494313,0.44417582035729,-0.3935040053622533,1.4546005776494313,2.6595067278705207,1.944789452164576
1761054461.1856942,9.097569704055786,0.0013452401559397886,0.015522600647789543,-0.0,-0.0005129791671071909,0.00017713188587539208,-0.0,0.13759035485692586,2.2902459611487522,-0.3471573383467177,0.0,0.5,-0.5,0.3,-0.9242238877817405,1.2009368927350603,-0.32174573837678566,stabilize,85.0,-1.4546005776494313,0.44417582035729,-0.3935040053622533,1.4546005776494313,2.387073443701262,2.6126162718685357
1761054461.2954726,9.207348108291626,0.0012655636440002242,0.015603663050303923,-0.0,-2.6427910839539656e-05,0.0011405379529482245,-0.0,0.39262978475931154,2.7302095264566537,-0.314113742473433,0.0,-0.5,-0.5,0.2831738312940292,-1.1146993237439726,1.3622689722672778,-0.1627766128111115,stabilize,85.0,-1.4546005776494313,0.44417582035729,-0.3935040053622533,1.4546005776494313,2.679858134305135,3.0592782427295937
1761054461.405259,9.317134380340576,0.0012169502771345164,0.015809157792261407,-0.0,0.00033039207556509914,0.002064353274767118,-0.0,0.16173096895800226,-2.955046939747029,-0.2652264307382493,0.0,0.5,0.5,0.17702628538025741,-1.1881918247522947,1.0615180697532536,-0.2212702156992865,stabilize,85.0,-1.4546005776494313,0.44417582035729,-0.3935040053622533,1.4546005776494313,2.5105412065094894,2.6725591051398916
1761054461.515331,9.42720651626587,0.0011962508135797204,0.016098317975013546,-0.0,0.00036391302452546857,0.0031271500255022518,-0.0,0.3852218022185088,-2.4510758445547194,-0.2049195058118759,0.0,-0.5,0.5,0.1629200735396326,-1.5532594912101891,0.6379028512068605,-0.12939529955912166,stabilize,85.0,-1.4546005776494313,0.44417582035729,-0.3935040053622533,1.4546005776494313,2.6095434383724805,2.196549153737333
1761054461.6238737,9.535749197006226,0.0011944951240067745,0.016516282432448466,-0.0,0.00035040642752591034,0.004265950190797402,-0.0,0.23594165550763857,-1.9221749084740594,-0.1398190129358954,0.0,0.5,0.5,0.09859559101322377,-0.9433267777729248,1.0276207596325164,-0.09790791511305064,stabilize,85.0,-1.4546005776494313,0.44417582035729,-0.3935040053622533,1.4546005776494313,2.4052804489455255,1.653812146102998
1761054461.7319865,9.643862009048462,0.0012224938715628749,0.01705096636686171,-0.0,0.0001564683920576902,0.006022759170462119,-0.0,0.9385808358568374,-1.2993033467930168,-0.06382175339556842,0.0,-0.5,0.5,-0.24130827459552512,-1.1388239453479057,1.0355361447495854,-0.07984679803490802,stabilize,85.0,-1.4546005776494313,0.44417582035729,-0.3935040053622533,1.4546005776494313,2.5373198386129383,1.3441891668835297
1761054461.8356023,9.747477769851685,0.0012664217417176498,0.017831474513149568,-0.0,0.0002982181398872138,0.009137902251160374,-0.0,1.33037855874253,-0.5740405829087205,-0.004673938869503426,0.0,-0.5,0.5,-0.08171967540148886,-1.036746397634768,0.9686809293473163,-0.03281739572866858,stabilize,85.0,-1.4546005776494313,0.44417582035729,-0.3935040053622533,1.4546005776494313,2.4637665937513153,1.339784522656048
1761054461.9447362,9.856611728668213,0.0013068425779450504,0.019017890065201028,-0.0,0.00012520735540015154,0.012536200195390467,-0.0,1.1079246279860593,-0.3549716020960235,0.048586400077086825,0.0,-0.5,0.5,-0.08581246030482766,-1.2719097479304717,0.8039592785894996,0.027786990396355446,stabilize,85.0,-1.4546005776494313,0.44417582035729,-0.3935040053622533,1.4546005776494313,2.5644377348640672,1.1183546545046958
1761054462.0528164,9.964691877365112,0.001336379998997693,0.020517693385915574,-0.0,-0.00027235025351444753,0.01474686058758457,-0.0,0.2328180155536751,-0.3037083159938301,0.09215567883489481,0.0,-0.5,-0.5,-0.3,-0.832176481084178,0.2561462863050086,-0.23850215701035213,stabilize,85.0,-1.4546005776494313,0.44417582035729,-0.3935040053622533,1.4546005776494313,1.8788336987448233,0.29411019569725194
1761054462.1618054,10.073680877685547,0.001360716244296007,0.022107792257898617,-0.0,-0.00022319988386273817,0.013902596384368625,-0.0,-0.5160338231149256,-0.24593328617154384,0.129623222528734,0.0,0.5,0.5,-0.3,-0.7210655429410037,0.07681471661683605,-0.07468262572456812,stabilize,85.0,-1.4546005776494313,0.44417582035729,-0.3935040053622533,1.4546005776494313,1.8663227719314306,0.541519515736245
1761054462.270209,10.182084560394287,0.0013960151855354768,0.023532617919389907,-0.0,-0.0001323678844227578,0.012376164712561914,-0.0,-0.23145301709320862,-0.07455529135255179,0.15818380920421035,0.0,-0.5,0.5,-0.3,-0.9686008569904796,-0.075528742765562,-0.13447253961064948,stabilize,85.0,-1.4546005776494313,0.44417582035729,-0.3935040053622533,1.4546005776494313,1.9595367423187966,0.38761009941883845
1761054462.3810987,10.29297423362732,0.0014449269907708974,0.024889437863903734,-0.0,-9.673130035780062e-05,0.012210800723789807,-0.0,0.105093215567944,-0.1941809246159666,0.1591256406983269,0.0,-0.5,0.5,-0.25174492802102966,-1.1571045227940697,-0.1240573619808242,-0.23126161305104478,stabilize,85.0,-1.4546005776494313,0.44417582035729,-0.3935040053622533,1.4546005776494313,2.033041675248471,0.20577827721610706
1761054462.488461,10.400336503982544,0.0014910051466847925,0.026231533961344807,-0.0,7.457125352494728e-06,0.012332731336924037,-0.0,-0.2326041809318078,-0.4150803344025026,0.13646151450758381,0.0,0.06400158249941945,0.5,-0.3,-1.0735815520049394,-0.16931359187425898,-0.09413357418052559,stabilize,85.0,-1.4546005776494313,0.44417582035729,-0.3935040053622533,1.4546005776494313,2.050541209141499,0.2835916451078362
1761054462.5976424,10.509517908096313,0.0015489424490450995,0.027502940078375535,-0.0,0.000380789744562309,0.01063120175741095,-0.0,-0.6681756856273736,-0.8224531952124082,0.11218698595087678,0.0,0.5,0.5,-0.039532223392963056,-1.3604410840364511,-0.4733564479221908,-0.05566321659936832,stabilize,85.0,-1.4546005776494313,0.44417582035729,-0.3935040053622533,1.4546005776494313,2.2847416318586555,0.8318556427270235
1761054462.706433,10.618308544158936,0.0016266510587046755,0.028554007115687386,-0.0,0.0007045347379188067,0.008862896567723544,-0.0,-0.2730259489883348,-1.258648952384624,0.08871024615698223,0.0,0.5,0.5,0.10170191340810558,-1.1736098657691036,-0.10525147868458405,-0.013544089422257183,stabilize,85.0,-1.4546005776494313,0.44417582035729,-0.3935040053622533,1.4546005776494313,2.1856266487287215,0.9732206992811956
1761054462.817823,10.729698419570923,0.001725093920206159,0.029551347064849045,-0.0,0.0010233404220210034,0.009567949841064903,-0.0,0.5695773674578017,-2.024751759000691,0.07312411031403909,0.0,-0.5,0.5,-0.03249168606134817,-1.5083177598223045,-0.2265497476573086,-0.04395172627683892,stabilize,85.0,-1.4546005776494313,0.44417582035729,-0.3935040053622533,1.4546005776494313,2.414546559229528,1.7589789322138836
1761054462.9272609,10.839136362075806,0.001814007707172221,0.030709052998059788,-0.0,0.0011789780504554103,0.011541371130855722,-0.0,0.38575777801915795,-2.8188513454195716,0.053446550065614405,0.0,-0.5,0.5,-0.12561898164924096,-1.3209249758311967,-0.2714691883859732,0.06717660034524561,stabilize,85.0,-1.4546005776494313,0.44417582035729,-0.3935040053622533,1.4546005776494313,2.3337264399935793,2.4960350116312853
1761054463.0360882,10.94796371459961,0.0018985691210577967,0.031974635910020366,-0.0,0.001193663793339199,0.011193582675452453,-0.0,-0.5523210442289519,2.7402790742053775,0.038517032707553765,0.0,0.5,-0.5,0.2289145266919582,-1.5968589931193118,-0.32956162318040344,-0.1780536822219311,stabilize,85.0,-1.4546005776494313,0.44417582035729,-0.3935040053622533,1.4546005776494313,2.408211725386318,3.140502170629361
1761054463.1459062,11.05778169631958,0.001991734308447671,0.03307632976709097,-0.0,0.0009549873753385194,0.008809343472147454,-0.0,-0.7427515235374389,1.8890308947917736,0.02959848809737271,0.0,0.5,-0.5,0.08927790034049947,-1.7735488815696003,-0.04722333671194965,-0.1286758388222462,stabilize,85.0,-1.4546005776494313,0.44417582035729,-0.3935040053622533,1.4546005776494313,2.606969422155073,2.366116991537878
1761054463.2546358,11.166511297225952,0.002088268404321193,0.03392603570066768,-0.0,0.0006365333119522553,0.007214440998666386,-0.0,-0.17006726168504238,1.030053819888137,0.024232342148769688,0.0,-0.5,-0.5,0.03316982862233797,-1.839086794093182,-0.3554357431796818,-0.059783660038720966,stabilize,85.0,-1.4546005776494313,0.44417582035729,-0.3935040053622533,1.4546005776494313,2.6758646439582567,1.390371808967889
1761054463.355303,11.267178535461426,0.0021768332421230937,0.03464622955628224,-0.0,0.0005771777712877791,0.00724224041711742,-0.0,0.29050146082972655,0.5924853709693494,0.0324395907247043,0.0,-0.5,-0.5,-0.14991093855646914,-0.8317468581428457,0.5186461030042043,0.057960709780115735,stabilize,85.0,-1.4546005776494313,0.44417582035729,-0.3935040053622533,1.4546005776494313,2.1789534529067915,0.9650473412202171
1761054463.4643106,11.37618613243103,0.00227415806095368,0.035516692595363684,-0.0,0.0005588919610633425,0.008781888899387897,-0.0,0.4800248613771639,-0.3456453406358402,0.03878690999978855,0.0,-0.5,0.2799220737321737,-0.16294089843063042,-0.771977369992857,0.4030116400831259,-0.038891886217586616,stabilize,85.0,-1.4546005776494313,0.44417582035729,-0.3935040053622533,1.4546005776494313,2.0292108946173575,0.49495155452346984
1761054463.5736375,11.485512971878052,0.0023676640106263178,0.03653916121926423,-0.0,0.0008234717967551883,0.009840907770438053,-0.0,0.22861080712596812,-1.5056103297151546,0.03386416187253575,0.0,0.5,0.5,-0.1789688006241877,-1.0378760636178759,0.3868683614961519,0.029204602889090117,stabilize,85.0,-1.4546005776494313,0.44417582035729,-0.3935040053622533,1.4546005776494313,2.237663207800379,1.1616543940899264
1761054463.6828341,11.594709634780884,0.002459643482636826,0.037669869711409745,-0.0,0.0012310031454962384,0.010835905065234835,-0.0,0.16909012435435133,-2.8479245416972585,0.03569853114762908,0.0,-0.5,0.5,-0.17344057645429495,-0.8801205813968924,-0.19482355306815655,-0.0650130384766632,stabilize,85.0,-1.4546005776494313,0.44417582035729,-0.3935040053622533,1.4546005776494313,1.9298156416733414,2.4730825141258443
1761054463.7909088,11.702784299850464,0.0025501245956519023,0.03883189709277451,-0.0,0.0010506755287535924,0.010141053606603756,-0.0,-0.530982032943041,2.1627193509529863,0.04447404868283467,0.0,0.5,-0.5,-0.006956995189753068,-0.7676461314196164,-0.343259300672649,-0.052558438339871116,stabilize,85.0,-1.4546005776494313,0.44417582035729,-0.3935040053622533,1.4546005776494313,1.8538498141859994,2.5939354900544496
1761054463.8958933,11.807768821716309,0.002638456388755242,0.039801656185023945,-0.0,0.0006468635929231098,0.008383230316984869,-0.0,-0.4060568805776651,1.1219244912332043,0.05757209706066895,0.0,0.5,-0.5,-0.26557326520900737,-1.018818527329649,-0.3398346108092572,-0.11317574266105065,stabilize,85.0,-1.4546005776494313,0.44417582035729,-0.3935040053622533,1.4546005776494313,1.98561160683534,1.5612599803100655
1761054464.004372,11.916247367858887,0.002722727867785239,0.040682614041390265,-0.0,0.0001948301439009235,0.008394595334746778,-0.0,0.33961384046158427,-0.09589354941611983,0.06518486245915453,0.0,-0.5,-0.22364113147797887,0.2140600072070979,-1.7040832196581603,-0.5491650891590856,0.09317872540827396,stabilize,85.0,-1.4546005776494313,0.44417582035729,-0.3935040053622533,1.4546005776494313,2.6523325671926408,0.4196399010527349
1761054464.1122947,12.024170160293579,0.002780493314012388,0.04167157703361302,-0.0,0.00048428986738835504,0.009810535019553458,-0.0,0.32368240193328796,-1.3754643662345063,0.07315391892507997,0.0,-0.5,0.5,-0.0694041265402581,-2.0050891943464118,-0.5407876645320362,0.0721286097691898,stabilize,85.0,-1.4546005776494313,0.44417582035729,-0.3935040053622533,1.4546005776494313,2.889895084639906,1.0477646473501658
1761054464.221728,12.133603572845459,0.0028491368554408934,0.042766753130091394,-0.0,0.0010270033143027005,0.009826572960998734,-0.0,-0.31085988084014665,-2.8635146235858215,0.07296130292639608,0.0,0.5,0.5,-0.3,-2.352631867405093,-0.5669369997934729,0.0720932430936785,stabilize,85.0,-1.4546005776494313,0.44417582035729,-0.3935040053622533,1.4546005776494313,3.1910823035734035,2.4857219849223275
1761054464.3296154,12.241490840911865,0.0029198516253065134,0.04375444421201603,-0.0,0.0008326940591335297,0.008564907489585955,-0.0,-0.2847261383336269,2.1636954370064387,0.0657412903261083,0.0,0.3811924054130505,-0.5,-0.2570106116245898,-2.4144573763483335,-1.048863385356105,0.06417276787668888,stabilize,85.0,-1.4546005776494313,0.44417582035729,-0.3935040053622533,1.4546005776494313,3.302718901955469,2.574329725130625
1761054464.431896,12.34377145767212,0.002990491044032767,0.04459438626546012,-0.0,0.0005630327722686375,0.007950115226711501,-0.0,-0.2330166324504003,1.2802768353845606,0.05189680435627536,0.0,-0.34116169652047346,-0.5,0.3,-1.9875125533687314,-0.9881535291015746,-0.05703599849575164,stabilize,85.0,-1.4546005776494313,0.44417582035729,-0.3935040053622533,1.4546005776494313,2.8670373481876212,1.6826321632331807
1761054464.5413642,12.453239679336548,0.0030634036379238714,0.04540595367672954,-0.0,0.00036087548929624916,0.0067119145929598195,-0.0,-0.31043222880965715,-0.3264769308980371,0.04723578207628444,0.0,0.5,-0.5,-0.12834950187454536,-1.5238644646307993,-0.5821809359778014,0.01509028973827397,stabilize,85.0,-1.4546005776494313,0.44417582035729,-0.3935040053622533,1.4546005776494313,2.463487932417232,0.35638961274022773
1761054464.6502643,12.562139749526978,0.0031454487252590064,0.04612081882877448,-0.0,0.0009101768416785285,0.006895953157737776,-0.0,0.48401693073408886,-1.9056690251554742,0.04082275716794613,0.0,-0.5,0.5,-0.2120956834828171,-1.8770714586178003,-0.515363153628856,-0.05651777190470705,stabilize,85.0,-1.4546005776494313,0.44417582035729,-0.3935040053622533,1.4546005776494313,2.7125032928799486,1.5713310850109174
1761054464.7585235,12.670398950576782,0.0032373225439299843,0.04697885678571933,-0.0,0.0010365008666637975,0.009018776027570747,-0.0,0.611279106142279,2.5311662465529454,0.019471939668223606,0.0,-0.5,-0.5,-0.1538317205326148,-2.2742338270937714,-0.4866248779993321,-0.1431241157507806,stabilize,85.0,-1.4546005776494313,0.44417582035729,-0.3935040053622533,1.4546005776494313,3.019667699994471,3.002093469040058
1761054464.8679636,12.779839038848877,0.0033149392653622446,0.04803397638170876,-0.0,0.0003505950939939758,0.0097473626959327,-0.0,-0.23690216275630332,0.6021866814510043,-0.0008472815488478621,0.0,0.5,-0.5,0.17172360663098196,-2.7206148524788043,-0.5178824390698599,-0.27982238044178415,stabilize,85.0,-1.4546005776494313,0.44417582035729,-0.3935040053622533,1.4546005776494313,3.378087300570597,1.0152326907710232
1761054464.9682698,12.88014531135559,0.003374910801515839,0.048945575262897445,-0.0,0.00038233653810710585,0.008254580441962584,-0.0,-0.5763513465837146,-0.7406944354692464,-0.017378235564454256,0.0,0.5,0.5,0.042217344975392784,-3.166298649691035,-0.5368299408288655,-0.42524280965710715,stabilize,85.0,-1.4546005776494313,0.44417582035729,-0.3935040053622533,1.4546005776494313,3.7570794025644774,0.6924654139187095
1761054465.0752656,12.987141132354736,0.0034396218542454187,0.04973788420053928,-0.0,0.0007789340491053517,0.006652318928852094,-0.0,-0.5329345787401788,-2.641849764294781,-0.027745723309445244,0.0,0.19842533202911336,0.5,-0.1190097958011739,-3.542053459704407,-1.0042487917324436,-0.20460425122900547,stabilize,85.0,-1.4546005776494313,0.44417582035729,-0.3935040053622533,1.4546005776494313,4.222028408640108,2.2991405871822312
1761054465.176179,13.088054418563843,0.0034901872127719577,0.05032715166678992,-0.0,0.0006769590742589316,0.005128389396025831,-0.0,-0.302407272845117,2.236190267199425,-0.040590262250974035,0.0,0.5,-0.5,0.16653984469193683,-3.7068633779895612,-0.38097262632589984,-0.09884782219329555,stabilize,85.0,-1.4546005776494313,0.44417582035729,-0.3935040053622533,1.4546005776494313,4.366846573398192,2.66330972743535
1761054465.2855706,13.19744610786438,0.0035340942531234608,0.050883042936039145,-0.0,6.927808179956748e-05,0.0055058283089932354,-0.0,0.4433346513480686,0.04534127758322992,-0.047953829675435544,0.0,-0.5,-0.5,0.0829965411973262,-2.1553517134022413,-0.6766289056455541,-0.21988607413258765,stabilize,85.0,-1.4546005776494313,0.44417582035729,-0.3935040053622533,1.4546005776494313,2.891750855991779,0.5993083909015174
1761054465.391118,13.302993535995483,0.0035812177761689722,0.051548232306641975,-0.0,0.0006693860932377946,0.007062670830557694,-0.0,0.4250646626717561,-1.8739727535822333,-0.05238344860057238,0.0,0.5,0.5,0.17225672132004008,-2.0598893881645948,-0.4744881510550192,-0.2284234124034036,stabilize,85.0,-1.4546005776494313,0.44417582035729,-0.3935040053622533,1.4546005776494313,2.789338889585509,1.5195216720852476
1761054465.499721,13.411596536636353,0.003657628270599345,0.05240478310474852,-0.0,0.0008914297398453369,0.008819418504039844,-0.0,0.5751667074934197,2.1971628530710112,-0.054859526677702095,0.0,-0.5,-0.5,0.10265164571867313,-1.8091670651492062,-0.6122295902883271,-0.11942977016833706,stabilize,85.0,-1.4546005776494313,0.44417582035729,-0.3935040053622533,1.4546005776494313,2.6283219221232605,2.6663028676897667
1761054465.6077335,13.519608974456787,0.003734070409437029,0.053434811440386296,-0.0,0.0003998204214732276,0.009850638071775266,-0.0,-0.11076843884774806,-0.03238908681149166,-0.06429665282612786,0.0,0.5,0.5,-0.1744909258569288,-2.1609280494686605,-0.653249381033976,-0.15380405401120958,stabilize,85.0,-1.4546005776494313,0.44417582035729,-0.3935040053622533,1.4546005776494313,2.9233722699434415,0.3874668329189624
1761054465.7157576,13.627633094787598,0.0038182824786536984,0.05444007886861429,-0.0,0.0010820538727754057,0.008569420226203096,-0.0,-0.4632347702062784,-2.5803014074660675,-0.06778505797125033,0.0,0.5,0.5,0.12562673471111355,-2.4553633963307657,-0.7030998537263865,-0.12001990674818089,stabilize,85.0,-1.4546005776494313,0.44417582035729,-0.3935040053622533,1.4546005776494313,3.2069117271261964,2.205581443997
1761054465.824573,13.736448526382446,0.003908588558068508,0.05530908492695658,-0.0,0.0005661772266904499,0.007717141752192042,-0.0,0.11065338874862841,0.7818222287119584,-0.05644994808375085,0.0,0.2878462967473869,-0.5,0.10703373919653608,-2.5483864235462534,-0.5503104193349436,-0.17729515390716707,stabilize,85.0,-1.4546005776494313,0.44417582035729,-0.3935040053622533,1.4546005776494313,3.257533757403197,1.214493512973134
1761054465.9351885,13.847064018249512,0.003997206765661291,0.05623625056713269,-0.0,0.00104920844666394,0.009425564462944071,-0.0,0.7812627686080998,-2.2228408347503925,-0.042315195630533556,0.0,-0.5,0.5,0.03450690147965901,-2.2895238556383433,-0.706802861502677,-0.11870037470941598,stabilize,85.0,-1.4546005776494313,0.44417582035729,-0.3935040053622533,1.4546005776494313,3.0587414804152218,1.932416900518048
1761054466.0444226,13.956298112869263,0.004105173851145717,0.0573973501693494,-0.0,0.0008186314606758562,0.011858648275946975,-0.0,0.5671588698196824,1.0792456449782581,-0.03205521632575649,0.0,-0.5,-0.5,0.253743528410772,-2.6451540082368847,-0.7667897870510753,-0.29287482453451524,stabilize,85.0,-1.4546005776494313,0.44417582035729,-0.3935040053622533,1.4546005776494313,3.3215821215353336,1.6306249864837796
1761054466.1529448,14.064820289611816,0.0042056816065425455,0.058742222946831735,-0.0,0.001120114990953516,0.012305409973917953,-0.0,-0.24975681137873718,-1.9861309024409284,-0.027028950139443484,0.0,0.5,0.5,-0.03845209275501278,-3.0513464995240027,-0.8827903066542687,-0.24298405931831596,stabilize,85.0,-1.4546005776494313,0.44417582035729,-0.3935040053622533,1.4546005776494313,3.7317679403887283,1.5582103960446396
1761054466.261737,14.173612594604492,0.0043173832312995465,0.06001834441736545,-0.0,0.0007941182739204914,0.011165741341379648,-0.0,-0.22783883676190653,1.1508697523969282,-0.023764532114542696,0.0,0.5,-0.5,-0.0018536653739751746,-3.2009095107547427,-0.19021292398759643,-0.12557142612097683,stabilize,85.0,-1.4546005776494313,0.44417582035729,-0.3935040053622533,1.4546005776494313,3.885137426200911,1.624282332235724
1761054466.37159,14.283465385437012,0.004413659351177451,0.06124545322330972,-0.0,0.0010788924918468952,0.011796167901892684,-0.0,0.6074571098154808,-2.1030405289880414,-0.015037402582974129,0.0,-0.5,0.5,0.11988013779147902,-3.640458522924901,-0.24127704416964285,-0.13818558909016573,stabilize,85.0,-1.4546005776494313,0.44417582035729,-0.3935040053622533,1.4546005776494313,4.294223933161586,1.7360064722470014
1761054466.4800951,14.39197063446045,0.004521663489572676,0.06266246695191166,-0.0,0.0007601163490413699,0.014256036454719994,-0.0,0.7266766690602964,0.7539202701694959,-0.009945803012797572,0.0,-0.5,-0.5,0.0471930506165073,-3.4114731288312616,-0.9513954786588008,-0.11161686431807341,stabilize,85.0,-1.4546005776494313,0.44417582035729,-0.3935040053622533,1.4546005776494313,4.120785965034954,1.4097865324705525
1761054466.5901628,14.50203824043274,0.004623149309629378,0.0643207727741954,-0.0,0.0012978832778839052,0.015556024046867338,-0.0,-0.08929640094840736,-2.673491756465942,-0.0010724519079481274,0.0,0.5,0.5,-0.011416828035879324,-3.0155604326007444,-0.9688071658840872,-0.1780331663944938,stabilize,85.0,-1.4546005776494313,0.44417582035729,-0.3935040053622533,1.4546005776494313,3.7323414932206624,2.2266554189380865
1761054466.6994197,14.611295223236084,0.004732771279722802,0.06597043313547296,-0.0,0.0006551376068019605,0.014299527958260456,-0.0,-0.4245550154446811,0.27833195470897387,0.016714485741741107,0.0,0.5,-0.5,-0.01481940911806439,-3.4164983496569548,-1.09164724223928,-0.08187285015219078,stabilize,85.0,-1.4546005776494313,0.44417582035729,-0.3935040053622533,1.4546005776494313,4.156511811609833,0.8472259937690876
1761054466.808579,14.720454454421997,0.004837721981419356,0.06748617949223644,-0.0,0.0013041933832594731,0.013924462110030239,-0.0,0.3655971103073377,-3.088777685937177,0.0349310908552654,0.0,0.5,0.5,-0.279930089411732,-3.1346802907138027,-0.7619022568078603,-0.0073282666036514,stabilize,85.0,-1.4546005776494313,0.44417582035729,-0.3935040053622533,1.4546005776494313,3.8779537745747925,2.659212381483172
1761054466.91444,14.82631540298462,0.00493744952003827,0.06907704073990613,-0.0,0.000774044651412206,0.01650162984802862,-0.0,1.297559328489142,0.04867059777823601,0.051709170702122116,0.0,-0.5,-0.5,-0.0009551829876864662,-3.379902740292251,-0.6624526962330158,-0.20852049237451128,stabilize,85.0,-1.4546005776494313,0.44417582035729,-0.3935040053622533,1.4546005776494313,4.030958423906071,1.349631557635853
1761054467.0231144,14.934989929199219,0.005020981406567726,0.07106190282369795,-0.0,0.00071436144942774,0.020046622331780083,-0.0,1.3962908249120927,2.826380816288482,0.06442409816495982,0.0,-0.5,0.5,-0.24020910805338275,-2.6405024575470026,-0.7505642098652994,-0.32582776252065715,stabilize,85.0,-1.4546005776494313,0.44417582035729,-0.3935040053622533,1.4546005776494313,3.304067211178987,3.311553472892524
1761054467.1308813,15.042756795883179,0.005078427872132089,0.07339421895068207,-0.0,0.00028497258094335737,0.023063970088939793,-0.0,0.6364686269385761,-0.7872647487513236,0.06778850818545441,0.0,-0.5,0.5,-0.033990610045856344,-2.9865054907449617,-0.9929459046138138,-0.15855405185536567,stabilize,85.0,-1.4546005776494313,0.44417582035729,-0.3935040053622533,1.4546005776494313,3.7159980417039313,0.7657139003246128
1761054467.2393887,15.151264190673828,0.005129204795298585,0.07594291790613049,-0.0,0.0004666835018116124,0.023349626658639128,-0.0,-0.327459489336941,1.7706855324991277,0.06668566962961371,0.0,0.5,-0.5,-0.04924164064594833,-2.884186800770448,-0.5475158560172083,-0.12013391481563587,stabilize,85.0,-1.4546005776494313,0.44417582035729,-0.3935040053622533,1.4546005776494313,3.589222570707651,2.2532510933547383
1761054467.3487062,15.260581731796265,0.005170725568935722,0.07840434538396066,-0.0,0.0005989057242008829,0.021913305298013077,-0.0,-0.37267659246663,-1.9622050902046007,0.06263148957206721,0.0,-0.5,0.5,-0.2580121328166771,-3.2677106357193564,-0.7926992595848104,-0.17597766396270922,stabilize,85.0,-1.4546005776494313,0.44417582035729,-0.3935040053622533,1.4546005776494313,3.9461797309808104,1.5580763128999826
1761054467.4495506,15.36142611503601,0.005225736556529839,0.08057153533644143,-0.0,0.0003360750641740495,0.020997679724287358,-0.0,-0.14537946451934625,1.2777033818778871,0.0437038515649094,0.0,-0.5,-0.5,0.10679222742898078,-2.885680795081031,-0.7179910155434455,-0.16470599855216894,stabilize,85.0,-1.4546005776494313,0.44417582035729,-0.3935040053622533,1.4546005776494313,3.585674960776448,1.7424846352083767
1761054467.5597086,15.47158408164978,0.005267697907989147,0.08284539691066901,-0.0,0.0006637889620540769,0.020044456295390888,-0.0,-0.5752363435010966,-2.477662739296047,0.029908319370976277,0.0,0.5,0.5,0.05388710695128272,-2.6422144839816104,-0.9608043634689489,-0.17433197423386215,stabilize,85.0,-1.4546005776494313,0.44417582035729,-0.3935040053622533,1.4546005776494313,3.389206766179486,2.0828993658585917
1761054467.6696234,15.581498861312866,0.005320766702720178,0.08490787467589035,-0.0,0.00024029007134208748,0.017576992335591825,-0.0,-0.7553454966335074,0.029474991007949036,0.020564591639450156,0.0,0.5,-0.5,-0.0738798711187783,-2.3219452113196195,-0.9072883216748894,-0.1043829586310896,stabilize,85.0,-1.4546005776494313,0.44417582035729,-0.3935040053622533,1.4546005776494313,3.120654980013288,0.916429063713285
1761054467.7774208,15.689296245574951,0.005379884664096751,0.08670866961341482,-0.0,0.0008624609200371088,0.015823985020622114,-0.0,-0.42534498878311994,2.6647157449357395,0.008581635292551203,0.0,-0.5,0.5,-0.11725071232410947,-2.40359074601284,-1.3239857267528763,-0.12476694405870545,stabilize,85.0,-1.4546005776494313,0.44417582035729,-0.3935040053622533,1.4546005776494313,3.277808436044835,3.1694116602473392
1761054467.887809,15.799684524536133,0.005438386636621294,0.08836514039783108,-0.0,0.0005045649613038081,0.014160251051259074,-0.0,-0.5845966600186234,-1.3285274026635736,-0.0071994712818402645,0.0,0.5,0.5,0.0882126663800105,-2.239194646745766,-1.2675512655151615,-0.047555244775266,stabilize,85.0,-1.4546005776494313,0.44417582035729,-0.3935040053622533,1.4546005776494313,3.153444504896931,1.0402330803576387
1761054467.9980085,15.909883975982666,0.005511483729975441,0.08984082835048346,-0.0,0.0004821448562078223,0.012608160340893917,-0.0,-0.5037062129065395,0.7703825657400961,-0.013584840866910667,0.0,0.2659737493948866,-0.5,0.2170297747825075,-2.607585678810652,-1.1372645665783476,-0.0454528223637631,stabilize,85.0,-1.4546005776494313,0.44417582035729,-0.3935040053622533,1.4546005776494313,3.4426915947338186,1.3391112199668855
1761054468.108364,16.02023959159851,0.005593334912608392,0.09113563020579499,-0.0,0.001114180976865442,0.011013575457550181,-0.0,-0.3537999746057434,2.8980484970685754,-0.012993493106976464,0.0,0.5,0.5,0.22983748397115356,-2.5980956766763836,-1.0559989463164703,-0.0480959881756918,stabilize,85.0,-1.4546005776494313,0.44417582035729,-0.3935040053622533,1.4546005776494313,3.4165143887687837,2.9283285071553324
1761054468.2159739,16.127849340438843,0.005679582673753633,0.09229220026144593,-0.0,0.0007018206441923938,0.010553495184892413,-0.0,-0.04185481875863402,-1.1964747435293304,-0.007524946014922,0.0,0.24935469999191495,0.5,-0.21383054617420977,-2.1563217953263587,-1.021787343529011,-0.024785039144122223,stabilize,85.0,-1.4546005776494313,0.44417582035729,-0.3935040053622533,1.4546005776494313,3.0334304469272957,0.7160712193356568
1761054468.3246324,16.236507892608643,0.005772585763884574,0.09344865938301454,-0.0,0.0006132420154968866,0.01103004975337527,-0.0,0.4598623810517522,0.8676502172298652,-0.00199054560833165,0.0,-0.5,-0.5,-0.20703909492921369,-2.5839545133305486,-0.5043078575886422,-0.07094472477922792,stabilize,85.0,-1.4546005776494313,0.44417582035729,-0.3935040053622533,1.4546005776494313,3.3311190808271323,1.4179651720200541
1761054468.4412136,16.353089094161987,0.005858403085414431,0.09474831040112504,-0.0,0.0010723860535803225,0.013148266147698243,-0.0,0.7066505789372474,3.0025459009284607,0.006953842011456916,0.0,-0.5,0.5,0.04349981081881136,-2.0703508430767283,-0.04323653358979636,0.0399930554381287,stabilize,85.0,-1.4546005776494313,0.44417582035729,-0.3935040053622533,1.4546005776494313,2.9460722616677884,2.8799728302303724
1761054468.540386,16.452261447906494,0.005935903233155231,0.09626614325508528,-0.0,0.0005529324940650132,0.014815604424110843,-0.0,0.3698086964748977,-1.1185212746157063,0.015061947392698418,0.0,0.5,0.5,-0.12938213697556508,-1.9094331555837758,0.36115340533790163,0.022837739948920563,stabilize,85.0,-1.4546005776494313,0.44417582035729,-0.3935040053622533,1.4546005776494313,2.879549791454015,0.7581624686793806
1761054468.648691,16.560566425323486,0.006016847705914941,0.09794334032379468,-0.0,0.0005449625709659034,0.016242290058653127,-0.0,0.5054945823962816,1.0048137465497116,0.021275861499845963,0.0,-0.47095748744566956,-0.5,-0.0998574855378564,-2.0503627034094825,0.36114406798175763,-0.09875850285424474,stabilize,85.0,-1.4546005776494313,0.44417582035729,-0.3935040053622533,1.4546005776494313,2.9377753305763963,1.5612107000949051
1761054468.7573419,16.669217348098755,0.006082140945710579,0.09977419057288361,-0.0,0.0008699486175152904,0.017583009475655557,-0.0,0.4193649151537397,-3.1099134590958952,0.020410464982329093,0.0,0.18576942888367887,0.5,0.17977040378265902,-1.5474496437138388,0.25448284453787606,-0.11630950711130071,stabilize,85.0,-1.4546005776494313,0.44417582035729,-0.3935040053622533,1.4546005776494313,2.485454070439067,2.6777838471168076
1761054468.8651106,16.776986122131348,0.0061434245605197614,0.10175408631705321,-0.0,0.00039797588037258967,0.01895736927371674,-0.0,0.3096921167733083,-0.9211267167025967,0.02314045850810908,0.0,0.5,0.5,-0.3,-1.6886476510764612,0.19728899106410164,-0.11822615330673844,stabilize,85.0,-1.4546005776494313,0.44417582035729,-0.3935040053622533,1.4546005776494313,2.585317954713194,0.5745766705346095
1761054468.9744215,16.88629698753357,0.006216152762422084,0.10387218383697866,-0.0,0.00047232833915308636,0.019649050053174702,-0.0,0.01497189716533405,1.090188682652796,0.02923560954896493,0.0,-0.5,-0.5,-0.02119540804338232,-1.9904569314649623,0.0576948247218479,-0.1146749364728262,stabilize,85.0,-1.4546005776494313,0.44417582035729,-0.3935040053622533,1.4546005776494313,2.8153894480866035,1.5560760365285264
1761054469.0844903,16.996365785598755,0.006280561090806848,0.10598144045851135,-0.0,0.0009173739062331419,0.018533863779594775,-0.0,-0.5283925285433236,3.118774142611161,0.03486342560321361,0.0,0.5,0.5,-0.02752852393065951,-1.987637354758719,0.7804115738876622,-0.060249600083772926,stabilize,85.0,-1.4546005776494313,0.44417582035729,-0.3935040053622533,1.4546005776494313,3.039080083596313,2.7423408455202045
1761054469.194158,17.10603356361389,0.006348883793566133,0.10792538275861822,-0.0,0.0005139706460526722,0.017203942317660894,-0.0,-0.04400787105825168,-1.1237327297900432,0.03847424508364255,0.0,0.44872465706342957,0.5,-0.2749941268212036,-1.8412924707634182,1.2259707455092193,0.0349776051925703,stabilize,85.0,-1.4546005776494313,0.44417582035729,-0.3935040053622533,1.4546005776494313,3.1725237495135175,0.6705642080465328
1761054469.30218,17.21405553817749,0.0064212519413323265,0.10983111683275316,-0.0,0.0004427125310317584,0.01816508805751884,-0.0,0.4274348244890356,1.0397426163324963,0.03772490766147577,0.0,-0.5,-0.5,-0.10471638259781889,-1.8483553867463076,1.3109090171638418,-0.09030459327297911,stabilize,85.0,-1.4546005776494313,0.44417582035729,-0.3935040053622533,1.4546005776494313,3.1657584588667107,1.5640134188013963
1761054469.4101179,17.321993350982666,0.006482098844623531,0.11185607077546979,-0.0,0.0009154223940638347,0.019175744999884867,-0.0,0.14689171177774948,-3.0168026311003375,0.03163172443461809,0.0,-0.5,0.5,-0.3,-1.34926556447892,0.8126755386731095,0.0031694940725640747,stabilize,85.0,-1.4546005776494313,0.44417582035729,-0.3935040053622533,1.4546005776494313,2.6069895809728374,2.5516271141242064
1761054469.5176227,17.429498195648193,0.006544470632106558,0.11391019979373877,-0.0,0.0004065606420337709,0.018608381475121026,-0.0,-0.5877653582503635,-0.7005477075160613,0.021336043205079692,0.0,0.5,0.5,0.00564645476886886,-1.693930431905888,0.7247086921094614,-0.11347493506817459,stabilize,85.0,-1.4546005776494313,0.44417582035729,-0.3935040053622533,1.4546005776494313,2.760528205243129,0.5924372978982932
1761054469.626628,17.538503408432007,0.006619571800441694,0.11580474296278327,-0.0,0.0006559332392548328,0.015981213456174353,-0.0,-0.9620965327017436,1.4164010941681207,0.01216353729204981,0.0,0.5,-0.5,0.043911908387786774,-1.9645215633496023,0.6077772120820809,-0.19788079572578676,stabilize,85.0,-1.4546005776494313,0.44417582035729,-0.3935040053622533,1.4546005776494313,2.895467453272692,2.122209611658425
1761054469.735074,17.646949529647827,0.0066920231906055895,0.1173877472265078,-0.0,0.0009310129761211247,0.013322147929878141,-0.0,-0.7620298694608886,-2.7038308683181924,0.010626573443745957,0.0,-0.5,0.5,0.013046850030687642,-1.9514405591707775,0.09477692164954844,-0.1826212318979969,stabilize,85.0,-1.4546005776494313,0.44417582035729,-0.3935040053622533,1.4546005776494313,2.7559621836238826,2.3447487108213907
1761054469.8442404,17.756115913391113,0.00677276189718893,0.11870145632657812,-0.0,0.000550278116481062,0.010830304519321522,-0.0,-0.6763337370583821,-0.5958179712980565,0.013726598133466954,0.0,0.5,0.5,-0.050264493250709696,-1.5389231136943209,0.3689320522711651,-0.1216051938007516,stabilize,85.0,-1.4546005776494313,0.44417582035729,-0.3935040053622533,1.4546005776494313,2.5081600462446794,0.7155272527562758
1761054469.9529438,17.864819288253784,0.006864766068455589,0.11980661269068937,-0.0,0.0007329014230445653,0.009854448403449933,-0.0,0.10467853875089377,1.4266942082663514,0.02536242660474441,0.0,-0.5,-0.5,-0.03603540379713481,-1.6686143363886128,0.37616252238309833,-0.20711311176081265,stabilize,85.0,-1.4546005776494313,0.44417582035729,-0.3935040053622533,1.4546005776494313,2.5714769662439463,1.903607321265743
1761054470.0639348,17.975810289382935,0.0069471321574424575,0.12094552570085014,-0.0,0.0010994880586325854,0.010922145817009163,-0.0,0.3589144812375367,-2.9601079258636522,0.038049462424352,0.0,-0.5,0.5,-0.2695167292558612,-2.0392801687079976,0.5315073463035397,-0.29138710172162796,stabilize,85.0,-1.4546005776494313,0.44417582035729,-0.3935040053622533,1.4546005776494313,2.894177817777419,2.5013845137624284
1761054470.1733923,18.085267782211304,0.0070262121364850685,0.12218715217221203,-0.0,0.000528689647478806,0.011616668304736958,-0.0,0.1173565694073439,-1.0900817516401256,0.040246604783647846,0.0,0.5,0.5,-0.23375217930079217,-2.461251686645284,0.6474960530706494,-0.3458319460540988,stabilize,85.0,-1.4546005776494313,0.44417582035729,-0.3935040053622533,1.4546005776494313,3.2794142767442915,0.634789816856949
1761054470.281798,18.193673372268677,0.007105045745998342,0.12348952054395138,-0.0,0.0004850644630326466,0.012442357482815395,-0.0,0.34244150044165794,0.8611751846792222,0.03391153990072783,0.0,-0.5,-0.5,-0.2828917755805897,-1.9278524101453747,0.7310142545854544,-0.19605637123337383,stabilize,85.0,-1.4546005776494313,0.44417582035729,-0.3935040053622533,1.4546005776494313,2.9111840825960913,1.3859580077450449
1761054470.3912072,18.303082704544067,0.007176497045012079,0.12489849789642266,-0.0,0.0009506488064904908,0.013298744131679042,-0.0,0.26595462769527756,2.643814466905859,0.022580510236227137,0.0,0.38548915078410273,-0.5,-0.2288241868972486,-2.3774313935050655,0.7737363704124193,-0.14996976843026769,stabilize,85.0,-1.4546005776494313,0.44417582035729,-0.3935040053622533,1.4546005776494313,3.3205389491048787,3.1406562627675316
