timestamp,simulation_time,position_x,position_y,position_z,velocity_x,velocity_y,velocity_z,attitude_roll,attitude_pitch,attitude_yaw,control_throttle,control_roll,control_pitch,control_yaw,flight_mode
1761314403.4746597,0.10656595230102539,0.0,0.0,-0.0,0.0,0.0,-0.0,0.0,0.0,0.0,0.0,0.0,0.0,0.0,manual
1761314403.576945,0.20885133743286133,0.0,0.0,-0.0,0.0,0.0,-0.0,0.0,0.0,0.0,0.0,0.0,0.0,0.0,manual
1761314403.6813917,0.31329798698425293,0.0,0.0,-0.0,0.0,0.0,-0.0,0.0,0.0,0.0,0.0,0.0,0.0,0.0,manual
1761314403.7850752,0.41698145866394043,0.0,0.0,-0.0,0.0,0.0,-0.0,0.0,0.0,0.0,0.0,0.0,0.0,0.0,manual
1761314403.88751,0.519416332244873,0.0,0.0,-0.0,0.0,0.0,-0.0,0.0,0.0,0.0,0.0,0.0,0.0,0.0,manual
1761314403.9906657,0.6225719451904297,0.0,0.0,-0.0,0.0,0.0,-0.0,0.0,0.0,0.0,0.0,0.0,0.0,0.0,manual
1761314404.094577,0.7264833450317383,0.0,0.0,-0.0,0.0,0.0,-0.0,0.0,0.0,0.0,0.0,0.0,0.0,0.0,manual
1761314404.1995625,0.8314688205718994,0.0,0.0,-0.0,0.0,0.0,-0.0,0.0,0.0,0.0,0.0,0.0,0.0,0.0,manual
1761314404.30555,0.9374563694000244,0.0,0.0,-0.0,0.0,0.0,-0.0,0.0,0.0,0.0,0.0,0.0,0.0,0.0,manual
1761314404.4105635,1.0424697399139404,0.0,0.0,-0.0,0.0,0.0,-0.0,0.0,0.0,0.0,0.0,0.0,0.0,0.0,manual
1761314404.5156927,1.1475989818572998,0.0,0.0,-0.0,0.0,0.0,-0.0,0.0,0.0,0.0,0.0,0.0,0.0,0.0,manual
1761314404.6176002,1.2495064735412598,0.0,0.0,-0.0,0.0,0.0,-0.0,0.0,0.0,0.0,0.0,0.0,0.0,0.0,manual
1761314404.7220023,1.3539085388183594,0.0,0.0,-0.0,0.0,0.0,-0.0,0.0,0.0,0.0,0.0,0.0,0.0,0.0,manual
1761314404.8244843,1.456390619277954,0.0,0.0,-0.0,0.0,0.0,-0.0,0.0,0.0,0.0,0.0,0.0,0.0,0.0,manual
1761314404.9282079,1.5601141452789307,0.0,0.0,-0.0,0.0,0.0,-0.0,0.0,0.0,0.0,0.0,0.0,0.0,0.0,manual
1761314405.0337987,1.6657049655914307,0.0,0.0,-0.0,0.0,0.0,-0.0,0.0,0.0,0.0,0.0,0.0,0.0,0.0,manual
1761314405.1373103,1.769216537475586,0.0,0.0,-0.0,0.0,0.0,-0.0,0.0,0.0,0.0,0.0,0.0,0.0,0.0,manual
1761314405.242801,1.8747072219848633,0.0,0.0,-0.0,0.0,0.0,-0.0,0.0,0.0,0.0,0.0,0.0,0.0,0.0,manual
1761314405.348793,1.9806993007659912,0.0,0.0,-0.0,0.0,0.0,-0.0,0.0,0.0,0.0,0.0,0.0,0.0,0.0,manual
1761314405.4534776,2.085383892059326,0.0,0.0,-0.0,0.0,0.0,-0.0,0.0,0.0,0.0,0.0,0.0,0.0,0.0,manual
1761314405.5623553,2.1942615509033203,0.0,0.0,-0.0,0.0,0.0,-0.0,0.0,0.0,0.0,0.0,0.0,0.0,0.0,manual
1761314405.6652393,2.2971456050872803,0.0,0.0,-0.0,0.0,0.0,-0.0,0.0,0.0,0.0,0.0,0.0,0.0,0.0,manual
1761314405.7742743,2.4061806201934814,0.0,0.0,-0.0,0.0,0.0,-0.0,0.0,0.0,0.0,0.0,0.0,0.0,0.0,manual
1761314405.8770356,2.508941888809204,0.0,0.0,-0.0,0.0,0.0,-0.0,0.0,0.0,0.0,0.0,0.0,0.0,0.0,manual
1761314405.9801223,2.6120285987854004,0.0,0.0,-0.0,0.0,0.0,-0.0,0.0,0.0,0.0,0.0,0.0,0.0,0.0,manual
1761314406.0842133,2.7161195278167725,0.0,0.0,-0.0,0.0,0.0,-0.0,0.0,0.0,0.0,0.0,0.0,0.0,0.0,manual
1761314406.1878843,2.8197906017303467,0.0,0.0,-0.0,0.0,0.0,-0.0,0.0,0.0,0.0,0.0,0.0,0.0,0.0,manual
1761314406.295679,2.9275853633880615,0.0,0.0,-0.0,0.0,0.0,-0.0,0.0,0.0,0.0,0.0,0.0,0.0,0.0,manual
1761314406.3975828,3.029489040374756,0.0,0.0,-0.0,0.0,0.0,-0.0,0.0,0.0,0.0,0.0,0.0,0.0,0.0,manual
1761314406.499393,3.1312992572784424,0.0,0.0,-0.0,0.0,0.0,-0.0,0.0,0.0,0.0,0.0,0.0,0.0,0.0,manual
1761314406.6036596,3.2355659008026123,0.0,0.0,-0.0,0.0,0.0,-0.0,0.0,0.0,0.0,0.0,0.0,0.0,0.0,manual
1761314406.7068548,3.3387610912323,0.0,0.0,-0.0,0.0,0.0,-0.0,0.0,0.0,0.0,0.0,0.0,0.0,0.0,manual
1761314406.8088093,3.4407155513763428,0.0,0.0,-0.0,0.0,0.0,-0.0,0.0,0.0,0.0,0.0,0.0,0.0,0.0,manual
1761314406.913594,3.5455002784729004,0.0,0.0,-0.0,0.0,0.0,-0.0,0.0,0.0,0.0,0.0,0.0,0.0,0.0,manual
1761314407.016996,3.648902177810669,0.0,0.0,-0.0,0.0,0.0,-0.0,0.0,0.0,0.0,0.0,0.0,0.0,0.0,manual
1761314407.1230383,3.7549445629119873,0.0,0.0,-0.0,0.0,0.0,-0.0,0.0,0.0,0.0,0.0,0.0,0.0,0.0,manual
1761314407.2260444,3.8579506874084473,0.0,0.0,-0.0,0.0,0.0,-0.0,0.0,0.0,0.0,0.0,0.0,0.0,0.0,manual
1761314407.3262546,3.958160877227783,0.0,0.0,-0.0,0.0,0.0,-0.0,0.0,0.0,0.0,0.0,0.0,0.0,0.0,manual
1761314407.4289556,4.060861825942993,0.0,0.0,-0.0,0.0,0.0,-0.0,0.0,0.0,0.0,0.0,0.0,0.0,0.0,manual
1761314407.5323865,4.164292812347412,0.0,0.0,-0.0,0.0,0.0,-0.0,0.0,0.0,0.0,0.0,0.0,0.0,0.0,manual
1761314407.6369026,4.268808841705322,0.0,0.0,-0.0,0.0,0.0,-0.0,0.0,0.0,0.0,0.0,0.0,0.0,0.0,manual
1761314407.7408614,4.372767686843872,0.0,0.0,-0.0,0.0,0.0,-0.0,0.0,0.0,0.0,0.0,0.0,0.0,0.0,manual
1761314407.8452783,4.477184534072876,0.0,0.0,-0.0,0.0,0.0,-0.0,0.0,0.0,0.0,0.0,0.0,0.0,0.0,manual
1761314407.9495025,4.581408739089966,0.0,0.0,-0.0,0.0,0.0,-0.0,0.0,0.0,0.0,0.0,0.0,0.0,0.0,manual
1761314408.053723,4.685629367828369,0.0,0.0,-0.0,0.0,0.0,-0.0,0.0,0.0,0.0,0.0,0.0,0.0,0.0,manual
1761314408.157106,4.78901219367981,0.0,0.0,-0.0,0.0,0.0,-0.0,0.0,0.0,0.0,0.0,0.0,0.0,0.0,manual
1761314408.2599857,4.891891956329346,0.0,0.0,-0.0,0.0,0.0,-0.0,0.0,0.0,0.0,0.0,0.0,0.0,0.0,manual
1761314408.3643658,4.996272087097168,0.0,0.0,-0.0,0.0,0.0,-0.0,0.0,0.0,0.0,0.0,0.0,0.0,0.0,manual
1761314408.4666188,5.098525047302246,0.0,0.0,-0.0,0.0,0.0,-0.0,0.0,0.0,0.0,0.0,0.0,0.0,0.0,manual
1761314408.5753186,5.2072248458862305,0.0,0.0,-0.0,0.0,0.0,-0.0,0.0,0.0,0.0,0.0,0.0,0.0,0.0,manual
1761314408.6788716,5.310777902603149,0.0,0.0,-0.0,0.0,0.0,-0.0,0.0,0.0,0.0,0.0,0.0,0.0,0.0,manual
1761314408.7833745,5.415280818939209,0.0,0.0,-0.0,0.0,0.0,-0.0,0.0,0.0,0.0,0.0,0.0,0.0,0.0,manual
1761314408.8870733,5.518979549407959,0.0,0.0,-0.0,0.0,0.0,-0.0,0.0,0.0,0.0,0.0,0.0,0.0,0.0,manual
1761314408.9926288,5.624535083770752,0.0,0.0,-0.0,0.0,0.0,-0.0,0.0,0.0,0.0,0.0,0.0,0.0,0.0,manual
1761314409.0953364,5.727242708206177,0.0,0.0,-0.0,0.0,0.0,-0.0,0.0,0.0,0.0,0.0,0.0,0.0,0.0,manual
1761314409.1978679,5.8297741413116455,0.0,0.0,-0.0,0.0,0.0,-0.0,0.0,0.0,0.0,0.0,0.0,0.0,0.0,manual
1761314409.3027658,5.934672117233276,0.0,0.0,-0.0,0.0,0.0,-0.0,0.0,0.0,0.0,0.0,0.0,0.0,0.0,manual
1761314409.4052896,6.037195920944214,0.0,0.0,-0.0,0.0,0.0,-0.0,0.0,0.0,0.0,0.0,0.0,0.0,0.0,manual
1761314409.508829,6.140735387802124,0.0,0.0,-0.0,0.0,0.0,-0.0,0.0,0.0,0.0,0.0,0.0,0.0,0.0,manual
1761314409.61344,6.245346307754517,0.0,0.0,-0.0,0.0,0.0,-0.0,0.0,0.0,0.0,0.0,0.0,0.0,0.0,manual
1761314409.7165992,6.34850549697876,0.0,0.0,-0.0,0.0,0.0,-0.0,0.0,0.0,0.0,0.0,0.0,0.0,0.0,manual
1761314409.8223655,6.4542717933654785,0.0,0.0,-0.0,0.0,0.0,-0.0,0.0,0.0,0.0,0.0,0.0,0.0,0.0,manual
1761314409.9266236,6.558529853820801,0.0,0.0,-0.0,0.0,0.0,-0.0,0.0,0.0,0.0,0.0,0.0,0.0,0.0,manual
1761314410.0304217,6.662328004837036,0.0,0.0,0.0006937410320949983,0.0,0.0,0.12827252121273966,0.0,0.0,0.0,0.9,0.0,0.0,0.0,stabilize
1761314410.1360683,6.767974615097046,0.0,0.0,0.07110905825353962,0.0,0.0,0.9339683728166209,0.0,0.0,0.0,0.5828614927023611,0.0,0.0,0.0,stabilize
1761314410.2421346,6.874040842056274,0.0,0.0,0.17047600280789332,0.0,0.0,0.9473237724222595,0.0,0.0,0.0,0.4,0.0,0.0,0.0,stabilize
1761314410.3427808,6.974687099456787,0.0,0.0,0.26783433955312336,0.0,0.0,0.965697285656125,0.0,0.0,0.0,0.4,0.0,0.0,0.0,stabilize
1761314410.4470189,7.078925132751465,0.0,0.0,0.37023779894793457,0.0,0.0,0.9766448795154848,0.0,0.0,0.0,0.4,0.0,0.0,0.0,stabilize
1761314410.551144,7.183050155639648,0.0,0.0,0.47131389893306735,0.0,0.0,0.9714904079644809,0.0,0.0,0.0,0.49502988852861873,0.0,0.0,0.0,stabilize
1761314410.6560583,7.287964582443237,0.0,0.0,0.5714972334376558,0.0,0.0,0.9414885091374432,0.0,0.0,0.0,0.4248595454195836,0.0,0.0,0.0,stabilize
1761314410.7636309,7.3955371379852295,0.0,0.0,0.671479413101249,0.0,0.0,0.9113856845498677,0.0,0.0,0.0,0.41529608845021654,0.0,0.0,0.0,stabilize
1761314410.8696117,7.50151801109314,0.0,0.0,0.7661128280638289,0.0,0.0,0.8790674665636238,0.0,0.0,0.0,0.4239140493148845,0.0,0.0,0.0,stabilize
1761314410.9729416,7.6048479080200195,0.0,0.0,0.8555799323387745,0.0,0.0,0.8447329852740599,0.0,0.0,0.0,0.4446592614701279,0.0,0.0,0.0,stabilize
1761314411.0780628,7.7099690437316895,0.0,0.0,0.942059340641342,0.0,0.0,0.8069639135129836,0.0,0.0,0.0,0.45921006483595006,0.0,0.0,0.0,stabilize
1761314411.1836445,7.815550804138184,0.0,0.0,1.024633267282327,0.0,0.0,0.7651690668592862,0.0,0.0,0.0,0.45523390147537196,0.0,0.0,0.0,stabilize
1761314411.2896533,7.921559572219849,0.0,0.0,1.1031992452733546,0.0,0.0,0.7204692168907652,0.0,0.0,0.0,0.4,0.0,0.0,0.0,stabilize
1761314411.395744,8.027650356292725,0.0,0.0,1.17737515426866,0.0,0.0,0.6753321671628406,0.0,0.0,0.0,0.4,0.0,0.0,0.0,stabilize
1761314411.5024645,8.134370803833008,0.0,0.0,1.2475813204138955,0.0,0.0,0.6412491215643745,0.0,0.0,0.0,0.4559825020818524,0.0,0.0,0.0,stabilize
1761314411.6085036,8.240409851074219,0.0,0.0,1.312917057241769,0.0,0.0,0.5944680361718949,0.0,0.0,0.0,0.4,0.0,0.0,0.0,stabilize
1761314411.7136745,8.345580816268921,0.0,0.0,1.3735472383425447,0.0,0.0,0.5626051133694787,0.0,0.0,0.0,0.4671957051227594,0.0,0.0,0.0,stabilize
1761314411.8175795,8.449485778808594,0.0,0.0,1.4295729353615831,0.0,0.0,0.5268186697535446,0.0,0.0,0.0,0.47204530425161273,0.0,0.0,0.0,stabilize
1761314411.9230974,8.555003643035889,0.0,0.0,1.4827049784216202,0.0,0.0,0.4825694597873886,0.0,0.0,0.0,0.4,0.0,0.0,0.0,stabilize
1761314412.0286546,8.660560846328735,0.0,0.0,1.5321841674482277,0.0,0.0,0.45005127192912187,0.0,0.0,0.0,0.4,0.0,0.0,0.0,stabilize
1761314412.1333182,8.76522445678711,0.0,0.0,1.5777061595852795,0.0,0.0,0.41588405922557226,0.0,0.0,0.0,0.4,0.0,0.0,0.0,stabilize
1761314412.2396452,8.871551513671875,0.0,0.0,1.6206744591582023,0.0,0.0,0.3877819551015205,0.0,0.0,0.0,0.4,0.0,0.0,0.0,stabilize
1761314412.34374,8.975646257400513,0.0,0.0,1.6595607651512663,0.0,0.0,0.3560933143122464,0.0,0.0,0.0,0.4087716140049583,0.0,0.0,0.0,stabilize
1761314412.448981,9.08088731765747,0.0,0.0,1.6960404614915245,0.0,0.0,0.33129800296225687,0.0,0.0,0.0,0.42307112482825426,0.0,0.0,0.0,stabilize
1761314412.5541356,9.186041831970215,0.0,0.0,1.7297082904545544,0.0,0.0,0.31381030165624363,0.0,0.0,0.0,0.4761375957890071,0.0,0.0,0.0,stabilize
1761314412.6597881,9.291694402694702,0.0,0.0,1.7609433676853354,0.0,0.0,0.28327001154570586,0.0,0.0,0.0,0.43337660225168895,0.0,0.0,0.0,stabilize
1761314412.765522,9.397428274154663,0.0,0.0,1.7897475884382648,0.0,0.0,0.2669718709643357,0.0,0.0,0.0,0.4736253177148607,0.0,0.0,0.0,stabilize
1761314412.8694932,9.501399517059326,0.0,0.0,1.815981258574084,0.0,0.0,0.2410140372579379,0.0,0.0,0.0,0.42593148960100835,0.0,0.0,0.0,stabilize
1761314412.9746752,9.606581449508667,0.0,0.0,1.8404554973264613,0.0,0.0,0.21920978582033582,0.0,0.0,0.0,0.4109777209925113,0.0,0.0,0.0,stabilize
1761314413.0771055,9.709011793136597,0.0,0.0,1.8623660321231328,0.0,0.0,0.20986032195858942,0.0,0.0,0.0,0.47789254275584797,0.0,0.0,0.0,stabilize
1761314413.1822155,9.814121723175049,0.0,0.0,1.883001008301492,0.0,0.0,0.18701376522039023,0.0,0.0,0.0,0.436080468223776,0.0,0.0,0.0,stabilize
1761314413.2891326,9.92103886604309,0.0,0.0,1.9021679959270787,0.0,0.0,0.1790098235115815,0.0,0.0,0.0,0.4850905801762652,0.0,0.0,0.0,stabilize
1761314413.3939645,10.02587080001831,0.0,0.0,1.9194621260964586,0.0,0.0,0.15483336114315646,0.0,0.0,0.0,0.41527073948563,0.0,0.0,0.0,stabilize
1761314413.5002244,10.13213062286377,0.0,0.0,1.9356448777263444,0.0,0.0,0.14170288208205828,0.0,0.0,0.0,0.4,0.0,0.0,0.0,stabilize
1761314413.6060376,10.237943887710571,0.0,0.0,1.9505374943267495,0.0,0.0,0.14111580856919803,0.0,0.0,0.0,0.4864998050583129,0.0,0.0,0.0,stabilize
1761314413.7109747,10.342880964279175,0.0,0.0,1.9641394941889099,0.0,0.0,0.12293461585210148,0.0,0.0,0.0,0.4399655121603912,0.0,0.0,0.0,stabilize
1761314413.8129566,10.444862842559814,0.0,0.0,1.9761770116989026,0.0,0.0,0.11518631196247547,0.0,0.0,0.0,0.4567355985113133,0.0,0.0,0.0,stabilize
1761314413.9164975,10.5484037399292,0.0,0.0,1.9874481083618791,0.0,0.0,0.10577395384527277,0.0,0.0,0.0,0.4558557732057934,0.0,0.0,0.0,stabilize
1761314414.0210233,10.652929544448853,0.0,0.0,1.9979807149388495,0.0,0.0,0.09422483629016398,0.0,0.0,0.0,0.4,0.0,0.0,0.0,stabilize
1761314414.1272147,10.75912094116211,0.0,0.0,2.0076468965922007,0.0,0.0,0.08274865222318584,0.0,0.0,0.0,0.4,0.0,0.0,0.0,stabilize
1761314414.2337568,10.865663051605225,0.0,0.0,2.0165369224617606,0.0,0.0,0.07984271057293871,0.0,0.0,0.0,0.4,0.0,0.0,0.0,stabilize
1761314414.3404744,10.972380638122559,0.0,0.0,2.024607509928726,0.0,0.0,0.0770996453366593,0.0,0.0,0.0,0.48039224311435214,0.0,0.0,0.0,stabilize
1761314414.4454615,11.077367782592773,0.0,0.0,2.0318781040235967,0.0,0.0,0.07150275015024717,0.0,0.0,0.0,0.4810664204612073,0.0,0.0,0.0,stabilize
1761314414.5490317,11.180938005447388,0.0,0.0,2.0384297152230437,0.0,0.0,0.05759488755999439,0.0,0.0,0.0,0.43001473223823883,0.0,0.0,0.0,stabilize
1761314414.6558797,11.28778600692749,0.0,0.0,2.0445897971866023,0.0,0.0,0.049870698857237286,0.0,0.0,0.0,0.41168077973823275,0.0,0.0,0.0,stabilize
1761314414.7612593,11.393165588378906,0.0,0.0,2.0501620343783586,0.0,0.0,0.04610770083116683,0.0,0.0,0.0,0.4,0.0,0.0,0.0,stabilize
1761314414.8664844,11.498390674591064,0.0,0.0,2.0551635590270227,0.0,0.0,0.045779733596621956,0.0,0.0,0.0,0.45471306176102716,0.0,0.0,0.0,stabilize
1761314414.9706533,11.602559566497803,0.0,0.0,2.0595396756577378,0.0,0.0,0.048752921221403185,0.0,0.0,0.0,0.5051454730384852,0.0,0.0,0.0,stabilize
1761314415.0760214,11.707927703857422,0.0,0.0,2.063640915207785,0.0,0.0,0.036903033472219085,0.0,0.0,0.0,0.4,0.0,0.0,0.0,stabilize
1761314415.181177,11.813083171844482,0.0,0.0,2.0673441023475587,0.0,0.0,0.030599215499091382,0.0,0.0,0.0,0.4217839846412196,0.0,0.0,0.0,stabilize
1761314415.282077,11.913983345031738,0.0,0.0,2.071085687743914,0.0,0.0,0.04463990240208279,0.0,0.0,0.0,0.5071621662503409,0.0,0.0,0.0,stabilize
1761314415.3872359,12.019142150878906,0.0,0.0,2.0746710262940113,0.0,0.0,0.029461472886989103,0.0,0.0,0.0,0.4,0.0,0.0,0.0,stabilize
1761314415.4933476,12.125253915786743,0.0,0.0,2.0776754900788066,0.0,0.0,0.020989682337614272,0.0,0.0,0.0,0.41195689037205985,0.0,0.0,0.0,stabilize
1761314415.5986753,12.230581521987915,0.0,0.0,2.0802708618173957,0.0,0.0,0.021965845301178292,0.0,0.0,0.0,0.441310360414774,0.0,0.0,0.0,stabilize
1761314415.7026396,12.334545850753784,0.0,0.0,2.0823770504563432,0.0,0.0,0.01603248030820165,0.0,0.0,0.0,0.4284858546209741,0.0,0.0,0.0,stabilize
1761314415.808485,12.440391302108765,0.0,0.0,2.0842148184766605,0.0,0.0,0.020841405938481727,0.0,0.0,0.0,0.48086414321343973,0.0,0.0,0.0,stabilize
1761314415.9119027,12.543808937072754,0.0,0.0,2.085780266883495,0.0,0.0,0.00995947197404336,0.0,0.0,0.0,0.42412560289834794,0.0,0.0,0.0,stabilize
1761314416.0183861,12.65029239654541,0.0,0.0,2.0871355081174094,0.0,0.0,0.01245986353498255,0.0,0.0,0.0,0.4523439674243339,0.0,0.0,0.0,stabilize
1761314416.1268249,12.758731126785278,0.0,0.0,2.0883050566089416,0.0,0.0,0.01607988858465928,0.0,0.0,0.0,0.48820879201882533,0.0,0.0,0.0,stabilize
1761314416.2307208,12.862627029418945,0.0,0.0,2.089246590895465,0.0,0.0,0.0021365201818613613,0.0,0.0,0.0,0.40560743045037373,0.0,0.0,0.0,stabilize
1761314416.3368175,12.968723773956299,0.0,0.0,2.0900376200522195,0.0,0.0,0.012776675795797738,0.0,0.0,0.0,0.494581394824846,0.0,0.0,0.0,stabilize
1761314416.4423616,13.074267864227295,0.0,0.0,2.09076148331423,0.0,0.0,0.015481268084041395,0.0,0.0,0.0,0.5064921719792986,0.0,0.0,0.0,stabilize
1761314416.5485198,13.180426120758057,0.0,0.0,2.0914876988220863,0.0,0.0,0.001727134546892997,0.0,0.0,0.0,0.4225246970364451,0.0,0.0,0.0,stabilize
1761314416.651117,13.283023357391357,0.0,0.0,2.0920327018537046,0.0,0.0,-7.376922892862563e-05,0.0,0.0,0.0,0.4,0.0,0.0,0.0,stabilize
1761314416.762366,13.394272327423096,0.0,0.0,2.092464806815794,0.0,0.0,-0.004446839661005547,0.0,0.0,0.0,0.4084884551894237,0.0,0.0,0.0,stabilize
1761314416.8684137,13.500319957733154,0.0,0.0,2.0926755225543414,0.0,0.0,-0.0007110812705608568,0.0,0.0,0.0,0.43959590225660433,0.0,0.0,0.0,stabilize
1761314416.9738793,13.605785608291626,0.0,0.0,2.092599293304602,0.0,0.0,-0.006539163506456445,0.0,0.0,0.0,0.4,0.0,0.0,0.0,stabilize
1761314417.0806115,13.712517738342285,0.0,0.0,2.092525651492343,0.0,0.0,-0.002651391569666761,0.0,0.0,0.0,0.4384647514101278,0.0,0.0,0.0,stabilize
1761314417.1863015,13.818207740783691,0.0,0.0,2.0922937582484393,0.0,0.0,2.3677834485838663e-05,0.0,0.0,0.0,0.4643845172634673,0.0,0.0,0.0,stabilize
1761314417.2921057,13.924011945724487,0.0,0.0,2.0920691652460155,0.0,0.0,-0.003017527491340668,0.0,0.0,0.0,0.4486234303316281,0.0,0.0,0.0,stabilize
1761314417.3976026,14.029508829116821,0.0,0.0,2.0917768588099994,0.0,0.0,-0.005621152874418796,0.0,0.0,0.0,0.4,0.0,0.0,0.0,stabilize
1761314417.5024128,14.134319067001343,0.0,0.0,2.0915805107810654,0.0,0.0,0.007047776953848801,0.0,0.0,0.0,0.507200705341868,0.0,0.0,0.0,stabilize
1761314417.6087666,14.240672826766968,0.0,0.0,2.0913730534391592,0.0,0.0,-0.004251953547103018,0.0,0.0,0.0,0.4386818769862244,0.0,0.0,0.0,stabilize
1761314417.712002,14.343908309936523,0.0,0.0,2.091031811549287,0.0,0.0,-0.0003588488745872292,0.0,0.0,0.0,0.46705234043109933,0.0,0.0,0.0,stabilize
1761314417.8186939,14.450600147247314,0.0,0.0,2.0907063817412275,0.0,0.0,0.006886791599899661,0.0,0.0,0.0,0.511360193658369,0.0,0.0,0.0,stabilize
1761314417.9243476,14.556253910064697,0.0,0.0,2.0905345237054376,0.0,0.0,-0.008483258252924376,0.0,0.0,0.0,0.4,0.0,0.0,0.0,stabilize
1761314418.030524,14.66243028640747,0.0,0.0,2.090410855468154,0.0,0.0,0.005864400704975301,0.0,0.0,0.0,0.5051506725569903,0.0,0.0,0.0,stabilize
1761314418.1347108,14.766617059707642,0.0,0.0,2.0901208816384544,0.0,0.0,-0.009573528725572768,0.0,0.0,0.0,0.4,0.0,0.0,0.0,stabilize
1761314418.243774,14.875680208206177,0.0,0.0,2.0898624040546814,0.0,0.0,-0.009531296255051051,0.0,0.0,0.0,0.4044560106831665,0.0,0.0,0.0,stabilize
1761314418.3484793,14.980385541915894,0.0,0.0,2.0895579105529283,0.0,0.0,-0.009341434032573533,0.0,0.0,0.0,0.4,0.0,0.0,0.0,stabilize
1761314418.451843,15.083749294281006,0.0,0.0,2.0893843070064255,0.0,0.0,-0.0036925478708099545,0.0,0.0,0.0,0.4,0.0,0.0,0.0,stabilize
1761314418.5579765,15.189882755279541,0.0,0.0,2.0891077417663704,0.0,0.0,-0.008146538498442078,0.0,0.0,0.0,0.4160871234911321,0.0,0.0,0.0,stabilize
1761314418.6640565,15.295962810516357,0.0,0.0,2.088837716725665,0.0,0.0,-0.0004156812093163353,0.0,0.0,0.0,0.4681654090701238,0.0,0.0,0.0,stabilize
1761314418.768451,15.400357246398926,0.0,0.0,2.0885432903814474,0.0,0.0,-0.0068030312484518895,0.0,0.0,0.0,0.4,0.0,0.0,0.0,stabilize
1761314418.8750594,15.506965637207031,0.0,0.0,2.0882747892028846,0.0,0.0,0.0068328795298384076,0.0,0.0,0.0,0.5145647798865463,0.0,0.0,0.0,stabilize
1761314418.9751935,15.607099771499634,0.0,0.0,2.0873670577923154,0.0,0.0,0.059157462088401606,0.0,0.0,0.0,0.7723746047201159,0.0,0.0,0.0,stabilize
1761314419.0861838,15.718090057373047,0.0,0.0,2.0893666119477174,0.0,0.0,0.0007554475802673362,0.0,0.0,0.0,0.4475468710680669,0.0,0.0,0.0,stabilize
1761314419.1906347,15.822540998458862,0.0,0.0,2.0895576769146165,0.0,0.0,0.008739409137819808,0.0,0.0,0.0,0.5012158578521942,0.0,0.0,0.0,stabilize
1761314419.2939105,15.925816774368286,0.0,0.0,2.0897574613529555,0.0,0.0,0.012361124959103038,0.0,0.0,0.0,0.46435958457613347,0.0,0.0,0.0,stabilize
1761314419.401226,16.033132314682007,0.0,0.0,2.0922461696758465,0.0,0.0,0.01128241962967582,0.0,0.0,0.0,0.4,0.0,0.0,0.0,stabilize
1761314419.5068073,16.138713598251343,0.0005577542272532736,0.0,2.106532880795606,0.03892260356560424,0.0,0.5477549766427008,0.0,-0.09310403840484366,0.0,0.9,0.0,-0.2,0.0,auto
1761314419.6123638,16.244270086288452,0.02381792150323287,0.0,2.2190544109988934,0.44118787187805886,0.0,1.4219409572006356,0.0,-0.3304131066208066,0.0,0.5989243678986074,0.0,0.015545832094103929,0.0,auto
1761314419.7181919,16.350098133087158,0.0925630832301225,0.0,2.3843043207391035,0.8054915750354201,0.0,1.689051403497123,0.0,-0.15576638562781883,0.0,0.575256938120484,0.0,0.15661203461437043,0.0,auto
1761314419.8233817,16.45528793334961,0.1870168776946791,0.0,2.5746109681645386,1.0098872495498419,0.0,1.9528380100762854,0.0,-0.1667900674733685,0.0,0.7312409833713976,0.0,0.2,0.0,auto
1761314419.9292428,16.56114912033081,0.30177325433096097,0.0,2.789509075701844,1.1687191831242332,0.0,2.122621354165034,0.0,-0.1560727507170576,0.0,0.4,0.0,0.2,0.0,auto
1761314420.035889,16.667795181274414,0.43327373388069945,0.0,3.0243377413568995,1.2991875588520048,0.0,2.280384354273287,0.0,-0.14702361614527115,0.0,0.4,0.0,0.2,0.0,auto
1761314420.1430888,16.77499508857727,0.5786315306418903,0.0,3.276292706348521,1.4058627371448411,0.0,2.4140416311296375,0.0,-0.12944361789658906,0.0,0.5216526495745241,0.0,0.11475015165269395,0.0,auto
1761314420.249582,16.88148832321167,0.733602215951635,0.0,3.5395303419928235,1.493089210062856,0.0,2.5371621803199838,0.0,-0.10536441988751905,0.0,0.5978367131029367,0.0,-0.008055204559326536,0.0,auto
1761314420.353619,16.985525369644165,0.8933215305891574,0.0,3.8075601943949926,1.5620219142800298,0.0,2.617105468919863,0.0,-0.07658708683511256,0.0,0.4,0.0,-0.11477331226171134,0.0,auto
1761314420.4569156,17.08882188796997,1.0585533424793598,0.0,4.082244238970205,1.6216665452098609,0.0,2.69010925794821,0.0,-0.051765767273758916,0.0,0.4,0.0,-0.18538112393846257,0.0,auto
1761314420.562014,17.193920373916626,1.232309807358808,0.0,4.369431932222253,1.671289420390432,0.0,2.7558950179594883,0.0,-0.019427639682418903,0.0,0.4259753309588614,0.0,-0.15877628309812652,0.0,auto
1761314420.6677334,17.29963970184326,1.4095534559267742,0.0,4.664839539729008,1.6758528952604093,0.0,2.844640375956624,0.0,-0.005891659854331383,0.0,0.6212250082458615,0.0,-0.13447691921127775,0.0,auto
1761314420.7731245,17.405030727386475,1.586136263071247,0.0,4.9651372912804845,1.6729686612696117,0.0,2.8579881316961635,0.0,-0.007327162343306252,0.0,0.4,0.0,-0.04464746204938681,0.0,auto
1761314420.8797853,17.511691570281982,1.7641672839564815,0.0,5.27391816776992,1.665037978026021,0.0,2.9032416444790203,0.0,-0.0032068744648205113,0.0,0.4,0.0,0.05274728487338878,0.0,auto
1761314420.983645,17.615551233291626,1.9361221532555064,0.0,5.578189463426588,1.652428569910153,0.0,2.933665574740629,0.0,-0.01189909271213804,0.0,0.40266685817798115,0.0,0.08454444187122563,0.0,auto
1761314421.0905654,17.722471714019775,2.111436180224358,0.0,5.895068702574885,1.6283729639749127,0.0,2.9701316867455763,0.0,-0.0015576750150640617,0.0,0.4485149377082641,0.0,0.042018422474097004,0.0,auto
1761314421.1956496,17.827555894851685,2.2813410918485117,0.0,6.20914955075983,1.6057150287853017,0.0,2.9897727542413195,0.0,-0.004163925114782611,0.0,0.4,0.0,-0.020522661873968465,0.0,auto
1761314421.3013334,17.933239698410034,2.449165025227386,0.0,6.525910079289771,1.581882671803772,0.0,3.03695063836991,0.0,0.008869508262595591,0.0,0.5856317774762397,0.0,-0.022655626237466846,0.0,auto
1761314421.4063532,18.038259506225586,2.6148931779068887,0.0,6.845862718563529,1.5567927734113338,0.0,3.0497256447932948,0.0,0.011051494390266097,0.0,0.5450396096488883,0.0,-0.07266322662148872,0.0,auto
1761314421.5125697,18.14447593688965,2.778973683418156,0.0,7.1696453722695646,1.5304496476318006,0.0,3.056597082831415,0.0,0.013014596418344234,0.0,0.5001037726076923,0.0,-0.015120940755896005,0.0,auto
1761314421.617631,18.249537229537964,2.938304463033407,0.0,7.4913481430199695,1.5018652107679202,0.0,3.0621644642726786,0.0,0.013608873768448208,0.0,0.4476094204511874,0.0,-0.07975696859304171,0.0,auto
1761314421.7225187,18.354424953460693,3.0937399666986116,0.0,7.812021052917522,1.474814993576278,0.0,3.080538270358063,0.0,0.0175295334173987,0.0,0.5048433475832725,0.0,-0.04777131434177714,0.0,auto
1761314421.8266757,18.458581924438477,3.246688935340645,0.0,8.134480906523436,1.4482872877759079,0.0,3.0810439226758697,0.0,0.02405619226834325,0.0,0.4,0.0,-0.03860266466357131,0.0,auto
1761314421.9323835,18.564289808273315,3.398134126705167,0.0,8.460924106174907,1.420190995067877,0.0,3.091372601003324,0.0,0.02421916585310046,0.0,0.47116081625832135,0.0,-0.0829197830600503,0.0,auto
1761314422.0369298,18.66883611679077,3.544809325014519,0.0,8.784402578589338,1.3918470929003781,0.0,3.103728072859352,0.0,0.012408261028881798,0.0,0.5206421182324,0.0,0.027193975953374132,0.0,auto
1761314422.1401238,18.772030115127563,3.6866392473887077,0.0,9.104280040919416,1.3641400423889567,0.0,3.0935137996617095,0.0,0.003054329797463578,0.0,0.40512819828488966,0.0,0.11531553825036817,0.0,auto
1761314422.245218,18.877124309539795,3.8281462107624287,0.0,9.430609989278677,1.3346798890392186,0.0,3.1041405331441747,0.0,-0.0034810936080273774,0.0,0.4,0.0,0.09431894918396756,0.0,auto
1761314422.349259,18.981165170669556,3.9653086635290316,0.0,9.753769052491593,1.3044848231451398,0.0,3.1109299916248907,0.0,-0.005545691444116658,0.0,0.4911351910548825,0.0,0.08499018564125851,0.0,auto
1761314422.454796,19.086702346801758,4.101516647142667,0.0,10.082280910022245,1.2741992143833545,0.0,3.1058895595433587,0.0,0.0016081125379262323,0.0,0.42580020012451864,0.0,-0.0008815010243248276,0.0,auto
1761314422.5598512,19.191757440567017,4.234095828984323,0.0,10.409207806707366,1.2480760237850848,0.0,3.110300744174279,0.0,0.007779296013154196,0.0,0.4,0.0,0.021562766732904567,0.0,auto
1761314422.6656322,19.29753851890564,4.36481477941205,0.0,10.73879313858673,1.2214601046485905,0.0,3.1174875835577787,0.0,0.008912359566646856,0.0,0.4,0.0,-0.006557771267044041,0.0,auto
1761314422.771036,19.402942180633545,4.492098862401209,0.0,11.067404827858763,1.1943846651047467,0.0,3.11819164733258,0.0,0.00440774417989211,0.0,0.47447650987541257,0.0,0.057034105554766,0.0,auto
1761314422.8777368,19.509643077850342,4.618095809565908,0.0,11.400031697257845,1.1664727794630598,0.0,3.1118972263541544,0.0,0.004640757431822441,0.0,0.4433057960561627,0.0,-0.001519341746831643,0.0,auto
1761314422.9808786,19.61278486251831,4.7371631806901595,0.0,11.721493457514834,1.140227838023183,0.0,3.1134130985711073,0.0,0.006146277448188395,0.0,0.45038932838266094,0.0,-0.02822361800841195,0.0,auto
1761314423.0867186,19.71862483024597,4.856791126467557,0.0,12.051251707257068,1.116543560708649,0.0,3.106004878942192,0.0,0.01277167396754882,0.0,0.4,0.0,-0.05369479653495389,0.0,auto
1761314423.1917636,19.823669910430908,4.972874715449605,0.0,12.378760717211911,1.0907089141047437,0.0,3.126400351981388,0.0,0.015109758590076797,0.0,0.5276181546293575,0.0,-0.08497826962381694,0.0,auto
1761314423.2954307,19.927336931228638,5.084893287803256,0.0,12.702013581639363,1.0682311992325881,0.0,3.1078710335797193,0.0,0.015403653351547966,0.0,0.4,0.0,-0.02844748181562195,0.0,auto
1761314423.3994868,20.03139305114746,5.194865026918077,0.0,13.02653965132214,1.0454472901764362,0.0,3.110163161656611,0.0,0.016477963952365168,0.0,0.4,0.0,-0.019228170340361405,0.0,auto
1761314423.5037217,20.13562798500061,5.302555722711967,0.0,13.351808210906864,1.0218168550681428,0.0,3.1222130523800535,0.0,0.016425367259810954,0.0,0.48244596662337924,0.0,-0.012871655108811515,0.0,auto
1761314423.6075695,20.2394757270813,5.407450613214204,0.0,13.675738811494766,0.9994436814903466,0.0,3.1277428657677007,0.0,0.017094125308303263,0.0,0.5354891070823482,0.0,-0.01588022984417598,0.0,auto
1761314423.7127936,20.34469985961914,5.51137231844142,0.0,14.004092773899972,0.9788345921082553,0.0,3.1238653771761413,0.0,0.013862356213319072,0.0,0.4,0.0,0.03835959906547376,0.0,auto
1761314423.8180928,20.4499990940094,5.612973953734843,0.0,14.33265111644488,0.9566082580161117,0.0,3.117876782891667,0.0,0.004222977052378272,0.0,0.4,0.0,0.05658092638640664,0.0,auto
1761314423.9228814,20.554787635803223,5.711847482695782,0.0,14.659268102450302,0.935259698187316,0.0,3.117095627878126,0.0,-0.0017119556489402707,0.0,0.46967426850346444,0.0,0.1072136477904237,0.0,auto
1761314424.0252166,20.65712285041809,5.80625127708044,0.0,14.978087222795459,0.9139137506300379,0.0,3.1296290519147183,0.0,-0.009928385007152466,0.0,0.561745407661674,0.0,0.10676904673366944,0.0,auto
1761314424.1342585,20.766164779663086,5.904328308196457,0.0,15.318866981964922,0.8812170655443001,0.0,3.1246342910296008,0.0,-0.01683069988048124,0.0,0.48269274631160747,0.0,0.015885481617191076,0.0,auto
1761314424.2395008,20.87140703201294,5.99677034512202,0.0,15.647611723354043,0.86263943921143,0.0,3.117035481347322,0.0,0.006161083444303817,0.0,0.4,0.0,-0.11676300453921684,0.0,auto
1761314424.3473015,20.979207754135132,6.089449438559883,0.0,15.98412400945107,0.841615818023713,0.0,3.114635383073979,0.0,0.041735624783003605,0.0,0.4075424180179199,0.0,-0.2,0.0,auto
1761314424.451144,21.08305025100708,6.176342250278008,0.0,16.307974530221998,0.8320671613925661,0.0,3.1143699268729814,0.0,0.03981154047848114,0.0,0.4,0.0,-0.0964440818395956,0.0,auto
1761314424.5567756,21.188681840896606,6.262883429763916,0.0,16.63728320446213,0.8179051708432359,0.0,3.12325939720168,0.0,0.018392256120454115,0.0,0.5158208552262681,0.0,0.09327323770664925,0.0,auto
1761314424.659262,21.291168212890625,6.345026074118765,0.0,16.956694352407194,0.7995744308688385,0.0,3.1121022765517297,0.0,-0.011551778698395205,0.0,0.4,0.0,0.2,0.0,auto
1761314424.760452,21.39235830307007,6.424556960198842,0.0,17.2719200156983,0.7779254261348303,0.0,3.112383923715403,0.0,-0.005652408225837556,0.0,0.4,0.0,0.2,0.0,auto
1761314424.864993,21.496899366378784,6.504426658009719,0.0,17.597339456318537,0.7602519047293975,0.0,3.113057655667285,0.0,-0.025309113751131016,0.0,0.4,0.0,0.2,0.0,auto
1761314424.970834,21.60274028778076,6.583795245323487,0.0,17.926611649047917,0.740792616764904,0.0,3.118774044823307,0.0,-0.02269967111234998,0.0,0.5168086331916526,0.0,0.1328867967612518,0.0,auto
1761314425.0766976,21.708603858947754,6.661439665713807,0.0,18.255771109590842,0.7219434671007866,0.0,3.0981911941449507,0.0,-0.017822085413850827,0.0,0.4026407734606387,0.0,0.035570359092332325,0.0,auto
1761314425.1821866,21.814092874526978,6.737185935201303,0.0,18.583936484748698,0.7039758843843542,0.0,3.1024251804560032,0.0,-0.0039661197600136125,0.0,0.4,0.0,-0.11473688354301145,0.0,auto
1761314425.2874362,21.919342517852783,6.811114821100944,0.0,18.91131352212727,0.688393059355321,0.0,3.1052150373999936,0.0,0.015507574346999122,0.0,0.4,0.0,-0.15864729454111828,0.0,auto
1761314425.3932424,22.025148630142212,6.8837330058396615,0.0,19.240394063796003,0.6750305375944532,0.0,3.1068237842432107,0.0,0.025881572875169317,0.0,0.4311770000177785,0.0,-0.1699974079630392,0.0,auto
1761314425.4987383,22.13064455986023,6.95447631266335,0.0,19.568382026106875,0.6618992080057479,0.0,3.106460976531054,0.0,0.030279486219007657,0.0,0.4473511173522338,0.0,-0.1409514683130842,0.0,auto
1761314425.604309,22.236215353012085,7.023663043180035,0.0,19.896471547853288,0.6489570188719184,0.0,3.116903416291721,0.0,0.031226675667074585,0.0,0.5298792797292087,0.0,-0.09662462967233798,0.0,auto
1761314425.7095854,22.34149169921875,7.091073509205912,0.0,20.22341113201508,0.6367333251637007,0.0,3.0967865507032504,0.0,0.024329405357202443,0.0,0.4,0.0,-0.028093586166770032,0.0,auto
1761314425.8160465,22.44795274734497,7.157707770970201,0.0,20.553956177054058,0.6244751548508223,0.0,3.0968975410798234,0.0,0.01045260111695093,0.0,0.4214717662456479,0.0,0.12082622005600524,0.0,auto
1761314425.9188902,22.550796508789062,7.220517829224806,0.0,20.873017918108964,0.6099930187417444,0.0,3.106696627479995,0.0,-0.013804336145600234,0.0,0.4798362274149164,0.0,0.2,0.0,auto
1761314426.0242112,22.65611743927002,7.283213866540306,0.0,21.198185495712004,0.5942632091216484,0.0,3.0992999172162405,0.0,-0.024707638376145334,0.0,0.4,0.0,0.19794889278626113,0.0,auto
1761314426.129199,22.76110529899597,7.34498262982736,0.0,21.52529844838251,0.5773651533677838,0.0,3.0967977457744666,0.0,-0.025891692335883308,0.0,0.44419227197173383,0.0,0.10842447613640377,0.0,auto
1761314426.2348518,22.866758108139038,7.404930991430584,0.0,21.849761763646693,0.5617799966743984,0.0,3.106582026333103,0.0,-0.01672776043850357,0.0,0.5172104707616864,0.0,-0.005152596590048492,0.0,auto
1761314426.3386629,22.970569133758545,7.46372039807447,0.0,22.174666396617674,0.5479942733474227,0.0,3.091165255466046,0.0,0.004149548939618379,0.0,0.4,0.0,-0.11368050033149857,0.0,auto
1761314426.4418094,23.073715686798096,7.520239273571905,0.0,22.49436811618185,0.5372508697153537,0.0,3.0983757781018983,0.0,0.022238586755137166,0.0,0.4451924948659767,0.0,-0.1914338918263116,0.0,auto
1761314426.5488653,23.180771589279175,7.577638983321754,0.0,22.826266627884028,0.5272347066333601,0.0,3.1043057673177756,0.0,0.03199711993367782,0.0,0.4,0.0,-0.18387092765780133,0.0,auto
1761314426.6530724,23.28497862815857,7.632152747001216,0.0,23.149237279180856,0.5181577371471561,0.0,3.1038743786414034,0.0,0.029947465610506492,0.0,0.5011121985838992,0.0,-0.10386989584931754,0.0,auto
1761314426.758399,23.390305280685425,7.686003122575799,0.0,23.475571694849275,0.5089941341610319,0.0,3.0903136874078063,0.0,0.02383113225795419,0.0,0.4,0.0,-0.02526462625550007,0.0,auto
1761314426.8631814,23.49508762359619,7.738053241381168,0.0,23.798524615485235,0.49827276137081583,0.0,3.0869464573774112,0.0,0.009699832664978614,0.0,0.40767334162587365,0.0,0.06214063231288411,0.0,auto
1761314426.9684649,23.60037112236023,7.7896696052301335,0.0,24.12618547307194,0.4860306942201773,0.0,3.105752244023597,0.0,-0.001386401868734538,0.0,0.5284799496367238,0.0,0.10345032920066169,0.0,auto
1761314427.0745873,23.706493616104126,7.840261290788666,0.0,24.454613549526144,0.4749734357544405,0.0,3.1034080751857585,0.0,-0.0099490186329986,0.0,0.5197192658534111,0.0,0.13868726046130725,0.0,auto
1761314427.1799133,23.811819553375244,7.889348844053658,0.0,24.780348274580955,0.46235001317128666,0.0,3.0891733285391942,0.0,-0.015143057943308039,0.0,0.4,0.0,0.12669819420726938,0.0,auto
1761314427.2855203,23.917426586151123,7.937443172389599,0.0,25.106993955595467,0.44900739488163877,0.0,3.093343381294074,0.0,-0.016334248960515132,0.0,0.47040842701333535,0.0,0.06481841440770121,0.0,auto
1761314427.3907025,24.022608757019043,7.984302689956342,0.0,25.43228826631741,0.43678709102796953,0.0,3.083215443671116,0.0,-0.009379414251430834,0.0,0.4,0.0,-0.003501804268893016,0.0,auto
1761314427.4953752,24.127281427383423,8.029907158467644,0.0,25.756146435706313,0.42635147593503303,0.0,3.08988971617062,0.0,0.0032114947677842776,0.0,0.4,0.0,-0.09345038405643873,0.0,auto
1761314427.60172,24.23362636566162,8.075200140734948,0.0,26.08484926168137,0.41695655814556487,0.0,3.0948141863651846,0.0,0.014147752909518857,0.0,0.48951479811092224,0.0,-0.12774681562065748,0.0,auto
1761314427.708272,24.34017825126648,8.119520833589503,0.0,26.414121354418064,0.40913813599794613,0.0,3.0875259520141607,0.0,0.021479910084584265,0.0,0.4479796619583358,0.0,-0.12285969808938577,0.0,auto
1761314427.8145428,24.446449041366577,8.162661386659037,0.0,26.742360375403365,0.4009321000231575,0.0,3.081377811221289,0.0,0.02199061381399679,0.0,0.4,0.0,-0.0861212943466447,0.0,auto
1761314427.9192133,24.551119565963745,8.204132366474521,0.0,27.06570586614469,0.39302630901721447,0.0,3.0974019680341174,0.0,0.01937616602234744,0.0,0.5294276864796388,0.0,-0.045454347900833,0.0,auto
1761314428.0253196,24.657225847244263,8.245240945226078,0.0,27.393317744019807,0.38606731454749765,0.0,3.0826123396630174,0.0,0.015139212931664047,0.0,0.4461645814035455,0.0,0.008554448467738465,0.0,auto
1761314428.1283689,24.76027512550354,8.284250842368648,0.0,27.711340270193634,0.3783615740894462,0.0,3.077350945178715,0.0,0.003987231778421367,0.0,0.4102355465817836,0.0,0.07626833343474178,0.0,auto
1761314428.2348797,24.866786003112793,8.323705319535321,0.0,28.039824117628267,0.36967604482536975,0.0,3.0747034780262013,0.0,-0.003917226565836764,0.0,0.4,0.0,0.10700963328692348,0.0,auto
1761314428.3398771,24.97178339958191,8.361699901611283,0.0,28.3636598414487,0.3596780587856046,0.0,3.0869047849982065,0.0,-0.01342935044044162,0.0,0.4,0.0,0.11197229594118477,0.0,auto
1761314428.4463131,25.078219413757324,8.399384900122133,0.0,28.69181779744459,0.34989530355543275,0.0,3.0764323207434687,0.0,-0.015139815345027051,0.0,0.4241727498552677,0.0,0.08575112049951653,0.0,auto
1761314428.5533307,25.185236930847168,8.436417923290696,0.0,29.021946837088834,0.3400714676909471,0.0,3.086358007597761,0.0,-0.012850826553344501,0.0,0.47618331126537533,0.0,0.031774470932180415,0.0,auto
1761314428.659167,25.291073322296143,8.47220756574185,0.0,29.348454861629826,0.3309358233026022,0.0,3.0914848130480963,0.0,-0.005415807723455443,0.0,0.5170765674663025,0.0,-0.01411233088788319,0.0,auto
1761314428.7641,25.3960063457489,8.5068603808033,0.0,29.672130785271,0.32316619464292407,0.0,3.095851664195333,0.0,0.0027536482278787584,0.0,0.5413018268587805,0.0,-0.08174387139707325,0.0,auto
1761314428.8659446,25.49785089492798,8.539792535025747,0.0,29.986869739889556,0.31289163412255766,0.0,3.085811464458174,0.0,0.025178926175333065,0.0,0.4296367970110473,0.0,-0.2,0.0,auto
1761314428.9710467,25.60295295715332,8.572900000576425,0.0,30.311366799456874,0.3107249856311176,0.0,3.090546745255337,0.0,0.03437368883155123,0.0,0.4,0.0,-0.18391987428855247,0.0,auto
1761314429.0760593,25.7079656124115,8.605269408755019,0.0,30.635523120241622,0.30726150320993695,0.0,3.0944335873382864,0.0,0.03073127727146226,0.0,0.5241063628211935,0.0,-0.08004977476460792,0.0,auto
1761314429.1825078,25.814414024353027,8.637328305217283,0.0,30.96406063789677,0.30247020143290154,0.0,3.0850151862123436,0.0,0.020333652451404522,0.0,0.47111388489662676,0.0,0.013414388308190008,0.0,auto
1761314429.2828517,25.91475796699524,8.666800248595353,0.0,31.273403546148426,0.2951060178306752,0.0,3.0742298505234986,0.0,0.004774491084272085,0.0,0.40920126673528834,0.0,0.10781743050776818,0.0,auto
1761314429.3873818,26.019288063049316,8.696707752410243,0.0,31.595626250795224,0.2880443124449085,0.0,3.0805457822783193,0.0,-0.012851120679737345,0.0,0.4,0.0,0.16259228762741096,0.0,auto
1761314429.492159,26.124065160751343,8.72611484539237,0.0,31.918372499065754,0.2801429077994318,0.0,3.0857130113269537,0.0,-0.023751865609859524,0.0,0.483654155534986,0.0,0.16869324397474822,0.0,auto
1761314429.596554,26.22846031188965,8.754849108535609,0.0,32.24001935803237,0.27099727761703934,0.0,3.094138100242354,0.0,-0.02348202417851665,0.0,0.5537080372212871,0.0,0.08387136286964132,0.0,auto
1761314429.700531,26.33243727684021,8.782906021405191,0.0,32.56039881545448,0.2624659226976665,0.0,3.0918714609516873,0.0,-0.012003376787343766,0.0,0.5515300105249242,0.0,-0.014426467451766513,0.0,auto
1761314429.8057172,26.437623500823975,8.810657485197396,0.0,32.88429062138271,0.2558544431982341,0.0,3.0740216219082286,0.0,0.0016758672261933689,0.0,0.4389884601336878,0.0,-0.10249184754737192,0.0,auto
1761314429.9107523,26.54265856742859,8.837743570096517,0.0,33.20763060131237,0.2506806282007788,0.0,3.0787418769423684,0.0,0.014341151307201113,0.0,0.4617374489076447,0.0,-0.14705632995382753,0.0,auto
1761314430.0146303,26.646536588668823,8.863915477764262,0.0,33.527254436772566,0.24687875594494954,0.0,3.0845680465270746,0.0,0.023053543403651764,0.0,0.5116432428376436,0.0,-0.14342423033373314,0.0,auto
1761314430.1234357,26.75534200668335,8.890675420581982,0.0,33.861672039559444,0.2416996494333601,0.0,3.0742661957531188,0.0,0.025452415214412584,0.0,0.4725081035888453,0.0,-0.1267053316355361,0.0,auto
1761314430.2296002,26.861506462097168,8.916140855524953,0.0,34.18802507784336,0.2386441215941259,0.0,3.073919591559928,0.0,0.02440649788747156,0.0,0.4,0.0,-0.08050667724106828,0.0,auto
1761314430.3364234,26.968329668045044,8.941178677678414,0.0,34.51619275642883,0.2353946941269404,0.0,3.0668416556347733,0.0,0.018874266109969826,0.0,0.4,0.0,0.0005016454392332594,0.0,auto
1761314430.4409719,27.072878122329712,8.965086197679426,0.0,34.83722597855465,0.23134054868012557,0.0,3.068018295915652,0.0,0.004935964125163599,0.0,0.45295750819572345,0.0,0.08686667222801803,0.0,auto
1761314430.5449018,27.17680811882019,8.988331407435659,0.0,35.15616936125898,0.2254411016461922,0.0,3.063264069695787,0.0,-0.009556126613334659,0.0,0.4,0.0,0.14628055325384964,0.0,auto
1761314430.6505337,27.282439947128296,9.011426240052856,0.0,35.4803559506877,0.217936770195197,0.0,3.0611115606228276,0.0,-0.01760419197642868,0.0,0.4,0.0,0.13324476947461145,0.0,auto
1761314430.752634,27.38454031944275,9.033257442990902,0.0,35.79368060105836,0.21100741186605596,0.0,3.0700660699468716,0.0,-0.021388688601522852,0.0,0.48419583911170294,0.0,0.12007145453351409,0.0,auto
1761314430.8575628,27.489469051361084,9.055169167481388,0.0,36.11552077427017,0.2036476974985152,0.0,3.062421004321404,0.0,-0.018414303996147994,0.0,0.4,0.0,0.04093871800913255,0.0,auto
1761314430.961684,27.593590259552002,9.076495794450631,0.0,36.43483071562685,0.19801040966118283,0.0,3.059055970699019,0.0,-0.005537168408124663,0.0,0.4,0.0,-0.06653785410350045,0.0,auto
1761314431.0662923,27.698198556900024,9.097478716969974,0.0,36.75559380281782,0.19364337494741563,0.0,3.0712129304267437,0.0,0.00959967824467053,0.0,0.49858805441577575,0.0,-0.12222158533979335,0.0,auto
1761314431.1718736,27.80377984046936,9.118171655855921,0.0,37.07935656247229,0.1906377676929954,0.0,3.076646809349553,0.0,0.019928230000218358,0.0,0.5219353448149618,0.0,-0.15081763235570816,0.0,auto
1761314431.277191,27.90909719467163,9.138333670858575,0.0,37.402455970262345,0.18874456157632877,0.0,3.0646739950723174,0.0,0.02404562819070597,0.0,0.4471345436292455,0.0,-0.11675243966394855,0.0,auto
1761314431.3820345,28.013940811157227,9.157902091011138,0.0,37.72387135289402,0.18613076262642186,0.0,3.0687128693733174,0.0,0.019994464368806815,0.0,0.4927923873520058,0.0,-0.046085145097539054,0.0,auto
1761314431.488035,28.119941234588623,9.177186766164628,0.0,38.0489095097389,0.18322771398749196,0.0,3.056319588663702,0.0,0.012293043853237031,0.0,0.4,0.0,0.017935989532233694,0.0,auto
1761314431.594526,28.22643232345581,9.196085826603802,0.0,38.375665722714,0.17889890324773822,0.0,3.0670487831698474,0.0,0.003753607481133826,0.0,0.46185112317602733,0.0,0.0639954337608478,0.0,auto
1761314431.698515,28.330421209335327,9.21409151261561,0.0,38.6947850635331,0.17487819514966563,0.0,3.08085773077197,0.0,-0.00781701468463204,0.0,0.546708158085125,0.0,0.11321899626881746,0.0,auto
1761314431.8069184,28.43882465362549,9.232304418621347,0.0,39.02450568474117,0.16975047366077767,0.0,3.068380466404471,0.0,-0.013374936267848211,0.0,0.4,0.0,0.09948816795983342,0.0,auto
1761314431.9092503,28.54115653038025,9.249417935871227,0.0,39.34203804534454,0.16366696616347803,0.0,3.0696928693156655,0.0,-0.017492448788026235,0.0,0.4,0.0,0.09273231986632588,0.0,auto
1761314432.0145655,28.646471738815308,9.266501889713766,0.0,39.665239036413766,0.15867063341763235,0.0,3.07949260839131,0.0,-0.013399474665945151,0.0,0.537070889946309,0.0,0.030628197712510803,0.0,auto
1761314432.1191196,28.751025915145874,9.283095946609265,0.0,39.98601657516242,0.15377682526973913,0.0,3.0695679322226543,0.0,-0.005224384302109282,0.0,0.48621819832786756,0.0,-0.024864604826992424,0.0,auto
1761314432.228677,28.860583305358887,9.30006150858809,0.0,40.32221300620047,0.15014036811660605,0.0,3.0602298292244514,0.0,-0.0017333879444557422,0.0,0.4,0.0,-0.08759257516539391,0.0,auto
1761314432.334483,28.966389179229736,9.31603218854396,0.0,40.64757699859912,0.14609912420991578,0.0,3.0659637437695353,0.0,0.0032392974469520382,0.0,0.4,0.0,-0.07505926001286636,0.0,auto
1761314432.438616,29.07052230834961,9.3314265448118,0.0,40.9674623101066,0.14402154177996637,0.0,3.0716206891908766,0.0,0.011690891818272228,0.0,0.4,0.0,-0.09976036661264623,0.0,auto
1761314432.5441682,29.176074504852295,9.3466219441622,0.0,41.2898831335165,0.14226363472287415,0.0,3.0792956818166,0.0,0.015997334126767147,0.0,0.5235707693298962,0.0,-0.08035596495015394,0.0,auto
1761314432.6494248,29.281331062316895,9.361579768022795,0.0,41.61468468758395,0.14061659628770523,0.0,3.0753114059960573,0.0,0.015480592841293151,0.0,0.5131874612584295,0.0,-0.04721116663542339,0.0,auto
1761314432.7548,29.386706352233887,9.376118397352071,0.0,41.93791038971622,0.13857657548901584,0.0,3.0767628813475953,0.0,0.009959026307568184,0.0,0.5431680776534995,0.0,0.0055446859595408935,0.0,auto
1761314432.8588681,29.490774393081665,9.390136396987682,0.0,42.257022884882026,0.136073836308824,0.0,3.061552899564278,0.0,0.0015489478920238638,0.0,0.4,0.0,0.05764883310945288,0.0,auto
1761314432.9628465,29.5947527885437,9.403826803872732,0.0,42.575607394835394,0.13249716600457187,0.0,3.058983044328478,0.0,-0.007115818121806405,0.0,0.4,0.0,0.08896442557487598,0.0,auto
1761314433.0717237,29.703629970550537,9.417868731760146,0.0,42.90976037780927,0.1285227536278441,0.0,3.0642391096390735,0.0,-0.0055816062083206,0.0,0.41944148005781984,0.0,0.08180814294182823,0.0,auto
1761314433.1777978,29.809704065322876,9.431152190824903,0.0,43.23539573196437,0.125479865149,0.0,3.078151965431063,0.0,-0.010605613401646702,0.0,0.526508155546716,0.0,0.07727667274602132,0.0,auto
1761314433.2824118,29.914318084716797,9.444021025399055,0.0,43.556370726485774,0.12142224775071248,0.0,3.0628965854293115,0.0,-0.011237561036050135,0.0,0.4406287476945321,0.0,0.049452003729641175,0.0,auto
1761314433.3887599,30.020666122436523,9.456845472540568,0.0,43.88243117926116,0.11770589239495645,0.0,3.0600740703272926,0.0,-0.009548682975666346,0.0,0.44070831809587924,0.0,0.014386714539129916,0.0,auto
1761314433.4933553,30.125261545181274,9.469204085772393,0.0,44.20296699420147,0.11445539255606034,0.0,3.0657577753252943,0.0,-0.004177900469795059,0.0,0.48495764585985285,0.0,-0.0215284398892693,0.0,auto
1761314433.599125,30.2310311794281,9.481432342685222,0.0,44.527244350786304,0.11154441927656653,0.0,3.0659704557887664,0.0,0.0030595241149472636,0.0,0.4,0.0,-0.06115565682598423,0.0,auto
1761314433.7044535,30.33635973930359,9.49331684545994,0.0,44.84992713370146,0.10961891058508935,0.0,3.0602951349166667,0.0,0.009197950932082574,0.0,0.45224549950803994,0.0,-0.07879848755765903,0.0,auto
1761314433.810446,30.442352294921875,9.505003793091813,0.0,45.17422380882808,0.10811599906427974,0.0,3.053256121894193,0.0,0.012911711566079257,0.0,0.4255274406562128,0.0,-0.07461975663033676,0.0,auto
1761314433.9161634,30.548069715499878,9.51638427444297,0.0,45.49761744281869,0.1069652566122609,0.0,3.0553146058519607,0.0,0.013069656417239483,0.0,0.4,0.0,-0.04647244462383629,0.0,auto
1761314434.0217674,30.65367364883423,9.527464994951718,0.0,45.82049074426911,0.10528272486116101,0.0,3.04934324100861,0.0,0.009364041549190261,0.0,0.4,0.0,-0.007647395173108746,0.0,auto
1761314434.1241672,30.756073474884033,9.537932216637609,0.0,46.13375020480133,0.10331193102829324,0.0,3.067785716634108,0.0,0.0018755005178243548,0.0,0.53461109535427,0.0,0.04013466182635656,0.0,auto
1761314434.2261708,30.85807704925537,9.548121395049746,0.0,46.44420569922233,0.10036429443369983,0.0,2.997409202929441,0.0,-0.005693072328209583,0.0,0.4,0.0,0.06466688184418642,0.0,auto
1761314434.3304756,30.962381839752197,9.558342556508409,0.0,46.75040132270452,0.0971373579481091,0.0,2.874240495972915,0.0,-0.007232316125222211,0.0,0.4,0.0,0.04881038519752789,0.0,auto
1761314434.4341397,31.066045999526978,9.568290429627595,0.0,47.04213080771137,0.09406828316995543,0.0,2.754303401263322,0.0,-0.004608143979233922,0.0,0.4,0.0,0.01395269803041907,0.0,auto
1761314434.5403874,31.172293663024902,9.578171320034647,0.0,47.32572585434163,0.09183550601069641,0.0,2.6350725887916004,0.0,-0.0008881343750114786,0.0,0.4,0.0,-0.026333143763614262,0.0,auto
1761314434.6451337,31.277040004730225,9.587879649308983,0.0,47.59814170391868,0.08971747663694209,0.0,2.517711334647733,0.0,0.0025894523691905426,0.0,0.4,0.0,-0.031291779034984715,0.0,auto
1761314434.749777,31.381683349609375,9.597275505107579,0.0,47.85561221399076,0.08839030138294177,0.0,2.403661489666061,0.0,0.005453450545695355,0.0,0.4,0.0,-0.030855966674939686,0.0,auto
1761314434.8573546,31.48926091194153,9.60673033947352,0.0,48.10799455909425,0.08701753692901049,0.0,2.2887808528842117,0.0,0.006305906207716874,0.0,0.4,0.0,-0.02238646023904354,0.0,auto
1761314434.9609773,31.592883586883545,9.615629475525646,0.0,48.33953179573979,0.08566753887661431,0.0,2.1802896415349378,0.0,0.003946271830150231,0.0,0.4,0.0,-0.0008390312290938767,0.0,auto
1761314435.0647976,31.696703910827637,9.624355861401241,0.0,48.56032385569918,0.08387390577141873,0.0,2.0733630165674835,0.0,0.0006796258621235079,0.0,0.4,0.0,0.016997901160378547,0.0,auto
1761314435.169833,31.80173921585083,9.633001722736164,0.0,48.772489660664874,0.08175585076170977,0.0,1.966865092809405,0.0,-0.0006992179812081254,0.0,0.4,0.0,0.019288527598597244,0.0,auto
1761314435.2743535,31.906259775161743,9.64141897694227,0.0,48.972600427129414,0.07978850618899011,0.0,1.8625424313858807,0.0,-0.0011972945579171287,0.0,0.4,0.0,0.016993908305715857,0.0,auto
1761314435.3772638,32.009170055389404,9.649530463056228,0.0,49.159057595641315,0.07781287795733226,0.0,1.7613621949179736,0.0,-0.0007992675433998707,0.0,0.4,0.0,0.0044035603509727395,0.0,auto
1761314435.4817896,32.11369585990906,9.657598856950578,0.0,49.3378593543341,0.07600716540892484,0.0,1.660060542195401,0.0,0.0006248860407274358,0.0,0.4,0.0,-0.0050246371094426505,0.0,auto
1761314435.5843406,32.21624684333801,9.665341973804582,0.0,49.50306096953258,0.0744036428906466,0.0,1.5620026738170503,0.0,0.001967052640001619,0.0,0.4,0.0,-0.00943386839403689,0.0,auto
1761314435.6871,32.3190062046051,9.672934370151628,0.0,49.65857549387209,0.07305867462760786,0.0,1.4649692567278494,0.0,0.0025355081587851943,0.0,0.4,0.0,-0.0065867547103646736,0.0,auto
1761314435.7906861,32.42259240150452,9.680012792104604,0.0,49.806150638736135,0.047476355981502835,0.0,1.3948176221761506,0.0,0.10781930617417175,0.0,0.4,0.0,0.2,0.0,auto
1761314435.8949645,32.52687072753906,9.675500780439327,0.0,49.94781659281229,-0.16834712112921543,0.0,1.3057913958641179,0.0,0.33314483329273525,0.0,0.4,0.0,-0.052978863461394965,0.0,auto
1761314435.9985044,32.63041067123413,9.642161331160638,0.0,50.075949920791935,-0.4694456462894693,0.0,1.1799139893318893,0.0,0.26870918049954634,0.0,0.4,0.0,-0.1865894886390604,0.0,auto
1761314436.1082144,32.74012064933777,9.578250396348308,0.0,50.199128723731455,-0.6943541860907613,0.0,1.0657546388770536,0.0,0.22463381074188285,0.0,0.4,0.0,-0.10987875544676305,0.0,auto
1761314436.2137415,32.84564781188965,9.495129590557344,0.0,50.30575311165578,-0.8798440190028836,0.0,0.9556863507538705,0.0,0.20158933796573028,0.0,0.4,0.0,-0.09084283554868884,0.0,auto
1761314436.322906,32.9548122882843,9.389817335826182,0.0,50.40413674318796,-1.0460005767594898,0.0,0.8480387013532056,0.0,0.17266850898682237,0.0,0.4,0.0,-0.0961632319592044,0.0,auto
1761314436.4286869,33.060593128204346,9.271853692432348,0.0,50.48844002491507,-1.1815416660528455,0.0,0.7457994293823186,0.0,0.15204540287607832,0.0,0.4,0.0,-0.06567233629326094,0.0,auto
1761314436.5333562,33.16526246070862,9.141913639315481,0.0,50.561345422786474,-1.2966207624937207,0.0,0.6469818506969008,0.0,0.1292415824808343,0.0,0.4,0.0,-0.023564077744807288,0.0,auto
1761314436.6379275,33.26983380317688,9.000904866771624,0.0,50.62392399303348,-1.3950002259680425,0.0,0.5500048074250469,0.0,0.10802463716572354,0.0,0.4,0.0,0.016733600796583398,0.0,auto
1761314436.739889,33.37179517745972,8.854232079940129,0.0,50.67522863541671,-1.4774181232960415,0.0,0.45671010958974795,0.0,0.0895738963718031,0.0,0.4,0.0,0.00787553232349719,0.0,auto
1761314436.8469286,33.47883486747742,8.692893262505113,0.0,50.71870180337164,-1.5493742085139364,0.0,0.35976349662628726,0.0,0.07910065130594973,0.0,0.4,0.0,0.010332900490582879,0.0,auto
1761314436.9516013,33.5835075378418,8.527259273276597,0.0,50.752138994204216,-1.5863558974670786,0.0,0.2785286103149635,0.0,0.020827843635306098,0.0,0.4,0.0,0.14080158627968498,0.0,auto
1761314437.05492,33.68682622909546,8.362245195123942,0.0,50.77671970003115,-1.6025815237338528,0.0,0.19754839947134228,0.0,0.0067926285692422135,0.0,0.4,0.0,0.11783086528229997,0.0,auto
1761314437.1605027,33.79240894317627,8.192398202425771,0.0,50.79340419344021,-1.6114525003841214,0.0,0.11675088260220709,0.0,-0.006247952415113143,0.0,0.4,0.0,0.05159922323575084,0.0,auto
1761314437.266849,33.89875531196594,8.021153159737016,0.0,50.801608932859516,-1.6101797996060772,0.0,0.03425836132336712,0.0,-0.00555097296863934,0.0,0.4,0.0,-0.006279129057767167,0.0,auto
1761314437.3703706,34.00227689743042,7.855019354818345,0.0,50.80084333583289,-1.6039649453223572,0.0,-0.048253054391044034,0.0,0.002955905830828314,0.0,0.4,0.0,-0.037349415190423216,0.0,auto
1761314437.4731717,34.10507798194885,7.690939135313426,0.0,50.791656448946426,-1.5916866730119048,0.0,-0.12976391301082835,0.0,0.0037790629505840686,0.0,0.4,0.0,-0.08402988289121441,0.0,auto
1761314437.580417,34.21232318878174,7.521155943104437,0.0,50.77303794818487,-1.5759257801538342,0.0,-0.21539791523704202,0.0,0.0009386459971283145,0.0,0.4,0.0,-0.10022230981040989,0.0,auto
1761314437.6842234,34.31612968444824,7.358812880339405,0.0,50.746545596992206,-1.5541318988961246,0.0,-0.295853527977963,0.0,0.004664600999705735,0.0,0.4,0.0,-0.09061141633385913,0.0,auto
1761314437.795704,34.42761015892029,7.188270827158543,0.0,50.70914289960613,-1.5322052217167104,0.0,-0.3778626877190134,0.0,0.011000199864695723,0.0,0.4,0.0,0.16866153971394762,0.0,auto
1761314437.8988469,34.53075313568115,7.029503786564063,0.0,50.66725885917062,-1.5021336318809653,0.0,-0.4268645850058526,0.0,-0.02653358422911217,0.0,0.4,0.0,0.2,0.0,auto
1761314438.0029173,34.63482356071472,6.873517002563008,0.0,50.619479106566736,-1.4867153956642178,0.0,-0.49171770257886127,0.0,-0.04751746784688172,0.0,0.4,0.0,0.16018413974062085,0.0,auto
1761314438.1073694,34.73927569389343,6.719551134475919,0.0,50.56486414025969,-1.4653087480290345,0.0,-0.5578168150941736,0.0,-0.035924763789962906,0.0,0.4,0.0,0.024890532803192183,0.0,auto
1761314438.2138195,34.845725774765015,6.565435842251882,0.0,50.50168727643834,-1.437569491802487,0.0,-0.6282786156445116,0.0,-0.025719085777877407,0.0,0.4,0.0,-0.05682643185187139,0.0,auto
1761314438.3162382,34.94814443588257,6.42072057007828,0.0,50.434748795101186,-1.3860508498544375,0.0,-0.6792570917540816,0.0,-0.014324829089822359,0.0,0.4,0.0,0.12820900063245094,0.0,auto
1761314438.4229841,35.054890394210815,6.273059142128845,0.0,50.35891864785913,-1.3666542363682905,0.0,-0.7381890741992366,0.0,-0.04760083432072129,0.0,0.4,0.0,0.2,0.0,auto
1761314438.52778,35.15968632698059,6.130969779905104,0.0,50.278161643535945,-1.3443307587249789,0.0,-0.8051529662094075,0.0,-0.043316429989404236,0.0,0.4,0.0,0.10621789219893926,0.0,auto
1761314438.6321216,35.2640278339386,5.992298903308808,0.0,50.190588928273534,-1.3193828805660057,0.0,-0.8749847419555558,0.0,-0.02900500946940383,0.0,0.4,0.0,-0.037375738922428584,0.0,auto
1761314438.7364628,35.36836910247803,5.856453734975679,0.0,50.09536634874259,-1.2916408576597416,0.0,-0.9496818449123655,0.0,-0.011603361560827892,0.0,0.4,0.0,-0.08493104258596681,0.0,auto
1761314438.8433845,35.47529077529907,5.720058953514889,0.0,49.98950355289931,-1.2629846389764794,0.0,-1.029448467706502,0.0,-0.009062204375185989,0.0,0.4,0.0,-0.10400347203258972,0.0,auto
1761314438.94757,35.57947635650635,5.590022645348001,0.0,49.878132178566815,-1.2337600123364705,0.0,-1.108789612447378,0.0,-0.009880049289216545,0.0,0.4,0.0,-0.044150918196506544,0.0,auto
1761314439.0490744,35.68098068237305,5.465957852948374,0.0,49.761776284716106,-1.2074740211100068,0.0,-1.1774355187228163,0.0,-0.010090706648580788,0.0,0.4,0.0,0.2,0.0,auto
1761314439.1540232,35.785929441452026,5.3407383224596,0.0,49.63575675091134,-1.171381625963951,0.0,-1.2263918438028911,0.0,-0.010188473198101363,0.0,0.4,0.0,0.09998676896640304,0.0,auto
1761314439.2602174,35.89212369918823,5.216702455152975,0.0,49.502398353736105,-1.1512657854236787,0.0,-1.2830490587769823,0.0,-0.04187880914871812,0.0,0.4,0.0,0.1948510884353592,0.0,auto
1761314439.361022,35.99292826652527,5.100896152516162,0.0,49.3707201290678,-1.1507153443552087,0.0,-1.3262115597479815,0.0,-0.03019979062237338,0.0,0.4,0.0,-0.15587280761746825,0.0,auto
1761314439.4666865,36.09859275817871,4.98165152379938,0.0,49.22772761494009,-1.1219282711662535,0.0,-1.3772722887201787,0.0,0.01085660118377076,0.0,0.4,0.0,-0.2,0.0,auto
1761314439.5721393,36.20404553413391,4.865137400116834,0.0,49.07949531021023,-1.0903468731767993,0.0,-1.4374556193800476,0.0,0.01056478296292722,0.0,0.4,0.0,-0.07273640750706833,0.0,auto
1761314439.6770473,36.308953523635864,4.751953104608744,0.0,48.925851270351956,-1.0608645430143757,0.0,-1.4955431800298595,0.0,-0.00542447744608541,0.0,0.4,0.0,0.05587273761509394,0.0,auto
1761314439.7842336,36.41613984107971,4.639193519268267,0.0,48.762215717163045,-1.0302210143488544,0.0,-1.5544523242468282,0.0,-0.043954503324639925,0.0,0.4,0.0,0.18849933888093434,0.0,auto
1761314439.889121,36.52102732658386,4.531999393202655,0.0,48.59623228602963,-1.010545813558352,0.0,-1.6113649393326495,0.0,-0.0475441154192779,0.0,0.4,0.0,0.14425189190996213,0.0,auto
1761314439.9931545,36.62506079673767,4.428213678490936,0.0,48.425975988632544,-0.9898634382190864,0.0,-1.6664525399019872,0.0,-0.03332457091022664,0.0,0.4,0.0,0.02832703097138304,0.0,auto
1761314440.0989704,36.73087668418884,4.325605062252116,0.0,48.24724306047879,-0.966043911334507,0.0,-1.7302357392875853,0.0,-0.01886313977155492,0.0,0.4,0.0,-0.03187311661780022,0.0,auto
1761314440.2024589,36.834365129470825,4.226672763902807,0.0,48.063714434452756,-0.9423104861833522,0.0,-1.79836955427989,0.0,-0.005053085593319413,0.0,0.4,0.0,-0.07953589949467785,0.0,auto
1761314440.3076584,36.93956470489502,4.128919289926149,0.0,47.87085404295632,-0.9182900305243457,0.0,-1.8684542385141079,0.0,-0.0013235981850643567,0.0,0.4,0.0,-0.06169814600510961,0.0,auto
1761314440.413412,37.045318365097046,4.032959813878798,0.0,47.66963534267192,-0.8946584594694377,0.0,-1.9373673900657773,0.0,-0.004048072977649514,0.0,0.4,0.0,0.005576160517294111,0.0,auto
1761314440.518997,37.15090322494507,3.9393945426603727,0.0,47.46156774191542,-0.8726101155688808,0.0,-2.004288944079544,0.0,-0.015518425054971054,0.0,0.4,0.0,0.05364470360051763,0.0,auto
1761314440.625707,37.25761318206787,3.8471345957580745,0.0,47.24420418187029,-0.8519734596180716,0.0,-2.06943825998989,0.0,-0.020191704488634693,0.0,0.4,0.0,0.08821060498161865,0.0,auto
1761314440.733372,37.365278244018555,3.756263401380511,0.0,47.01775267997426,-0.8328755708972304,0.0,-2.136565507735449,0.0,-0.024433301261964437,0.0,0.4,0.0,0.08121827906072616,0.0,auto
1761314440.8337188,37.465625047683716,3.6735564703762855,0.0,46.80035534747105,-0.8165110521610592,0.0,-2.190732620648306,0.0,-0.030941969651655875,0.0,0.4,0.0,-0.09066414987413993,0.0,auto
1761314440.9396384,37.5715446472168,3.5888439405317607,0.0,46.566123046242865,-0.7974365573610324,0.0,-2.2298221163060976,0.0,0.003293262202261848,0.0,0.4,0.0,-0.17342903000497617,0.0,auto
1761314441.0441227,37.67602896690369,3.5069938971468164,0.0,46.330508321135355,-0.7767558015447376,0.0,-2.277633051502232,0.0,0.01569617594205719,0.0,0.4,0.0,-0.1840923817323033,0.0,auto
1761314441.1501133,37.78201961517334,3.4261780466877645,0.0,46.087639234113524,-0.7558182250248839,0.0,-2.3299573634711663,0.0,0.01109038187769621,0.0,0.4,0.0,-0.09811116386287452,0.0,auto
1761314441.257579,37.889485359191895,3.3453511695633686,0.0,45.83314291613615,-0.7363590942257174,0.0,-2.38484944214388,0.0,-0.001575938216835186,0.0,0.4,0.0,-0.020566290994930573,0.0,auto
1761314441.3630466,37.994952917099,3.268452505218968,0.0,45.57844357053117,-0.7186526717216474,0.0,-2.4451242751462408,0.0,-0.006154569223960845,0.0,0.4,0.0,0.03344857547202435,0.0,auto
1761314441.4687393,38.100645542144775,3.1931325152684904,0.0,45.31682430423717,-0.7024518389460123,0.0,-2.505176502665558,0.0,-0.014410145937002626,0.0,0.4,0.0,0.05396300187452358,0.0,auto
1761314441.573303,38.205209255218506,3.1203590546631674,0.0,45.05178198624958,-0.687559055807703,0.0,-2.564372719332346,0.0,-0.015446193910876914,0.0,0.4,0.0,0.033455141339893565,0.0,auto
1761314441.6791809,38.311087131500244,3.0483563708372867,0.0,44.7773597572346,-0.6727252314812585,0.0,-2.6169544203743373,0.0,-0.01487522045772372,0.0,0.407418082103908,0.0,0.015163240147649592,0.0,auto
1761314441.7849815,38.41688776016235,2.97810554996577,0.0,44.49809765630948,-0.6572046810776335,0.0,-2.660721568573729,0.0,-0.00998872042031143,0.0,0.41092217347853116,0.0,-0.007172285383602064,0.0,auto
