timestamp,simulation_time,position_x,position_y,position_z,velocity_x,velocity_y,velocity_z,attitude_roll,attitude_pitch,attitude_yaw,control_throttle,control_roll,control_pitch,control_yaw,flight_mode
1761310060.0628204,0.18616485595703125,0.0,0.0,-0.0,0.0,0.0,-0.0,0.0,0.0,0.0,0.0,0.0,0.0,0.0,manual
1761310060.1721492,0.29549360275268555,0.0,0.0,-0.0,0.0,0.0,-0.0,0.0,0.0,0.0,0.0,0.0,0.0,0.0,manual
1761310060.2763474,0.3996918201446533,0.0,0.0,-0.0,0.0,0.0,-0.0,0.0,0.0,0.0,0.0,0.0,0.0,0.0,manual
1761310060.3790298,0.5023741722106934,0.0,0.0,-0.0,0.0,0.0,-0.0,0.0,0.0,0.0,0.0,0.0,0.0,0.0,manual
1761310060.4821825,0.6055269241333008,0.0,0.0,-0.0,0.0,0.0,-0.0,0.0,0.0,0.0,0.0,0.0,0.0,0.0,manual
1761310060.5863695,0.7097139358520508,0.0,0.0,-0.0,0.0,0.0,-0.0,0.0,0.0,0.0,0.0,0.0,0.0,0.0,manual
1761310060.689064,0.812408447265625,0.0,0.0,-0.0,0.0,0.0,-0.0,0.0,0.0,0.0,0.0,0.0,0.0,0.0,manual
1761310060.7937436,0.9170880317687988,0.0,0.0,-0.0,0.0,0.0,-0.0,0.0,0.0,0.0,0.0,0.0,0.0,0.0,manual
1761310060.8985195,1.0218639373779297,0.0,0.0,-0.0,0.0,0.0,-0.0,0.0,0.0,0.0,0.0,0.0,0.0,0.0,manual
1761310061.0068636,1.1302080154418945,0.0,0.0,-0.0,0.0,0.0,-0.0,0.0,0.0,0.0,0.0,0.0,0.0,0.0,manual
1761310061.109941,1.2332854270935059,0.0,0.0,-0.0,0.0,0.0,-0.0,0.0,0.0,0.0,0.0,0.0,0.0,0.0,manual
1761310061.2148306,1.3381750583648682,0.0,0.0,-0.0,0.0,0.0,-0.0,0.0,0.0,0.0,0.0,0.0,0.0,0.0,manual
1761310061.3224528,1.4457972049713135,0.0,0.0,-0.0,0.0,0.0,-0.0,0.0,0.0,0.0,0.0,0.0,0.0,0.0,manual
1761310061.426712,1.5500564575195312,0.0,0.0,-0.0,0.0,0.0,-0.0,0.0,0.0,0.0,0.0,0.0,0.0,0.0,manual
1761310061.5313582,1.6547026634216309,0.0,0.0,-0.0,0.0,0.0,-0.0,0.0,0.0,0.0,0.0,0.0,0.0,0.0,manual
1761310061.637289,1.7606334686279297,0.0,0.0,-0.0,0.0,0.0,-0.0,0.0,0.0,0.0,0.0,0.0,0.0,0.0,manual
1761310061.7448747,1.8682191371917725,0.0,0.0,-0.0,0.0,0.0,-0.0,0.0,0.0,0.0,0.0,0.0,0.0,0.0,manual
1761310061.8483632,1.9717075824737549,0.0,0.0,-0.0,0.0,0.0,-0.0,0.0,0.0,0.0,0.0,0.0,0.0,0.0,manual
1761310061.9530478,2.07639217376709,0.0,0.0,-0.0,0.0,0.0,-0.0,0.0,0.0,0.0,0.0,0.0,0.0,0.0,manual
1761310062.0568607,2.1802051067352295,0.0,0.0,-0.0,0.0,0.0,-0.0,0.0,0.0,0.0,0.0,0.0,0.0,0.0,manual
1761310062.159795,2.28313946723938,0.0,0.0,-0.0,0.0,0.0,-0.0,0.0,0.0,0.0,0.0,0.0,0.0,0.0,manual
1761310062.2648594,2.3882038593292236,0.0,0.0,-0.0,0.0,0.0,-0.0,0.0,0.0,0.0,0.0,0.0,0.0,0.0,manual
1761310062.3706589,2.4940032958984375,0.0,0.0,-0.0,0.0,0.0,-0.0,0.0,0.0,0.0,0.0,0.0,0.0,0.0,manual
1761310062.4761996,2.599544048309326,0.0,0.0,-0.0,0.0,0.0,-0.0,0.0,0.0,0.0,0.0,0.0,0.0,0.0,manual
1761310062.5794177,2.7027621269226074,0.0,0.0,-0.0,0.0,0.0,-0.0,0.0,0.0,0.0,0.0,0.0,0.0,0.0,manual
1761310062.6842828,2.8076272010803223,0.0,0.0,-0.0,0.0,0.0,-0.0,0.0,0.0,0.0,0.0,0.0,0.0,0.0,manual
1761310062.789606,2.9129505157470703,0.0,0.0,-0.0,0.0,0.0,-0.0,0.0,0.0,0.0,0.0,0.0,0.0,0.0,manual
1761310062.89333,3.016674518585205,0.0,0.0,-0.0,0.0,0.0,-0.0,0.0,0.0,0.0,0.0,0.0,0.0,0.0,manual
1761310063.0017128,3.1250572204589844,0.0,0.0,-0.0,0.0,0.0,-0.0,0.0,0.0,0.0,0.0,0.0,0.0,0.0,manual
1761310063.1061466,3.2294909954071045,0.0,0.0,-0.0,0.0,0.0,-0.0,0.0,0.0,0.0,0.0,0.0,0.0,0.0,manual
1761310063.209984,3.3333284854888916,0.0,0.0,-0.0,0.0,0.0,-0.0,0.0,0.0,0.0,0.0,0.0,0.0,0.0,manual
1761310063.3132668,3.4366111755371094,0.0,0.0,-0.0,0.0,0.0,-0.0,0.0,0.0,0.0,0.0,0.0,0.0,0.0,manual
1761310063.417218,3.540562391281128,0.0,0.0,-0.0,0.0,0.0,-0.0,0.0,0.0,0.0,0.0,0.0,0.0,0.0,manual
1761310063.5210598,3.644404172897339,0.0,0.0,-0.0,0.0,0.0,-0.0,0.0,0.0,0.0,0.0,0.0,0.0,0.0,manual
1761310063.6238644,3.747208833694458,0.0,0.0,-0.0,0.0,0.0,-0.0,0.0,0.0,0.0,0.0,0.0,0.0,0.0,manual
1761310063.7291346,3.8524789810180664,0.0,0.0,-0.0,0.0,0.0,-0.0,0.0,0.0,0.0,0.0,0.0,0.0,0.0,manual
1761310063.8346763,3.9580206871032715,0.0,0.0,-0.0,0.0,0.0,-0.0,0.0,0.0,0.0,0.0,0.0,0.0,0.0,manual
1761310063.93931,4.062654495239258,0.0,0.0,-0.0,0.0,0.0,-0.0,0.0,0.0,0.0,0.0,0.0,0.0,0.0,manual
1761310064.0495954,4.172939777374268,0.0,0.0,-0.0,0.0,0.0,-0.0,0.0,0.0,0.0,0.0,0.0,0.0,0.0,manual
1761310064.153138,4.276482343673706,0.0,0.0,-0.0,0.0,0.0,-0.0,0.0,0.0,0.0,0.0,0.0,0.0,0.0,manual
1761310064.253383,4.376727342605591,0.0,0.0,-0.0,0.0,0.0,-0.0,0.0,0.0,0.0,0.0,0.0,0.0,0.0,manual
1761310064.358315,4.481659412384033,0.0,0.0,-0.0,0.0,0.0,-0.0,0.0,0.0,0.0,0.0,0.0,0.0,0.0,manual
1761310064.4616342,4.5849785804748535,0.0,0.0,-0.0,0.0,0.0,-0.0,0.0,0.0,0.0,0.0,0.0,0.0,0.0,manual
1761310064.5659015,4.689245939254761,0.0,0.0,-0.0,0.0,0.0,-0.0,0.0,0.0,0.0,0.0,0.0,0.0,0.0,manual
1761310064.669289,4.792633533477783,0.0,0.0,-0.0,0.0,0.0,-0.0,0.0,0.0,0.0,0.0,0.0,0.0,0.0,manual
1761310064.7733119,4.896656274795532,0.0,0.0,-0.0,0.0,0.0,-0.0,0.0,0.0,0.0,0.0,0.0,0.0,0.0,manual
1761310064.8794627,5.002807140350342,0.0,0.0,-0.0,0.0,0.0,-0.0,0.0,0.0,0.0,0.0,0.0,0.0,0.0,manual
1761310064.9891138,5.112458229064941,0.0,0.0,-0.0,0.0,0.0,-0.0,0.0,0.0,0.0,0.0,0.0,0.0,0.0,manual
1761310065.0927055,5.216049909591675,0.0,0.0,-0.0,0.0,0.0,-0.0,0.0,0.0,0.0,0.0,0.0,0.0,0.0,manual
1761310065.1978695,5.321213960647583,0.0,0.0,-0.0,0.0,0.0,-0.0,0.0,0.0,0.0,0.0,0.0,0.0,0.0,manual
1761310065.3049266,5.428271055221558,0.0,0.0,-0.0,0.0,0.0,-0.0,0.0,0.0,0.0,0.0,0.0,0.0,0.0,manual
1761310065.4085045,5.531848907470703,0.0,0.0,-0.0,0.0,0.0,-0.0,0.0,0.0,0.0,0.0,0.0,0.0,0.0,manual
1761310065.5122144,5.635558843612671,0.0,0.0,0.016444249997010302,0.0,0.0,0.6243170328075733,0.0,0.0,0.0,0.9,0.0,0.0,0.0,stabilize
1761310065.6176906,5.741034984588623,0.0,0.0,0.11422576185207926,0.0,0.0,1.0032940318442138,0.0,0.0,0.0,0.4,0.0,0.0,0.0,stabilize
1761310065.7233033,5.8466477394104,0.0,0.0,0.22189898635385238,0.0,0.0,1.0216381430928716,0.0,0.0,0.0,0.4500588259177729,0.0,0.0,0.0,stabilize
1761310065.833136,5.956480503082275,0.0,0.0,0.334136177232236,0.0,0.0,1.0186279901926416,0.0,0.0,0.0,0.4,0.0,0.0,0.0,stabilize
1761310065.9369729,6.060317277908325,0.0,0.0,0.43899856753853506,0.0,0.0,0.9961281658935115,0.0,0.0,0.0,0.4,0.0,0.0,0.0,stabilize
1761310066.0404155,6.16375994682312,0.0,0.0,0.5411536019801444,0.0,0.0,0.9807968746858,0.0,0.0,0.0,0.48201127343718053,0.0,0.0,0.0,stabilize
1761310066.1430976,6.266442060470581,0.0,0.0,0.6396242158186698,0.0,0.0,0.9432740803602665,0.0,0.0,0.0,0.4407533744745816,0.0,0.0,0.0,stabilize
1761310066.2476144,6.3709588050842285,0.0,0.0,0.7362349615188589,0.0,0.0,0.9042558511336116,0.0,0.0,0.0,0.4,0.0,0.0,0.0,stabilize
1761310066.3510284,6.474372863769531,0.0,0.0,0.8278096778692999,0.0,0.0,0.8640964048398089,0.0,0.0,0.0,0.4,0.0,0.0,0.0,stabilize
1761310066.454881,6.578225374221802,0.0,0.0,0.9154959021870486,0.0,0.0,0.8228037953073267,0.0,0.0,0.0,0.42266178782991815,0.0,0.0,0.0,stabilize
1761310066.55929,6.682634353637695,0.0,0.0,0.9991875967909883,0.0,0.0,0.7803368474782216,0.0,0.0,0.0,0.4269724466946457,0.0,0.0,0.0,stabilize
1761310066.6634395,6.786783933639526,0.0,0.0,1.0782119918523692,0.0,0.0,0.7372072296842151,0.0,0.0,0.0,0.4259108029504225,0.0,0.0,0.0,stabilize
1761310066.7688024,6.892146825790405,0.0,0.0,1.153613976446613,0.0,0.0,0.6909316229350374,0.0,0.0,0.0,0.4069449053929426,0.0,0.0,0.0,stabilize
1761310066.872949,6.996293306350708,0.0,0.0,1.2236702082733186,0.0,0.0,0.6483232481217963,0.0,0.0,0.0,0.4,0.0,0.0,0.0,stabilize
1761310066.9771893,7.100533723831177,0.0,0.0,1.2894793865188074,0.0,0.0,0.6096710483540078,0.0,0.0,0.0,0.4,0.0,0.0,0.0,stabilize
1761310067.0821002,7.205444574356079,0.0,0.0,1.3515220240049637,0.0,0.0,0.5761765093767173,0.0,0.0,0.0,0.45992543866400676,0.0,0.0,0.0,stabilize
1761310067.1875527,7.3108971118927,0.0,0.0,1.4097686877215423,0.0,0.0,0.5348479395745181,0.0,0.0,0.0,0.43898842653025727,0.0,0.0,0.0,stabilize
1761310067.2881286,7.411473035812378,0.0,0.0,1.4616341768784518,0.0,0.0,0.4938986419181684,0.0,0.0,0.0,0.4,0.0,0.0,0.0,stabilize
1761310067.3932245,7.516568899154663,0.0,0.0,1.512134436144221,0.0,0.0,0.4686482458905326,0.0,0.0,0.0,0.4720224118759721,0.0,0.0,0.0,stabilize
1761310067.497016,7.620360374450684,0.0,0.0,1.558492690871549,0.0,0.0,0.4336844201982054,0.0,0.0,0.0,0.4551438939898171,0.0,0.0,0.0,stabilize
1761310067.5999334,7.723277807235718,0.0,0.0,1.6012423519868584,0.0,0.0,0.403789933720278,0.0,0.0,0.0,0.4596556265764457,0.0,0.0,0.0,stabilize
1761310067.7066536,7.829998016357422,0.0,0.0,1.6423770113177991,0.0,0.0,0.36856781152872903,0.0,0.0,0.0,0.41601156330063027,0.0,0.0,0.0,stabilize
1761310067.810487,7.933831453323364,0.0,0.0,1.6795012641916804,0.0,0.0,0.3470356662112363,0.0,0.0,0.0,0.45780100614008024,0.0,0.0,0.0,stabilize
1761310067.9137363,8.037080764770508,0.0,0.0,1.7136994002246757,0.0,0.0,0.31797122624795116,0.0,0.0,0.0,0.43309239779347664,0.0,0.0,0.0,stabilize
1761310068.0192437,8.142588138580322,0.0,0.0,1.7460044945784678,0.0,0.0,0.2931344060788559,0.0,0.0,0.0,0.4282665535724861,0.0,0.0,0.0,stabilize
1761310068.1235893,8.246933698654175,0.0,0.0,1.7754883906619525,0.0,0.0,0.2783512480029496,0.0,0.0,0.0,0.4835115712541523,0.0,0.0,0.0,stabilize
1761310068.2278643,8.351208686828613,0.0,0.0,1.8027141644663316,0.0,0.0,0.24928882945743908,0.0,0.0,0.0,0.4,0.0,0.0,0.0,stabilize
1761310068.3319974,8.455341815948486,0.0,0.0,1.8277498328778132,0.0,0.0,0.23125311199060716,0.0,0.0,0.0,0.4,0.0,0.0,0.0,stabilize
1761310068.438528,8.561872482299805,0.0,0.0,1.8513058531316906,0.0,0.0,0.21828923628226715,0.0,0.0,0.0,0.4838976676034431,0.0,0.0,0.0,stabilize
1761310068.5434568,8.66680121421814,0.0,0.0,1.8726066900882636,0.0,0.0,0.191360143792067,0.0,0.0,0.0,0.41871905642137075,0.0,0.0,0.0,stabilize
1761310068.6481805,8.771524906158447,0.0,0.0,1.8922535754837246,0.0,0.0,0.18084229601078702,0.0,0.0,0.0,0.4462725287768188,0.0,0.0,0.0,stabilize
1761310068.7505326,8.873877048492432,0.0,0.0,1.9099125192243356,0.0,0.0,0.17982945498816966,0.0,0.0,0.0,0.5425253998582986,0.0,0.0,0.0,stabilize
1761310068.8547316,8.978075981140137,0.0,0.0,1.9265851726363254,0.0,0.0,0.14630623745997598,0.0,0.0,0.0,0.40005335114887025,0.0,0.0,0.0,stabilize
1761310068.9592571,9.082601547241211,0.0,0.0,1.9418507491952814,0.0,0.0,0.14559497989841716,0.0,0.0,0.0,0.48609254396673274,0.0,0.0,0.0,stabilize
1761310069.0662422,9.189586639404297,0.0,0.0,1.9561251791525234,0.0,0.0,0.13161415727917328,0.0,0.0,0.0,0.4721570700766702,0.0,0.0,0.0,stabilize
1761310069.174184,9.297528505325317,0.0,0.0,1.9692192104381039,0.0,0.0,0.11483468244548237,0.0,0.0,0.0,0.4,0.0,0.0,0.0,stabilize
1761310069.2784448,9.40178918838501,0.0,0.0,1.9808638109146017,0.0,0.0,0.11302828907265185,0.0,0.0,0.0,0.48879146753440383,0.0,0.0,0.0,stabilize
1761310069.3818047,9.505149126052856,0.0,0.0,1.9914380054431586,0.0,0.0,0.10089230702313176,0.0,0.0,0.0,0.46520435200426263,0.0,0.0,0.0,stabilize
1761310069.4872875,9.610631942749023,0.0,0.0,2.0013805194233614,0.0,0.0,0.08633708447043752,0.0,0.0,0.0,0.4,0.0,0.0,0.0,stabilize
1761310069.5930827,9.716427087783813,0.0,0.0,2.0105362238052398,0.0,0.0,0.08171223296129744,0.0,0.0,0.0,0.4410097974134689,0.0,0.0,0.0,stabilize
1761310069.6985672,9.821911573410034,0.0,0.0,2.018699631896736,0.0,0.0,0.08223013915638626,0.0,0.0,0.0,0.5022844666477024,0.0,0.0,0.0,stabilize
1761310069.8033245,9.926668882369995,0.0,0.0,2.026149027781551,0.0,0.0,0.06433307758447887,0.0,0.0,0.0,0.4186076270078207,0.0,0.0,0.0,stabilize
1761310069.907803,10.031147480010986,0.0,0.0,2.033003523482857,0.0,0.0,0.06187258327706865,0.0,0.0,0.0,0.4,0.0,0.0,0.0,stabilize
1761310070.0182602,10.141604661941528,0.0,0.0,2.0394964402826323,0.0,0.0,0.05196681999553571,0.0,0.0,0.0,0.414781338815877,0.0,0.0,0.0,stabilize
1761310070.124076,10.247420310974121,0.0,0.0,2.0451323094322005,0.0,0.0,0.055662098204455696,0.0,0.0,0.0,0.4839918387590946,0.0,0.0,0.0,stabilize
1761310070.2349339,10.358278274536133,0.0,0.0,2.050386457455947,0.0,0.0,0.041032374162931144,0.0,0.0,0.0,0.4,0.0,0.0,0.0,stabilize
1761310070.3404095,10.463753938674927,0.0,0.0,2.055171404085124,0.0,0.0,0.0392000170154575,0.0,0.0,0.0,0.4,0.0,0.0,0.0,stabilize
1761310070.44474,10.568084478378296,0.0,0.0,2.0594182245213695,0.0,0.0,0.03775629091323566,0.0,0.0,0.0,0.43939986566548644,0.0,0.0,0.0,stabilize
1761310070.5503693,10.673713684082031,0.0,0.0,2.0631053233197805,0.0,0.0,0.04070047515317608,0.0,0.0,0.0,0.49605861854968003,0.0,0.0,0.0,stabilize
1761310070.6535473,10.776891708374023,0.0,0.0,2.0664637604196425,0.0,0.0,0.03603366055616086,0.0,0.0,0.0,0.4842607790339381,0.0,0.0,0.0,stabilize
1761310070.758465,10.88180947303772,0.0,0.0,2.0696064157573906,0.0,0.0,0.03213394342878628,0.0,0.0,0.0,0.47444156096020645,0.0,0.0,0.0,stabilize
1761310070.8633332,10.986677646636963,0.0,0.0,2.0725012872439037,0.0,0.0,0.021566198399099398,0.0,0.0,0.0,0.4,0.0,0.0,0.0,stabilize
1761310070.967352,11.090696334838867,0.0,0.0,2.0750649700550023,0.0,0.0,0.023426795690742266,0.0,0.0,0.0,0.4,0.0,0.0,0.0,stabilize
1761310071.0727866,11.196130990982056,0.0,0.0,2.077354325531021,0.0,0.0,0.02272825479400299,0.0,0.0,0.0,0.4652699902386075,0.0,0.0,0.0,stabilize
1761310071.1781342,11.301478624343872,0.0,0.0,2.079344401464045,0.0,0.0,0.026739161915394764,0.0,0.0,0.0,0.510753881544445,0.0,0.0,0.0,stabilize
1761310071.2843647,11.407709121704102,0.0,0.0,2.08112822349636,0.0,0.0,0.01644146750760625,0.0,0.0,0.0,0.45686655911100815,0.0,0.0,0.0,stabilize
1761310071.3898933,11.513237714767456,0.0,0.0,2.082603410170487,0.0,0.0,0.012375348405032691,0.0,0.0,0.0,0.44342241540479177,0.0,0.0,0.0,stabilize
1761310071.496349,11.619693517684937,0.0,0.0,2.0838434178169236,0.0,0.0,0.0107359550901607,0.0,0.0,0.0,0.4418029051546441,0.0,0.0,0.0,stabilize
1761310071.601582,11.724926471710205,0.0,0.0,2.0849609638292756,0.0,0.0,0.008226787479570691,0.0,0.0,0.0,0.4,0.0,0.0,0.0,stabilize
1761310071.7071714,11.83051586151123,0.0,0.0,2.0859418458067913,0.0,0.0,0.013301578776678612,0.0,0.0,0.0,0.4758704404371601,0.0,0.0,0.0,stabilize
1761310071.814159,11.937503337860107,0.0,0.0,2.0868476505835014,0.0,0.0,0.010347864074304523,0.0,0.0,0.0,0.4671213232890097,0.0,0.0,0.0,stabilize
1761310071.9194758,12.04282021522522,0.0,0.0,2.087566170957523,0.0,0.0,0.0008888178690471676,0.0,0.0,0.0,0.4,0.0,0.0,0.0,stabilize
1761310072.024418,12.147762537002563,0.0,0.0,2.0880931369600813,0.0,0.0,0.0033270099180921693,0.0,0.0,0.0,0.44460620294684977,0.0,0.0,0.0,stabilize
1761310072.1313462,12.254690647125244,0.0,0.0,2.08838329483352,0.0,0.0,0.008083052420181761,0.0,0.0,0.0,0.48535127294240266,0.0,0.0,0.0,stabilize
1761310072.2376847,12.361029148101807,0.0,0.0,2.088714197945787,0.0,0.0,0.0017989231721451497,0.0,0.0,0.0,0.4,0.0,0.0,0.0,stabilize
1761310072.3434403,12.466784715652466,0.0,0.0,2.088928417849082,0.0,0.0,-0.0031697401850411385,0.0,0.0,0.0,0.4119517650806788,0.0,0.0,0.0,stabilize
1761310072.4481683,12.571512699127197,0.0,0.0,2.0891254506139205,0.0,0.0,0.0008054648951647189,0.0,0.0,0.0,0.4,0.0,0.0,0.0,stabilize
1761310072.5547724,12.678116798400879,0.0,0.0,2.0892202663891277,0.0,0.0,-0.002768144155108466,0.0,0.0,0.0,0.4,0.0,0.0,0.0,stabilize
1761310072.6596065,12.78295087814331,0.0,0.0,2.089387284720323,0.0,0.0,0.00945369144592502,0.0,0.0,0.0,0.5070821052658059,0.0,0.0,0.0,stabilize
1761310072.7644958,12.887840270996094,0.0,0.0,2.0894445442597402,0.0,0.0,-0.004943599779476293,0.0,0.0,0.0,0.41588165593121706,0.0,0.0,0.0,stabilize
1761310072.871561,12.994905471801758,0.0,0.0,2.0894152605073506,0.0,0.0,-0.005929898455802137,0.0,0.0,0.0,0.4,0.0,0.0,0.0,stabilize
1761310072.9787602,13.102104663848877,0.0,0.0,2.089342058259074,0.0,0.0,-0.007236269457395466,0.0,0.0,0.0,0.4045908277143997,0.0,0.0,0.0,stabilize
1761310073.0816884,13.20503282546997,0.0,0.0,2.089465127123664,0.0,0.0,-0.00653337765878841,0.0,0.0,0.0,0.4,0.0,0.0,0.0,stabilize
1761310073.1870582,13.310402631759644,0.0,0.0,2.0894708092443577,0.0,0.0,0.007575230799351,0.0,0.0,0.0,0.5055341344694448,0.0,0.0,0.0,stabilize
1761310073.2956555,13.418999910354614,0.0,0.0,2.0892945624632966,0.0,0.0,-0.004652767867040968,0.0,0.0,0.0,0.4,0.0,0.0,0.0,stabilize
1761310073.4001343,13.523478746414185,0.0,0.0,2.0890888720938254,0.0,0.0,0.004228812571929316,0.0,0.0,0.0,0.49542402540839636,0.0,0.0,0.0,stabilize
1761310073.5049431,13.628287553787231,0.0,0.0,2.088901564406343,0.0,0.0,-0.0031207523122728075,0.0,0.0,0.0,0.4,0.0,0.0,0.0,stabilize
1761310073.6112957,13.734640121459961,0.0,0.0,2.088634267986969,0.0,0.0,-0.0024798117649070875,0.0,0.0,0.0,0.4,0.0,0.0,0.0,stabilize
1761310073.7181604,13.8415048122406,0.0,0.0,2.0883462143383946,0.0,0.0,0.005379080322126431,0.0,0.0,0.0,0.511860628636111,0.0,0.0,0.0,stabilize
1761310073.822386,13.945730447769165,0.0,0.0,2.087939842772,0.0,0.0,-0.011078319363911342,0.0,0.0,0.0,0.4,0.0,0.0,0.0,stabilize
1761310073.9272628,14.050607204437256,0.0,0.0,2.087630354946881,0.0,0.0,-0.010803338712351368,0.0,0.0,0.0,0.4,0.0,0.0,0.0,stabilize
1761310074.0324767,14.155821084976196,0.0,0.0,2.0873470072452136,0.0,0.0,-0.010416240075421352,0.0,0.0,0.0,0.4,0.0,0.0,0.0,stabilize
1761310074.1373155,14.26065993309021,0.0,0.0,2.086962362147549,0.0,0.0,-0.006998824845383327,0.0,0.0,0.0,0.4316862368910184,0.0,0.0,0.0,stabilize
1761310074.2413857,14.3647301197052,0.0,0.0,2.0865263568204333,0.0,0.0,-0.0009892124196612352,0.0,0.0,0.0,0.4708599057049955,0.0,0.0,0.0,stabilize
1761310074.3457491,14.469093561172485,0.0,0.0,2.0861540163550196,0.0,0.0,-0.010275107422496326,0.0,0.0,0.0,0.40469010200545763,0.0,0.0,0.0,stabilize
1761310074.451753,14.57509732246399,0.0,0.0,2.085862851282408,0.0,0.0,-0.005149365761740558,0.0,0.0,0.0,0.4343762730270659,0.0,0.0,0.0,stabilize
1761310074.557804,14.681148529052734,0.0,0.0,2.085520764296133,0.0,0.0,-0.004737116730734998,0.0,0.0,0.0,0.4,0.0,0.0,0.0,stabilize
1761310074.6643283,14.787672758102417,0.0,0.0,2.085079503084661,0.0,0.0,-0.008759928647569692,0.0,0.0,0.0,0.4,0.0,0.0,0.0,stabilize
1761310074.7696493,14.892993688583374,0.0,0.0,2.0846235807928877,0.0,0.0,0.002511063729480392,0.0,0.0,0.0,0.5017190805161003,0.0,0.0,0.0,stabilize
1761310074.8750386,14.998383045196533,0.0,0.0,2.0841516576683476,0.0,0.0,-0.0008399588381044869,0.0,0.0,0.0,0.4749382042341588,0.0,0.0,0.0,stabilize
1761310074.9810686,15.104413032531738,0.0,0.0,2.0837824081208347,0.0,0.0,-0.0057772303880535315,0.0,0.0,0.0,0.4,0.0,0.0,0.0,stabilize
1761310075.0847492,15.208093643188477,0.0,0.0,2.0834078002181147,0.0,0.0,0.000263015280880732,0.0,0.0,0.0,0.4795103917738319,0.0,0.0,0.0,stabilize
1761310075.190494,15.313838481903076,0.0,0.0,2.0829397682049016,0.0,0.0,0.000665283869036172,0.0,0.0,0.0,0.48517611155347046,0.0,0.0,0.0,stabilize
1761310075.2963061,15.419650554656982,0.0,0.0,2.082521592223422,0.0,0.0,0.003349231581650956,0.0,0.0,0.0,0.4984982940457091,0.0,0.0,0.0,stabilize
1761310075.4006886,15.524033069610596,0.0,0.0,2.0819872729185676,0.0,0.0,-0.012166948267374739,0.0,0.0,0.0,0.4,0.0,0.0,0.0,stabilize
1761310075.5064442,15.629788637161255,0.0,0.0,2.0814735864319545,0.0,0.0,-0.009032896725219862,0.0,0.0,0.0,0.4,0.0,0.0,0.0,stabilize
1761310075.610886,15.734230518341064,0.0,0.0,2.0808927389480703,0.0,0.0,-0.007281900870455286,0.0,0.0,0.0,0.4391306931747153,0.0,0.0,0.0,stabilize
1761310075.7171745,15.840518951416016,0.0,0.0,2.080206411747716,0.0,0.0,-0.0068741383114711094,0.0,0.0,0.0,0.4,0.0,0.0,0.0,stabilize
1761310075.8249834,15.948327779769897,0.0,0.0,2.07944282554202,0.0,0.0,-0.007021587640105263,0.0,0.0,0.0,0.4,0.0,0.0,0.0,stabilize
1761310075.9294631,16.052807569503784,0.0,0.0,2.0787655854325067,0.0,0.0,-0.010143593155521897,0.0,0.0,0.0,0.4,0.0,0.0,0.0,stabilize
1761310076.0345192,16.15786361694336,0.0,0.0,2.07815188719263,0.0,0.0,-0.008830203642735757,0.0,0.0,0.0,0.4318082015979427,0.0,0.0,0.0,stabilize
1761310076.1397562,16.263100624084473,0.0,0.0,2.0775172504130186,0.0,0.0,-0.0031188600744003732,0.0,0.0,0.0,0.4686017814177629,0.0,0.0,0.0,stabilize
1761310076.2445197,16.36786413192749,0.0,0.0,2.0769379993786847,0.0,0.0,-0.006478302918903237,0.0,0.0,0.0,0.44120660792183125,0.0,0.0,0.0,stabilize
1761310076.3494735,16.47281789779663,0.0,0.0,2.07618304633967,0.0,0.0,0.0004145182757282137,0.0,0.0,0.0,0.5001546288819138,0.0,0.0,0.0,stabilize
1761310076.4539418,16.57728624343872,0.0,0.0,2.075497967601517,0.0,0.0,0.00022966846091440965,0.0,0.0,0.0,0.4954807493735792,0.0,0.0,0.0,stabilize
1761310076.558963,16.682307481765747,0.0,0.0,2.0747997645492684,0.0,0.0,-0.013438038617172526,0.0,0.0,0.0,0.4071606984836085,0.0,0.0,0.0,stabilize
1761310076.6646438,16.78798818588257,0.0,0.0,2.0741028067348513,0.0,0.0,-0.003975858648953668,0.0,0.0,0.0,0.46833226705984143,0.0,0.0,0.0,stabilize
1761310076.769051,16.892395496368408,0.0,0.0,2.073468237137936,0.0,0.0,-0.013069908752012582,0.0,0.0,0.0,0.4,0.0,0.0,0.0,stabilize
1761310076.8741367,16.997481107711792,0.0,0.0,2.0730708905229305,0.0,0.0,-0.0036206570482152523,0.0,0.0,0.0,0.4,0.0,0.0,0.0,stabilize
1761310076.983214,17.106558322906494,0.0,0.0,2.072598084593721,0.0,0.0,-0.015335832599343116,0.0,0.0,0.0,0.4008664823374102,0.0,0.0,0.0,stabilize
1761310077.0868177,17.21016216278076,0.0,0.0,2.0723337162847635,0.0,0.0,0.0014023189754673853,0.0,0.0,0.0,0.4837034281672607,0.0,0.0,0.0,stabilize
1761310077.1915624,17.31490683555603,0.0,0.0,2.071951359903706,0.0,0.0,0.0038179411486297977,0.0,0.0,0.0,0.5024687886680508,0.0,0.0,0.0,stabilize
1761310077.2962668,17.41961121559143,0.0,0.0,2.0715084946704843,0.0,0.0,0.0024077254425855735,0.0,0.0,0.0,0.4975019818930744,0.0,0.0,0.0,stabilize
1761310077.3991396,17.522484064102173,0.0,0.0,2.0710544853203148,0.0,0.0,-0.004380868865021299,0.0,0.0,0.0,0.4518157103082484,0.0,0.0,0.0,stabilize
1761310077.5022454,17.625589847564697,0.0,0.0,2.0705971994756367,0.0,0.0,-0.008022072419779725,0.0,0.0,0.0,0.4235846305454429,0.0,0.0,0.0,stabilize
1761310077.607584,17.730928421020508,0.0,0.0,2.070119101911292,0.0,0.0,0.0033340218240278593,0.0,0.0,0.0,0.5033036098988588,0.0,0.0,0.0,stabilize
1761310077.714286,17.8376305103302,0.0,0.0,2.069606965978065,0.0,0.0,0.0030006171285002336,0.0,0.0,0.0,0.5030048311446965,0.0,0.0,0.0,stabilize
1761310077.821303,17.944647312164307,0.0,0.0,2.0690330260194414,0.0,0.0,-0.002349038795278858,0.0,0.0,0.0,0.46998858807365607,0.0,0.0,0.0,stabilize
1761310077.9276485,18.050992965698242,0.0,0.0,2.068591249820146,0.0,0.0,0.00022739644491051418,0.0,0.0,0.0,0.4792249920516256,0.0,0.0,0.0,stabilize
1761310078.0340774,18.157421827316284,0.0,0.0,2.068095483833208,0.0,0.0,-0.010869961547167817,0.0,0.0,0.0,0.4090071585224666,0.0,0.0,0.0,stabilize
1761310078.1404843,18.26382875442505,0.0,0.0,2.067558852948458,0.0,0.0,-0.006641305861923893,0.0,0.0,0.0,0.44221709563668177,0.0,0.0,0.0,stabilize
1761310078.2469125,18.370256900787354,0.0,0.0,2.066854656269074,0.0,0.0,-0.012826469609572271,0.0,0.0,0.0,0.40363466205585385,0.0,0.0,0.0,stabilize
1761310078.3527856,18.47613000869751,0.0,0.0,2.066330504051805,0.0,0.0,-0.012014206872722748,0.0,0.0,0.0,0.40193018049178086,0.0,0.0,0.0,stabilize
1761310078.455963,18.579307317733765,0.0,0.0,2.0658749029018053,0.0,0.0,0.002314260931343643,0.0,0.0,0.0,0.5001363120208497,0.0,0.0,0.0,stabilize
1761310078.5589585,18.682302951812744,0.0,0.0,2.0654376055151817,0.0,0.0,-0.008762360862777992,0.0,0.0,0.0,0.4179572531788358,0.0,0.0,0.0,stabilize
1761310078.6623158,18.78566026687622,0.0,0.0,2.0649941160468415,0.0,0.0,-0.006041471183518497,0.0,0.0,0.0,0.4,0.0,0.0,0.0,stabilize
1761310078.7675762,18.890920639038086,0.0,0.0,2.064348415141448,0.0,0.0,-0.0054942923741001706,0.0,0.0,0.0,0.4559836919486555,0.0,0.0,0.0,stabilize
1761310078.8712428,18.994587182998657,0.0,0.0,2.0636154483178233,0.0,0.0,-0.009972046927048443,0.0,0.0,0.0,0.4,0.0,0.0,0.0,stabilize
1761310078.9765403,19.099884748458862,0.0,0.0,2.0629655052081675,0.0,0.0,-0.009508367245610298,0.0,0.0,0.0,0.4,0.0,0.0,0.0,stabilize
1761310079.079304,19.202648401260376,0.0,0.0,2.0623076318210076,0.0,0.0,-0.0029778058509926522,0.0,0.0,0.0,0.47347961198846855,0.0,0.0,0.0,stabilize
1761310079.1814666,19.304811000823975,0.0,0.0,2.0617966691479057,0.0,0.0,0.020402460042466757,0.0,0.0,0.0,0.5893862819427003,0.0,0.0,0.0,stabilize
1761310079.2866814,19.41002583503723,0.0,0.0,2.062080366812886,0.0,0.0,-0.004872789821706368,0.0,0.0,0.0,0.4206794746914137,0.0,0.0,0.0,stabilize
1761310079.3929648,19.51630926132202,0.0,0.0,2.061961321533183,0.0,0.0,-0.00523595142989024,0.0,0.0,0.0,0.4,0.0,0.0,0.0,stabilize
1761310079.4975686,19.62091302871704,0.0,0.0,2.0618099371275185,0.0,0.0,-0.0033648568867971776,0.0,0.0,0.0,0.4388331747137003,0.0,0.0,0.0,stabilize
1761310079.6014714,19.724815845489502,0.0,0.0,2.0615282034396176,0.0,0.0,-0.0018810083847895596,0.0,0.0,0.0,0.4,0.0,0.0,0.0,stabilize
1761310079.706542,19.829886436462402,0.0,0.0,2.061171597150058,0.0,0.0,-0.00726810373480768,0.0,0.0,0.0,0.42658727512136485,0.0,0.0,0.0,stabilize
1761310079.8126905,19.93603491783142,0.0,0.0,2.0607495597655068,0.0,0.0,0.0001876202220564057,0.0,0.0,0.0,0.48113116077918344,0.0,0.0,0.0,stabilize
1761310079.9162934,20.039637804031372,0.0,0.0,2.0602860341173193,0.0,0.0,0.0009458384367192901,0.0,0.0,0.0,0.4879440177266601,0.0,0.0,0.0,stabilize
1761310080.0223832,20.14572763442993,0.0,0.0,2.0598033606920954,0.0,0.0,-0.00619039922923313,0.0,0.0,0.0,0.4,0.0,0.0,0.0,stabilize
1761310080.1271505,20.250494956970215,0.0,0.0,2.0592727316936426,0.0,0.0,0.0027814700894638125,0.0,0.0,0.0,0.5025435736520159,0.0,0.0,0.0,stabilize
1761310080.2329462,20.356290578842163,0.0,0.0,2.0588155152515126,0.0,0.0,-0.007409418364698156,0.0,0.0,0.0,0.4330405670661901,0.0,0.0,0.0,stabilize
1761310080.337679,20.461023330688477,0.0,0.0,2.0583891436106923,0.0,0.0,0.0039121815344080255,0.0,0.0,0.0,0.5035558995094075,0.0,0.0,0.0,stabilize
1761310080.4423134,20.5656578540802,0.0,0.0,2.0580113443610424,0.0,0.0,0.00395357239274079,0.0,0.0,0.0,0.5004391920271647,0.0,0.0,0.0,stabilize
1761310080.5459254,20.669269800186157,0.0,0.0,2.0576554722895013,0.0,0.0,-0.005852914747867558,0.0,0.0,0.0,0.4388221071101919,0.0,0.0,0.0,stabilize
1761310080.6492636,20.772608041763306,0.0,0.0,2.0570804148010153,0.0,0.0,-0.010875777913439817,0.0,0.0,0.0,0.4,0.0,0.0,0.0,stabilize
1761310080.757305,20.88064932823181,0.0,0.0,2.0568463183776875,0.0,0.0,0.007058055709362441,0.0,0.0,0.0,0.5138180570488499,0.0,0.0,0.0,stabilize
1761310080.8611476,20.98449206352234,0.0,0.0,2.056653497685722,0.0,0.0,0.0044335506209634955,0.0,0.0,0.0,0.49715278220083947,0.0,0.0,0.0,stabilize
1761310080.965554,21.088898420333862,0.0,0.0,2.0562959577565305,0.0,0.0,-0.004694440821454801,0.0,0.0,0.0,0.44476877717625696,0.0,0.0,0.0,stabilize
1761310081.0697033,21.193047761917114,0.0,0.0,2.055732683606671,0.0,0.0,0.002759159208469192,0.0,0.0,0.0,0.5065386381089702,0.0,0.0,0.0,stabilize
1761310081.1733806,21.296725034713745,0.0,0.0,2.055125168342539,0.0,0.0,-0.00014332006623260334,0.0,0.0,0.0,0.48833284319472625,0.0,0.0,0.0,stabilize
1761310081.2777433,21.401087760925293,0.0,0.0,2.0545432111803152,0.0,0.0,-0.0044861344164191085,0.0,0.0,0.0,0.4578365354477809,0.0,0.0,0.0,stabilize
1761310081.3820531,21.50539755821228,0.0,0.0,2.053928458334829,0.0,0.0,-0.0006358296697703113,0.0,0.0,0.0,0.4852346141748758,0.0,0.0,0.0,stabilize
1761310081.4907007,21.61404514312744,0.0,0.0,2.053346498917081,0.0,0.0,0.003440879281945128,0.0,0.0,0.0,0.49698420068685556,0.0,0.0,0.0,stabilize
1761310081.5933943,21.7167387008667,0.0,0.0,2.0527344748136613,0.0,0.0,0.0018565934099432236,0.0,0.0,0.0,0.5056339911566993,0.0,0.0,0.0,stabilize
1761310081.6976218,21.820966243743896,0.0,0.0,2.052059309989776,0.0,0.0,-0.01257202249654037,0.0,0.0,0.0,0.4,0.0,0.0,0.0,stabilize
1761310081.8056977,21.929042100906372,0.0,0.0,2.0515051246955163,0.0,0.0,-0.012102521902353593,0.0,0.0,0.0,0.4088870065062675,0.0,0.0,0.0,stabilize
1761310081.9108367,22.034181118011475,0.0,0.0,2.0508676861616633,0.0,0.0,0.002729004007610154,0.0,0.0,0.0,0.5094727499397107,0.0,0.0,0.0,stabilize
1761310082.0188277,22.14217209815979,0.0,0.0,2.0505975475243674,0.0,0.0,0.0006944145734069735,0.0,0.0,0.0,0.44234449152177546,0.0,0.0,0.0,stabilize
1761310082.1470394,22.270383834838867,0.0,0.0,2.050093448942155,0.0,0.0,-0.02779341209679291,0.0,0.0,0.0,0.4,0.0,0.0,0.0,stabilize
1761310082.2824552,22.405799627304077,0.0,0.0,2.049478184175713,0.0,0.0,-0.01801003658990999,0.0,0.0,0.0,0.4584376543670372,0.0,0.0,0.0,stabilize
1761310082.3877757,22.511120080947876,0.0,0.0,2.049448100152939,0.0,0.0,0.02162280388333459,0.0,0.0,0.0,0.4,0.0,0.0,0.0,stabilize
1761310082.518831,22.642175436019897,0.0,0.0,2.0489786772156955,0.0,0.0,-0.020043359216342323,0.0,0.0,0.0,0.41470072078496967,0.0,0.0,0.0,stabilize
1761310082.6468143,22.770158767700195,0.0,0.0,2.0523688015227766,0.0,0.0,0.027640747124732815,0.0,0.0,0.0,0.4355051076559344,0.0,0.0,0.0,stabilize
1761310082.749991,22.873335361480713,0.0,0.0,2.0564016159190603,0.0,0.0,0.0427952508903605,0.0,0.0,0.0,0.4,0.0,0.0,0.0,stabilize
1761310082.9218266,23.04517102241516,0.0,0.0,2.063662131526077,0.0,0.0,0.1617266918599495,0.0,0.0,0.0,0.5320493378550719,0.0,0.0,0.0,stabilize
1761310083.0316386,23.154983043670654,0.0,0.0,2.0762061933646443,0.0,0.0,0.06885662640781123,0.0,0.0,0.0,0.4,0.0,0.0,0.0,stabilize
1761310083.1365476,23.259891986846924,0.0,0.0,2.0807819842490543,0.0,0.0,0.03037776676469425,0.0,0.0,0.0,0.4121237710111196,0.0,0.0,0.0,stabilize
1761310083.237112,23.360456466674805,0.0,0.002947128292618763,2.1214480481388365,0.0,0.12156804525135904,0.9164568982238934,0.1676226780528343,0.0,0.0,0.9,0.2,0.0,0.0,auto
1761310083.341272,23.464616537094116,0.0,0.0300100920800134,2.2202429137111546,0.0,0.44096674788752277,1.0017071716542316,0.34000650606602917,0.0,0.0,0.4,-0.131929828915429,0.0,0.0,auto
1761310083.4459136,23.569257974624634,-6.521163731267588e-22,0.0928055539704596,2.330060719166005,-1.4375160921414262e-20,0.7155861317062017,1.0874586159372728,0.1653745231927842,-6.225388675356898e-21,1.25750718108743e-19,0.4,0.18560187066790731,-4.828585234493435e-20,-3.1079270817522356e-19,auto
1761310083.5525596,23.675904035568237,-3.4442168635209594e-21,0.18084667556382836,2.4515858526116294,-3.758630560283333e-20,0.9269673279856713,1.205435789085366,0.13471649906354452,-7.588148482168256e-21,1.6038868632472305e-19,0.6387119321441669,0.17506745874858737,-1.0812276806856101e-19,-3.022195216767166e-19,auto
1761310083.6561694,23.779513835906982,-8.34332414511318e-21,0.2853178286836747,2.5778391279074624,-5.725368893899328e-20,1.0909352460945585,1.2488131947022694,0.11954658774496842,-7.792986674300946e-21,1.6863516325471055e-19,0.4984238561075031,0.05730232366984369,-1.3696096308114022e-19,-2.7593593073102945e-19,auto
1761310083.760281,23.883625507354736,-1.5135256328174016e-20,0.40596825326072394,2.7106901836846187,-7.51842670282192e-20,1.2307479946007602,1.2990871849958414,0.11056613620961368,-8.712049279880092e-21,2.3469226125965795e-19,0.46160415991768367,-0.04311709447903731,-1.5345062480011368e-19,-4.301973670442817e-19,auto
1761310083.8634992,23.986843585968018,-2.396948376176258e-20,0.5386342158844144,2.847734456337512,-9.93229539059459e-20,1.3472824168386686,1.3564790604533683,0.10822285382642338,-1.0358602529820871e-20,3.085848473410506e-19,0.510392326215692,-0.11183265665804847,-2.0649908990068932e-19,-5.638564763275195e-19,auto
1761310083.9670665,24.090410947799683,-3.52554530820419e-20,0.6827091439971915,2.9897660320866866,-1.215655327776218e-19,1.4436928710495611,1.4015313289090416,0.10682525552533584,-1.0706287487914913e-20,3.272740236458204e-19,0.5343666163682609,-0.1502850406597719,-2.2421778233668764e-19,-5.361914425989378e-19,auto
1761310084.070465,24.193809509277344,-4.862828644303278e-20,0.8356999672282013,3.135175111785014,-1.38811875758557e-19,1.5207481273416803,1.4196436807118644,0.10321599844646646,-1.0779358990515995e-20,3.319680670651321e-19,0.4473364699312005,-0.15863661610001567,-2.4019468348788996e-19,-5.186084982398706e-19,auto
1761310084.1746652,24.298009634017944,-6.375742749380232e-20,0.99726045730881,3.2785257276928745,-1.5167578632691452e-19,1.5804788822386673,1.3324006077224209,0.0964158952916793,-1.0791524785679434e-20,3.3315482481069587e-19,0.4,-0.09224440247484675,-2.3242212800390143e-19,-5.129881792139584e-19,auto
1761310084.278246,24.40159034729004,-8.010400074746583e-20,1.163961285690594,3.4123869652093783,-1.6228296396778978e-19,1.6331592460432027,1.2498313505791365,0.0789228795469,-1.07932591886426e-20,3.3344980059113972e-19,0.4018581138375524,-0.012814700366463067,-2.466290370128587e-19,-5.124072737863079e-19,auto
1761310084.3819044,24.50524878501892,-9.7348164449641e-20,1.3356105496392323,3.538226092621328,-1.6440847453068607e-19,1.6606247109550287,1.178980133116471,0.0036220436281075062,-1.079416236404332e-20,3.335239564751961e-19,0.4,0.19908167027061596,-2.1563447795103229e-19,-5.13458848022968e-19,auto
1761310084.4855332,24.608877658843994,-1.1425794628944525e-19,1.5083943897518377,3.6563367598697494,-1.6008805644969271e-19,1.668608566677245,1.1040823005895581,-0.010878372429755728,-1.081293900723713e-20,3.570230249051049e-19,0.4149018150091777,0.1815700490954415,-1.9690958705004368e-19,-5.149993202640195e-19,auto
1761310084.5871036,24.710448026657104,-1.3031067183275844e-19,1.6777805147223281,3.764565625468822,-1.579987937474475e-19,1.669248097202938,1.028349664867717,-0.003836491548952251,-7.563330736621106e-21,5.946579844197124e-19,0.4129160294381488,0.015552900933692278,-2.3424129080857424e-19,-1.1492558056225379e-18,auto
1761310084.6919234,24.81526780128479,-1.4653588671279474e-19,1.8522220290560627,3.868650460070193,-1.541618178091521e-19,1.6632234051534096,0.9573296543239462,-0.005314718540126611,-7.65145575507994e-21,6.569052015742015e-19,0.414817399823429,-0.039843276581564877,-2.3169453128363224e-19,-1.120360339780379e-18,auto
1761310084.7964172,24.919761657714844,-1.6195708309608453e-19,2.0249739228344223,3.9651069822145826,-1.4476518426034292e-19,1.648980994771598,0.8912444897918002,0.004973422922333091,-7.766165341912736e-21,6.722701805704179e-19,0.4273208803179478,-0.060088177655862954,-1.9718690420879086e-19,-1.0715021708820276e-18,auto
1761310084.90055,25.02389430999756,-1.7633028742217375e-19,2.1956448286909667,4.0543631930827955,-1.3216351941612203e-19,1.6303267201163778,0.8236438608137948,-0.00301446424019168,-7.789887158905193e-21,6.760787312170905e-19,0.4,-0.05242480362598942,-1.677155420993261e-19,-1.053402123381161e-18,auto
1761310085.0011368,25.124481201171875,-1.8901750082954434e-19,2.358755341316327,4.1345794757075005,-1.2230402153670143e-19,1.6161675612601203,0.773602881060814,0.009174290441775056,-7.790594100809784e-21,6.770135470036359e-19,0.4,-0.2,-1.836025387456056e-19,-1.0501546953930224e-18,auto
1761310085.1049383,25.228282690048218,-2.0033583043836219e-19,2.523760867271852,4.211435828307272,-9.899039400201021e-20,1.582343295243672,0.7163027560981616,0.026249487460676665,-7.793738254214692e-21,6.772610981317869e-19,0.43437461453446485,-0.030929450897724142,-7.163174511908058e-20,-1.0512030944511267e-18,auto
1761310085.2096348,25.332979202270508,-2.1046555430801337e-19,2.6898744328461204,4.283967807123686,-8.301540490405384e-20,1.5596556889985371,0.6627788787364073,-0.01773148275729057,-7.793360404887677e-21,6.773240975271946e-19,0.4,0.18434677281366973,-6.610939750454737e-20,-1.0541025826468389e-18,auto
1761310085.3189564,25.44230079650879,-2.1940404036629875e-19,2.860270974521857,4.354026192148448,-7.044628172533327e-20,1.5446730298530449,0.6177114891930132,-0.06355584399240384,-1.0244215746815652e-20,7.499475548498208e-19,0.41959598045932367,0.2,-7.959031686086724e-20,-1.3118575854834252e-18,auto
1761310085.4260056,25.549350023269653,-2.2533715793365376e-19,3.0237939568671273,4.417401766574332,-4.702816742892101e-20,1.52157261123868,0.5625628420797516,-0.02962879745847559,-1.7556297815331492e-20,6.321838680372388e-19,0.4008711231476153,-0.01164535979412891,-7.998801008684514e-21,-9.2108013351219e-19,auto
1761310085.529306,25.652650356292725,-2.281806167103242e-19,3.178782708080032,4.47370473507658,-1.511632488134143e-20,1.4905219832316743,0.5230425948482891,-0.004189956598049587,-1.9030336112077795e-20,6.503373412686895e-19,0.4,-0.14524433688524718,7.151600822572494e-20,-1.030054101619846e-18,auto
1761310085.6345274,25.757871866226196,-2.279414445861119e-19,3.3338299537774816,4.526440079575708,1.803630886836677e-20,1.4591295575281455,0.48020826411686024,-0.008749916041686762,-1.9152923270357407e-20,6.549556291506135e-19,0.4218428903200319,-0.08571176951129489,1.3091561795148298e-19,-1.040557886373792e-18,auto
1761310085.7400484,25.86339282989502,-2.2432743150822825e-19,3.4862202027922056,4.574974563271979,5.158914272146069e-20,1.427559351410193,0.4409177538731224,-0.016705335480199507,-1.9162187589090892e-20,6.56092607286152e-19,0.4303888531160749,0.038103937465004414,1.8243013520402666e-19,-1.041994353259778e-18,auto
1761310085.8446338,25.96797823905945,-2.173819706383575e-19,3.6341833873139873,4.6191631390356465,8.357737022943576e-20,1.3985910222702902,0.4105898234917927,-0.02401174265576271,-1.916224379466627e-20,6.563699098659838e-19,0.4709201340988354,0.014197079358814443,2.2669132762092215e-19,-1.0442002152688054e-18,auto
1761310085.9510496,26.07439398765564,-2.0688065596668173e-19,3.781620984773982,4.6604883132227135,1.1478110825621108e-19,1.3710288924839822,0.3710968981751064,-0.02698673501234997,-1.9162147925257967e-20,6.56439217837651e-19,0.4,0.03234693275181839,2.626131107499439e-19,-1.04724284212968e-18,auto
1761310086.0576694,26.181013822555542,-1.9288669238417276e-19,3.926209250757624,4.698372248176235,1.4780692704313843e-19,1.34102220561469,0.3376252729603306,-0.03038686029734852,-1.9162162237929172e-20,6.5645600401559315e-19,0.4,0.048638101097625605,3.1299911466086054e-19,-1.050602597581475e-18,auto
1761310086.1630375,26.28638195991516,-1.7555978613473715e-19,4.065918124454777,4.732735030541485,1.7938050747873254e-19,1.3134965202713242,0.3179559608984251,-0.023750929108810003,-1.9162160974447695e-20,6.564600333286411e-19,0.4766967746282828,-0.01129687770328238,3.4921065835080894e-19,-1.0540211478927121e-18,auto
1761310086.2678242,26.39116859436035,-1.5496667430647008e-19,4.201866529676709,4.764056775939369,2.111445671974728e-19,1.2854473199463052,0.2906650305973087,-0.010488710749285141,-1.9162162908560317e-20,6.564610195822758e-19,0.4666193450328725,-0.06451626328228251,4.014641584969784e-19,-1.0574496999124338e-18,auto
1761310086.3737216,26.497066020965576,-1.3080949386997467e-19,4.33633917700194,4.793137554094881,2.440959844672977e-19,1.2557915587440318,0.25922150597258,-0.004159708375742857,-1.9162163461798207e-20,6.564612646615973e-19,0.4,-0.06609901796575031,4.676482236168089e-19,-1.0609227049546983e-18,auto
1761310086.4812715,26.604615926742554,-1.0281325346498142e-19,4.469896187681876,4.820223577602291,2.7682957970731585e-19,1.227273964345206,0.24036612608740546,-0.0016678432284807174,-1.9162163453118348e-20,6.564613247981253e-19,0.43696315186026236,-0.04722917445600484,5.196209362341673e-19,-1.0644520747013465e-18,auto
1761310086.5857768,26.709121227264404,-7.223976942045192e-20,4.5967341843951,4.844277864042876,3.111820424354937e-19,1.1958012779434433,0.22239970420935598,-0.0029174194472602125,-1.9162163466067563e-20,6.564613389461467e-19,0.45087685260611876,0.06220869214587681,5.837164576621693e-19,-1.0678820666330296e-18,auto
1761310086.690822,26.81416630744934,-3.8287918077129446e-20,4.721523039678849,4.866553763750933,3.4210115504248623e-19,1.1696017054353653,0.19905606319728467,-0.024194919689827312,-1.9162163446233488e-20,6.564613424664275e-19,0.4,0.10778917284639622,6.471210253108231e-19,-1.0713299199603963e-18,auto
1761310086.7922158,26.915560245513916,-2.4537183198570344e-21,4.839433846096472,4.887005624020137,3.7063842834546635e-19,1.1468720597913193,0.19331969549600536,-0.07122513682553952,-1.9162163440902005e-20,6.564613433198441e-19,0.4,0.18452024363633426,6.809576175869283e-19,-1.074657968445501e-18,auto
1761310086.8971152,27.02045965194702,3.842606247843716e-20,4.957688174650333,4.906460091584502,3.9512424606417296e-19,1.1250713542291404,0.1752875350309066,-0.014854382015182587,-1.1459589709575918e-20,8.563192510873747e-19,0.4,-0.16286912801660902,6.219266623441887e-19,-1.6211211482391103e-18,auto
1761310087.000634,27.12397837638855,8.115963662953651e-20,5.07226311864216,4.923888061383877,4.2004885751007016e-19,1.0992376793377159,0.16421109553142862,-0.0004935199748061937,-5.332566010409834e-21,1.0525244529173659e-18,0.4,-0.18729718236082227,6.598226300537632e-19,-1.9465843704827392e-18,auto
1761310087.104653,27.227997303009033,1.2652441153463057e-19,5.184970336772872,4.939878976642242,4.473089183637527e-19,1.0724150059407411,0.14520642025613284,0.0025782475380347713,-4.987332584352019e-21,1.1385785604307266e-18,0.4,-0.13978092711737855,7.535445479478318e-19,-1.9592745975217836e-18,auto
1761310087.20943,27.33277440071106,1.7479460624810043e-19,5.296000560798372,4.954451458430812,4.7572292755578455e-19,1.045587480889534,0.13026878081373613,-0.00216643832202198,-4.969000593096073e-21,1.1601507787700607e-18,0.4286487139976355,-0.005700607906184705,8.140930274088365e-19,-1.902798096019276e-18,auto
1761310087.314598,27.437942504882812,2.258322469667684e-19,5.404989404690339,4.967718813396507,5.0249013183485115e-19,1.020540985389737,0.11669363839000903,-0.01616986109523745,-4.953805429256601e-21,1.1654953995875865e-18,0.4,0.045245946292589996,8.983033126545215e-19,-1.8809465332204336e-18,auto
1761310087.4198067,27.543151140213013,2.7958992357056414e-19,5.511496505237192,4.979948846573226,5.2689527004953245e-19,0.9977727398130246,0.11558022342747384,-0.023063448885308847,-4.947902404598608e-21,1.166810654640127e-18,0.4715420459594464,0.0982969302475423,9.153277371902788e-19,-1.8775582107371916e-18,auto
1761310087.5241268,27.6474711894989,3.354087758207561e-19,5.6147603329092135,4.99101165234757,5.498214617325754e-19,0.9763891689182651,0.10138312936949553,-0.03403124572696976,-4.946637790002255e-21,1.1671328361519385e-18,0.4,0.12463212636084009,9.614589757834465e-19,-1.8808023195383643e-18,auto
1761310087.6297462,27.753090620040894,3.9446011334429582e-19,5.716961676836381,5.001185133425479,5.717410759984528e-19,0.9560137003982191,0.09111144619085912,-0.03701774221434796,-4.9463856282290996e-21,1.1672134652668158e-18,0.4,0.11501862180652644,9.864987151570087e-19,-1.8861665468550835e-18,auto
1761310087.733895,27.857239484786987,4.552178535866107e-19,5.815416311165059,5.010168146931077,5.929359704421669e-19,0.936447492204681,0.08576227828513593,-0.028769458414905698,-4.94636186065328e-21,1.1672330583162964e-18,0.46881540684415035,0.03169055807804218,1.0131597684851512e-18,-1.892028202731356e-18,auto
1761310087.8383505,27.961694955825806,5.1857143856129685e-19,5.911948736339355,5.018379350180856,6.1543989784027305e-19,0.9158470019857543,0.06970954601910337,-0.021038707967089558,-4.946369382800081e-21,1.1672379516945812e-18,0.40798680442435564,-0.03866659533577013,1.0820261000170467e-18,-1.898067215354181e-18,auto
1761310087.9429438,28.066288232803345,5.844490455896534e-19,6.006390177089686,5.025795542761761,6.391087739206172e-19,0.8944561721966398,0.07096923543825691,-0.01190773130609357,-4.946372247557427e-21,1.1672391679231427e-18,0.4710966250497806,-0.06318942539408548,1.1371081525524745e-18,-1.904156560238343e-18,auto
1761310088.0443437,28.167688131332397,6.507182300861486e-19,6.0957835525561865,5.032877997821703,6.755281934579966e-19,0.8622947511084268,0.06994613254885185,-0.03987084606093973,-4.946374262534165e-21,1.1672394651488107e-18,0.4,0.18672590984974452,1.311309623451389e-18,-1.9100708214747277e-18,auto
1761310088.1488764,28.272220849990845,7.218465625583373e-19,6.1854349439010825,5.039538736808531,6.891450308796874e-19,0.8497573975437425,0.06138562268396017,-0.04313378663833951,-4.9463734425785856e-21,1.1672395431468716e-18,0.4,0.14110899451746034,1.204968795179976e-18,-1.9161704215350807e-18,auto
1761310088.2558775,28.37922191619873,7.967822112741262e-19,6.275293266992654,5.045744854104438,7.078721165648917e-19,0.832944107465117,0.054411873963287824,-0.03828247660929941,-4.94637343211623e-21,1.1672395627080614e-18,0.4,0.04838175863850771,1.2585094398893064e-18,-1.922414934365219e-18,auto
1761310088.3628824,28.486226797103882,8.734203726054096e-19,6.362178990261907,5.051222347981751,7.269100563727836e-19,0.8160150932002155,0.0512657648769284,-0.018615446164129034,-4.9463734443090006e-21,1.1672395673849003e-18,0.4574446880609448,-0.10353023356082378,1.3160844715967476e-18,-1.9286013007545746e-18,auto
1761310088.4661095,28.58945393562317,9.509397797961773e-19,6.44570341569059,5.0562079948221745,7.483984432331965e-19,0.7971027247754067,0.04645096250860821,0.002164119526095836,-4.946373450873021e-21,1.1672395685141678e-18,0.4,-0.17762990678667612,1.3810495187574665e-18,-1.9346844038943895e-18,auto
1761310088.5701683,28.693512678146362,1.03033135395257e-18,6.52732879649506,5.060593832338466,7.708610143116282e-19,0.7774555298684999,0.04033004092861217,0.012289783574257798,-4.946373452236293e-21,1.1672395687952992e-18,0.4343347480708883,-0.1670192674236179,1.4611066327560066e-18,-1.9407574737441222e-18,auto
1761310088.6783886,28.801733016967773,1.115140388777318e-18,6.610359943039324,5.064557336052513,7.961429647491991e-19,0.7576573712041654,0.026488187476049814,0.016556449120352812,-6.790844144649053e-21,1.289042893632487e-18,0.4,0.03267938894927568,1.4670327313566538e-18,-2.2361137009737255e-18,auto
1761310088.783787,28.90713143348694,1.1999381774683049e-18,6.68960346705029,5.069169171679271,8.291210111400576e-19,0.733627231384373,0.03348824758694215,-0.008962369396536721,-6.923484975768477e-21,1.3201818861422904e-18,0.40571316568003735,0.12276735364118688,1.7012458611938433e-18,-2.2409121796808922e-18,auto
1761310088.887874,29.011218309402466,1.2863351788706514e-18,6.766002626444662,5.072833034751326,8.521718671594245e-19,0.7203855498125,0.03736684574058646,-0.037450307621486184,-1.1545345560374802e-20,1.524704985088561e-18,0.4539841320443265,0.2,1.7374743346461696e-18,-2.7458744455184886e-18,auto
1761310088.992268,29.115612506866455,1.3761248631643015e-18,6.840870211317271,5.076050772741151,8.779830224127294e-19,0.708579796250102,0.038241781669669225,-0.04507626487930547,-1.331806299731517e-20,1.7237981054017338e-18,0.5043453046961559,0.13741726762119988,1.7664669789832037e-18,-3.0808609728789306e-18,auto
1761310089.0966763,29.22002077102661,1.4697125053992818e-18,6.9139790183220695,5.0789410653676565,9.064804596481398e-19,0.6967340776017882,0.022036564656639328,-0.034811081259949486,-1.3805201982034558e-20,1.8107943232585977e-18,0.4,0.00013866957178249213,1.8220384846318e-18,-3.0942750099989253e-18,auto
1761310089.2014081,29.32475256919861,1.5676354742902599e-18,6.985539919386779,5.081313333030902,9.434064280405853e-19,0.680824258536461,0.014890337463690314,-0.013464098426453188,-1.395246156860843e-20,1.8324481490893882e-18,0.4,-0.09945568489018058,1.8748492710791685e-18,-3.0394447611466157e-18,auto
1761310089.305497,29.42884135246277,1.6687788627919875e-18,7.055034809111801,5.083300201304195,9.831294560676849e-19,0.6636272932137475,0.015192592301049369,0.003268612917869272,-1.398643467913556e-20,1.8377918985881154e-18,0.4,-0.14011396177206908,1.988945749454225e-18,-3.020377584376599e-18,auto
1761310089.4111707,29.534515142440796,1.7752205881084034e-18,7.124016894800742,5.08502066898795,1.0248680585562123e-18,0.645456596280536,0.00977662972951081,0.008981822765473001,-1.3992183426496582e-20,1.839135043626734e-18,0.4,-0.10428027506250612,2.131763300852407e-18,-3.0204932650977863e-18,auto
1761310089.5206165,29.64396095275879,1.889401123338525e-18,7.193830341272874,5.086452432723553,1.0649738469196927e-18,0.6284154978549061,0.016143187069295066,0.0008949616883041412,-1.1649114970819399e-20,2.0205210336383162e-18,0.4788903443293852,-0.11008144973401446,2.3273358752307502e-18,-3.5013786850008625e-18,auto
1761310089.6259258,29.74927020072937,2.00355287413448e-18,7.259189593698078,5.08742487346197,1.1031845336518046e-18,0.6128923192862131,0.01317888369387741,0.001582268613414854,-1.0599365982708391e-20,2.2218590196261657e-18,0.4832622272464395,-0.06576326307638125,2.338828976605558e-18,-3.8693639583504995e-18,auto
1761310089.7301638,29.853508234024048,2.1201681180155654e-18,7.322455029305017,5.088198691482185,1.1411239937974755e-18,0.5980281037486552,0.012030127015218925,-0.003414227987812132,-1.0477920561580071e-20,2.2710727737190094e-18,0.4866760279400184,0.019091832050261458,2.3873071405811944e-18,-3.800906350790533e-18,auto
1761310089.8364503,29.959794759750366,2.2428150309848183e-18,7.3855241291144305,5.089067180154879,1.1811582610110937e-18,0.5824372726297734,0.004364539546352964,-0.008413068596455143,-1.0449075553070094e-20,2.2834423079868844e-18,0.4306794513882686,0.08520312567794561,2.5089267282546946e-18,-3.761184970183795e-18,auto
1761310089.9432046,30.066549062728882,2.369667643817757e-18,7.447479417825597,5.089630467908924,1.214734519448268e-18,0.5697949288813771,0.0029814966628155214,-0.021736315909747957,-1.0433499519661717e-20,2.2864467022815908e-18,0.4,0.1154567060649817,2.6263011209992157e-18,-3.754124839018897e-18,auto
1761310090.0497777,30.17312216758728,2.500137692829086e-18,7.507874222998565,5.090084510876062,1.2454252160637367e-18,0.558474161484608,0.0017762889212773107,-0.029740991894260025,-1.0430262253238041e-20,2.2871698967278893e-18,0.4317256319180873,0.11561640383026513,2.640598828859284e-18,-3.76026600843272e-18,auto
1761310090.1534474,30.27679181098938,2.6308147639080615e-18,7.5651956638175,5.090182793810644,1.2731230081871743e-18,0.5484422771764556,-0.004126073738361484,-0.026093782373065092,-1.0429852162731953e-20,2.2873423391515024e-18,0.4161790360513561,0.03595783488058579,2.6846394941020167e-18,-3.770397555948032e-18,auto
1761310090.2555175,30.378861904144287,2.7638243156165903e-18,7.61994662217468,5.0900854883447275,1.3281339779758182e-18,0.5265413412467601,-0.0025528080691210753,-0.004793403607910616,-1.043012717837311e-20,2.287385311340532e-18,0.4,0.05059138369502683,2.8861600526141874e-18,-3.781625976009631e-18,auto
1761310090.358124,30.481468439102173,2.9009049563176674e-18,7.673734451820052,5.089961205569287,1.3545871714269686e-18,0.5171829862942502,-0.0019513189909647084,-0.011965946559662984,-1.0430061078023177e-20,2.2873963575606657e-18,0.4,0.06520004128808285,2.889646844976674e-18,-3.793217881181673e-18,auto
1761310090.4603455,30.58368992805481,3.0403862793232878e-18,7.726272638119096,5.089749670447807,1.3824807912132063e-18,0.5072542504027571,0.004312706682930152,-0.01787143905131522,-1.0430052866836185e-20,2.287399164925114e-18,0.4898007564701011,0.06018073793237208,2.9841363339630674e-18,-3.8048724763662666e-18,auto
1761310090.564727,30.688071489334106,3.1860121075138768e-18,7.778762354333471,5.089660994157928,1.4106762071832508e-18,0.4972278983313201,-0.002497983022518668,-0.019155798392043528,-1.0430051768465417e-20,2.2873998903582314e-18,0.4,0.04320124296651119,3.0737995871906165e-18,-3.8168013222771126e-18,auto
1761310090.6682725,30.791616916656494,3.3337143472695685e-18,7.829655882904941,5.089388637799177,1.4402969082974363e-18,0.4866442747516383,-0.0012048976161743536,-0.016614147927051126,-1.0430051752481097e-20,2.2874000700607706e-18,0.4578063114234894,0.01942039632823525,3.1402236401400295e-18,-3.828641451880487e-18,auto
1761310090.773383,30.896727323532104,3.486812299669126e-18,7.880187760056362,5.08905528710942,1.4667217424525383e-18,0.47749325973522033,-0.009951885473374802,-0.013125375822269041,-1.0430051748196398e-20,2.2874001155562888e-18,0.4,-0.021128708773960985,3.1968187100959856e-18,-3.8406623326224495e-18,auto
1761310090.8781345,31.001478910446167,3.64261263438185e-18,7.929395103346722,5.088790089822785,1.4984577814793894e-18,0.4661712502588335,0.005998284832303866,-0.005131896126594319,-1.0430051774816593e-20,2.2874001267413492e-18,0.5044355759407405,-0.04754496218075277,3.2872309167389474e-18,-3.8526426210278465e-18,auto
1761310090.983284,31.10662841796875,3.801376008565349e-18,7.977436478762218,5.088530308750119,1.5292837742123703e-18,0.4551637205333262,-0.005583181457077315,0.0035673513716673742,-1.0430051780002925e-20,2.2874001295072835e-18,0.4,-0.09599673881291251,3.5087012616193944e-18,-3.8646095250489825e-18,auto
1761310091.0883772,31.211721658706665,3.964740593064242e-18,8.024830198267864,5.0880600873963395,1.564600847956572e-18,0.4423016788276369,-0.008155236171015065,0.003390266753196402,-1.0430051781247202e-20,2.2874001301956166e-18,0.4,-0.025060191799400097,3.515976541435733e-18,-3.876688037869702e-18,auto
1761310091.1935928,31.31693720817566,4.130590612979301e-18,8.070969414608516,5.0877078079589255,1.595752368724812e-18,0.43136330340508966,0.0043021419763848035,-0.0027981921064549266,-1.0430051781038371e-20,2.2874001303636983e-18,0.5023577521096857,-0.000748573612674045,3.6942245399573475e-18,-3.8887215385534415e-18,auto
1761310091.299045,31.4223895072937,4.299877038920685e-18,8.116152663552848,5.087356796659177,1.6241417255733008e-18,0.42158888395799526,-0.003535074258746406,-0.009556100955401743,-1.0430051780941e-20,2.2874001304050708e-18,0.4528679749359652,0.030766479209475145,3.7727540406094576e-18,-3.9007821180925765e-18,auto
1761310091.403101,31.526445388793945,4.469933778946956e-18,8.159698999374953,5.086934365715445,1.6512118449002423e-18,0.41244398781111663,-0.001303296258119026,-0.013455464818754197,-1.0430051780918906e-20,2.28740013041515e-18,0.46767214002922086,0.043879734848165375,3.843845392111218e-18,-3.9126829897897415e-18,auto
1761310091.5064726,31.629817008972168,4.6417421608609544e-18,8.201982323651272,5.086476043020876,1.6759848326019706e-18,0.4042940231921061,-0.005952489041439406,-0.01615783922824317,-1.0430051780914303e-20,2.287400130417659e-18,0.4,0.03423420104003361,3.91288561434934e-18,-3.9245056026268824e-18,auto
1761310091.6081498,31.731494188308716,4.8135626208574005e-18,8.242609740259159,5.085858337227204,1.7004140211522516e-18,0.3963051642405437,-0.007133848736965301,-0.012503971262368315,-1.0430051780914043e-20,2.2874001304182865e-18,0.4,0.003933583265804972,3.9435060482454364e-18,-3.936134422281536e-18,auto
1761310091.7169406,31.840285062789917,5.000268743312247e-18,8.285134021782644,5.085440450014926,1.7287240454097474e-18,0.386902264194835,0.003879555331460896,-0.01709614183979847,-1.043005178091419e-20,2.2874001304184537e-18,0.48886469511123043,-0.011096931694566402,4.1421727614924454e-18,-3.948576835303119e-18,auto
1761310091.8200085,31.943352937698364,5.1803792299004115e-18,8.324308043774879,5.085341490630446,1.7546672517765716e-18,0.3783472666149405,-0.0025439291503163795,-0.00601389764870165,-1.0430051780914255e-20,2.287400130418492e-18,0.43883383469179227,-0.05419369271169308,4.1283854335195535e-18,-3.960364708827927e-18,auto
1761310091.9246013,32.047945737838745,5.365730856016085e-18,8.363232709571587,5.08502057176659,1.7808830457901016e-18,0.3697894322747769,6.84805697466909e-05,-0.0010429089264268896,-1.0430051780914275e-20,2.287400130418502e-18,0.4696607759076873,-0.07296289435827044,4.258647676638622e-18,-3.9723269880618836e-18,auto
1761310092.031584,32.15492844581604,5.558082821388395e-18,8.402152680699892,5.084707581783602,1.8102421407489295e-18,0.35993793080232805,-0.00212710559622528,0.0006829734121771532,-1.043005178091428e-20,2.287400130418504e-18,0.4,-0.05038915895022268,4.358810619519648e-18,-3.9845626010708384e-18,auto
1761310092.1359544,32.25929880142212,5.748502278966761e-18,8.439224047300995,5.084342538471716,1.838324321641034e-18,0.3506142731352391,-0.003053543724770287,0.0015032714320819542,-1.043005178091428e-20,2.287400130418504e-18,0.4565221133295,-0.012896228124200965,4.407621210030846e-18,-3.996499439322087e-18,auto
1761310092.241943,32.36528730392456,5.9445087686913206e-18,8.476035836592464,5.083932933361072,1.865690982027017e-18,0.34170393885626676,0.0005455416301511085,-0.002516583127631058,-1.043005178091428e-20,2.287400130418504e-18,0.4782128285291561,0.009297362507466454,4.58588511175069e-18,-4.008621345044433e-18,auto
1761310092.347301,32.47064542770386,6.142046538278515e-18,8.511770428150783,5.083485853004386,1.8912813671052204e-18,0.3335853995203965,0.0037095247030866883,-0.007081958426047027,-1.043005178091428e-20,2.287400130418504e-18,0.5042357360356705,0.03412388316705704,4.674120158195537e-18,-4.0206711543481026e-18,auto
1761310092.4530714,32.57641577720642,6.342970697971789e-18,8.54682754042725,5.082967660392528,1.9151548938308924e-18,0.3262241998668619,-0.00161131195550106,-0.012557825771645003,-1.043005178091428e-20,2.287400130418504e-18,0.47415763683977946,0.047812434423942514,4.80027600107964e-18,-4.0327681099104315e-18,auto
1761310092.5613663,32.68471074104309,6.551338070959211e-18,8.581905692062897,5.082441466629005,1.9388700753687286e-18,0.3190755161427072,0.0009185067900311979,-0.017101288176307954,-1.043005178091428e-20,2.287400130418504e-18,0.4870176111584468,0.057568550188945106,4.916046747373752e-18,-4.045153805630614e-18,auto
1761310092.6672626,32.79060697555542,6.757783853605402e-18,8.615367501620346,5.082029852920683,1.9596816591805823e-18,0.3131198702519,-0.005365744135595821,-0.01571200359756499,-1.043005178091428e-20,2.287400130418504e-18,0.43878516206626084,0.027686369476756848,4.935059081418151e-18,-4.057265158662331e-18,auto
1761310092.7672977,32.890642166137695,6.95521572591687e-18,8.64623277949854,5.081665057136416,1.9805077207114686e-18,0.3071144108008123,0.010614453848166264,-0.011703323431720038,-1.043005178091428e-20,2.287400130418504e-18,0.4,-0.10254232155957721,5.470844209890551e-18,-4.068706184061548e-18,auto
1761310092.8729768,32.99632120132446,7.1669423580467e-18,8.677791558326756,5.081458882399645,2.005775288395161e-18,0.2992864795548248,0.0052960870828695945,0.007541484604961027,-1.043005178091428e-20,2.287400130418504e-18,0.49780579450781226,-0.14243452465584405,5.151539512747825e-18,-4.080792696004983e-18,auto
1761310092.9782712,33.10161566734314,7.380085501943007e-18,8.708621051978481,5.081181551613796,2.0308864212344262e-18,0.2915254106946238,-0.003239207104340504,0.014732436317480245,-1.043005178091428e-20,2.287400130418504e-18,0.4360655549268922,-0.12981092148948015,5.2353722015207965e-18,-4.092835224770156e-18,auto
1761310093.0841048,33.207449197769165,7.59653197742613e-18,8.738987296898364,5.080754095189566,2.0590088991603086e-18,0.28252588043515936,-0.0038444417822681154,0.013976808082636417,-1.043005178091428e-20,2.287400130418504e-18,0.45004135449935867,-0.06610408089939418,5.387796864170699e-18,-4.104939406335114e-18,auto
1761310093.1843643,33.307708740234375,7.803645897270476e-18,8.76717315907964,5.0802116224695215,2.0849530053786754e-18,0.2743500956485004,0.00024962871007333694,0.0010184655143044268,-1.043005178091428e-20,2.287400130418504e-18,0.4999307801870218,-0.026742482870138133,6.03005342709825e-18,-4.116406090860645e-18,auto
1761310093.2906492,33.41399359703064,8.026027319322668e-18,8.79616587052283,5.079485625036139,2.1092837443182465e-18,0.2670490874941283,-0.008334682324594691,-0.0007001042519835469,-1.043005178091428e-20,2.287400130418504e-18,0.4402083330270342,0.037851691262757975,5.621757795451193e-18,-4.128561890625509e-18,auto
1761310093.3959394,33.51928377151489,8.248493775702615e-18,8.824294746912607,5.078630898574836,2.1294412020008595e-18,0.261607356941258,-0.007660352728045194,-0.010295244011060294,-1.043005178091428e-20,2.287400130418504e-18,0.4480947815362595,0.07134683234077109,5.743990821985694e-18,-4.140603928567863e-18,auto
1761310093.5018072,33.62515163421631,8.474450960104031e-18,8.851944716240427,5.077812125124706,2.1481737106826467e-18,0.2568475686222092,-0.003897671657147713,-0.015370690409425304,-1.043005178091428e-20,2.287400130418504e-18,0.47006459072774304,0.07512221799531785,5.7805333606887565e-18,-4.15271203671538e-18,auto
1761310093.6070733,33.73041772842407,8.701406207792202e-18,8.878799453163147,5.07702181918264,2.1666738612476007e-18,0.25218202501629483,-0.0033736030800292326,-0.01629322444165437,-1.043005178091428e-20,2.287400130418504e-18,0.4801265097532865,0.05062589365645079,5.865753803973977e-18,-4.164751320596354e-18,auto
1761310093.712175,33.835519313812256,8.930296571662869e-18,8.904971679702092,5.076224518440206,2.185286607334755e-18,0.2474647045057852,-0.00816011104663981,-0.012021877226921086,-1.043005178091428e-20,2.287400130418504e-18,0.4,0.011112352502315629,5.94452398054239e-18,-4.17677178960256e-18,auto
