timestamp,simulation_time,position_x,position_y,position_z,velocity_x,velocity_y,velocity_z,attitude_roll,attitude_pitch,attitude_yaw,control_throttle,control_roll,control_pitch,control_yaw,flight_mode
1761303065.942973,0.10272336006164551,0.0,0.0,-0.0,0.0,0.0,-0.0,0.0,0.0,0.0,0.0,0.0,0.0,0.0,manual
1761303066.0460863,0.20583677291870117,0.0,0.0,-0.0,0.0,0.0,-0.0,0.0,0.0,0.0,0.0,0.0,0.0,0.0,manual
1761303066.151261,0.31101155281066895,0.0,0.0,-0.0,0.0,0.0,-0.0,0.0,0.0,0.0,0.0,0.0,0.0,0.0,manual
1761303066.2566853,0.41643571853637695,0.0,0.0,-0.0,0.0,0.0,-0.0,0.0,0.0,0.0,0.0,0.0,0.0,0.0,manual
1761303066.3633285,0.5230789184570312,0.0,0.0,-0.0,0.0,0.0,-0.0,0.0,0.0,0.0,0.0,0.0,0.0,0.0,manual
1761303066.4703746,0.6301250457763672,0.0,0.0,-0.0,0.0,0.0,-0.0,0.0,0.0,0.0,0.0,0.0,0.0,0.0,manual
1761303066.575848,0.7355985641479492,0.0,0.0,-0.0,0.0,0.0,-0.0,0.0,0.0,0.0,0.0,0.0,0.0,0.0,manual
1761303066.6801689,0.8399193286895752,0.0,0.0,-0.0,0.0,0.0,-0.0,0.0,0.0,0.0,0.0,0.0,0.0,0.0,manual
1761303066.783777,0.9435274600982666,0.0,0.0,-0.0,0.0,0.0,-0.0,0.0,0.0,0.0,0.0,0.0,0.0,0.0,manual
1761303066.971009,1.1307594776153564,0.0,0.0,-0.0,0.0,0.0,-0.0,0.0,0.0,0.0,0.0,0.0,0.0,0.0,manual
1761303067.0775652,1.2373156547546387,0.0,0.0,-0.0,0.0,0.0,-0.0,0.0,0.0,0.0,0.0,0.0,0.0,0.0,manual
1761303067.181844,1.3415944576263428,0.0,0.0,-0.0,0.0,0.0,-0.0,0.0,0.0,0.0,0.0,0.0,0.0,0.0,manual
1761303067.2863665,1.4461169242858887,0.0,0.0,-0.0,0.0,0.0,-0.0,0.0,0.0,0.0,0.0,0.0,0.0,0.0,manual
1761303067.3911116,1.5508620738983154,0.0,0.0,-0.0,0.0,0.0,-0.0,0.0,0.0,0.0,0.0,0.0,0.0,0.0,manual
1761303067.4958942,1.6556446552276611,0.0,0.0,-0.0,0.0,0.0,-0.0,0.0,0.0,0.0,0.0,0.0,0.0,0.0,manual
1761303067.6033065,1.763056993484497,0.0,0.0,-0.0,0.0,0.0,-0.0,0.0,0.0,0.0,0.0,0.0,0.0,0.0,manual
1761303067.7069695,1.8667199611663818,0.0,0.0,-0.0,0.0,0.0,-0.0,0.0,0.0,0.0,0.0,0.0,0.0,0.0,manual
1761303067.8123012,1.9720516204833984,0.0,0.0,-0.0,0.0,0.0,-0.0,0.0,0.0,0.0,0.0,0.0,0.0,0.0,manual
1761303067.9168777,2.0766282081604004,0.0,0.0,0.039956035179856825,0.0,0.0,1.096327325881231,0.0,0.0,0.0,1.0,0.0,0.0,0.0,stabilize
1761303068.0233796,2.1831300258636475,0.0,0.0,0.20471115345766203,0.0,0.0,1.6846216018172695,0.0,0.0,0.0,0.5007077222458081,0.0,0.0,0.0,stabilize
1761303068.128558,2.2883083820343018,0.0,0.0,0.38369962994003814,0.0,0.0,1.6984525767913492,0.0,0.0,0.0,0.4153347705590362,0.0,0.0,0.0,stabilize
1761303068.2334325,2.3931829929351807,0.0,0.0,0.5586987603952962,0.0,0.0,1.6263555732511317,0.0,0.0,0.0,0.39842576818159203,0.0,0.0,0.0,stabilize
1761303068.3381402,2.4978907108306885,0.0,0.0,0.7223039510271911,0.0,0.0,1.5096612156863194,0.0,0.0,0.0,0.38712474613179404,0.0,0.0,0.0,stabilize
1761303068.4483507,2.6081011295318604,0.0,0.0,0.8808478975478176,0.0,0.0,1.365745779086676,0.0,0.0,0.0,0.38098879999286805,0.0,0.0,0.0,stabilize
1761303068.5518022,2.711552619934082,0.0,0.0,1.0156867069423918,0.0,0.0,1.2286871815179576,0.0,0.0,0.0,0.38054983499580963,0.0,0.0,0.0,stabilize
1761303068.655485,2.8152353763580322,0.0,0.0,1.1361989786943905,0.0,0.0,1.0972095647119973,0.0,0.0,0.0,0.3830886167098909,0.0,0.0,0.0,stabilize
1761303068.7574592,2.9172096252441406,0.0,0.0,1.2418626352394573,0.0,0.0,0.976734044864293,0.0,0.0,0.0,0.3875331032172942,0.0,0.0,0.0,stabilize
1761303068.8616529,3.0214033126831055,0.0,0.0,1.3376722837198658,0.0,0.0,0.8641604666960198,0.0,0.0,0.0,0.3924583441943869,0.0,0.0,0.0,stabilize
1761303068.9651783,3.1249287128448486,0.0,0.0,1.421820548725532,0.0,0.0,0.7632942698100341,0.0,0.0,0.0,0.3974270455438829,0.0,0.0,0.0,stabilize
1761303069.0700123,3.2297627925872803,0.0,0.0,1.4962865306202227,0.0,0.0,0.6728300942756178,0.0,0.0,0.0,0.40237745681729625,0.0,0.0,0.0,stabilize
1761303069.1742072,3.3339576721191406,0.0,0.0,1.5626961864780984,0.0,0.0,0.5913477601672327,0.0,0.0,0.0,0.4066404499131041,0.0,0.0,0.0,stabilize
1761303069.2789235,3.438673973083496,0.0,0.0,1.6207868618928245,0.0,0.0,0.5195961424082438,0.0,0.0,0.0,0.41069728303777686,0.0,0.0,0.0,stabilize
1761303069.3820667,3.5418171882629395,0.0,0.0,1.6710936585218368,0.0,0.0,0.45714815949268217,0.0,0.0,0.0,0.41439678246491374,0.0,0.0,0.0,stabilize
1761303069.4874518,3.647202253341675,0.0,0.0,1.71624212025255,0.0,0.0,0.4008698873681028,0.0,0.0,0.0,0.4177159134071974,0.0,0.0,0.0,stabilize
1761303069.592239,3.7519893646240234,0.0,0.0,1.7556143179329697,0.0,0.0,0.35162921095540145,0.0,0.0,0.0,0.42056268279444603,0.0,0.0,0.0,stabilize
1761303069.6957877,3.8555381298065186,0.0,0.0,1.7897624907172134,0.0,0.0,0.3088168329812825,0.0,0.0,0.0,0.4231411251854057,0.0,0.0,0.0,stabilize
1761303069.8005626,3.960313081741333,0.0,0.0,1.8200789714184389,0.0,0.0,0.27069984751614307,0.0,0.0,0.0,0.4254387283868687,0.0,0.0,0.0,stabilize
1761303069.908777,4.068527460098267,0.0,0.0,1.8474624357298182,0.0,0.0,0.23614416277998349,0.0,0.0,0.0,0.42725213066447026,0.0,0.0,0.0,stabilize
1761303070.0132158,4.172966241836548,0.0,0.0,1.8705704132143028,0.0,0.0,0.20695744454632412,0.0,0.0,0.0,0.4291899374161561,0.0,0.0,0.0,stabilize
1761303070.1164684,4.276218891143799,0.0,0.0,1.890601177604202,0.0,0.0,0.18156670487158727,0.0,0.0,0.0,0.43073110507115164,0.0,0.0,0.0,stabilize
1761303070.2246523,4.384402751922607,0.0,0.0,1.9089529168781538,0.0,0.0,0.15821766621036992,0.0,0.0,0.0,0.43206604911090635,0.0,0.0,0.0,stabilize
1761303070.329537,4.489287376403809,0.0,0.0,1.9244864982956766,0.0,0.0,0.1384015578428069,0.0,0.0,0.0,0.433349337860882,0.0,0.0,0.0,stabilize
1761303070.4329123,4.592662811279297,0.0,0.0,1.9378877868445592,0.0,0.0,0.12123636749547873,0.0,0.0,0.0,0.4343790215118078,0.0,0.0,0.0,stabilize
1761303070.538899,4.6986494064331055,0.0,0.0,1.9498999513743782,0.0,0.0,0.1057795590839034,0.0,0.0,0.0,0.4353286156435453,0.0,0.0,0.0,stabilize
1761303070.6455185,4.805269002914429,0.0,0.0,1.9604360159877336,0.0,0.0,0.09215283885627244,0.0,0.0,0.0,0.4360457105847155,0.0,0.0,0.0,stabilize
1761303070.7487159,4.908466339111328,0.0,0.0,1.9693370887554102,0.0,0.0,0.08059098204069157,0.0,0.0,0.0,0.43681514384303455,0.0,0.0,0.0,stabilize
1761303070.8534527,5.013203144073486,0.0,0.0,1.9772256739465826,0.0,0.0,0.07026740220324273,0.0,0.0,0.0,0.43743072400842653,0.0,0.0,0.0,stabilize
1761303070.9581916,5.1179420948028564,0.0,0.0,1.9841012884459188,0.0,0.0,0.06120700284122422,0.0,0.0,0.0,0.4379192627634394,0.0,0.0,0.0,stabilize
1761303071.0627384,5.222488880157471,0.0,0.0,1.9900775657717436,0.0,0.0,0.053285493683815605,0.0,0.0,0.0,0.43846056345270507,0.0,0.0,0.0,stabilize
1761303071.1667416,5.326492071151733,0.0,0.0,1.9952511555565193,0.0,0.0,0.04635476589985997,0.0,0.0,0.0,0.4388701717980826,0.0,0.0,0.0,stabilize
1761303071.269772,5.429522514343262,0.0,0.0,1.9997098350015687,0.0,0.0,0.04032514024712314,0.0,0.0,0.0,0.4392603023259049,0.0,0.0,0.0,stabilize
1761303071.3765788,5.53632926940918,0.0,0.0,2.0037172288898977,0.0,0.0,0.03483545088860056,0.0,0.0,0.0,0.4395351726588802,0.0,0.0,0.0,stabilize
1761303071.4858375,5.645587921142578,0.0,0.0,2.007250004069722,0.0,0.0,0.0299467903510086,0.0,0.0,0.0,0.43989273704112664,0.0,0.0,0.0,stabilize
1761303071.5914962,5.751246690750122,0.0,0.0,2.0101901082407783,0.0,0.0,0.025795418874265674,0.0,0.0,0.0,0.44007538182824224,0.0,0.0,0.0,stabilize
1761303071.6976252,5.857375621795654,0.0,0.0,2.01273065154438,0.0,0.0,0.022158217654740846,0.0,0.0,0.0,0.44033734399341845,0.0,0.0,0.0,stabilize
1761303071.803189,5.962939500808716,0.0,0.0,2.0148985446457957,0.0,0.0,0.018983364454476633,0.0,0.0,0.0,0.44053500812661883,0.0,0.0,0.0,stabilize
1761303071.9081883,6.067938804626465,0.0,0.0,2.0167437664195993,0.0,0.0,0.01622026771939592,0.0,0.0,0.0,0.44069441897601275,0.0,0.0,0.0,stabilize
1761303072.0135934,6.173343896865845,0.0,0.0,2.0183228495896115,0.0,0.0,0.013796731358423017,0.0,0.0,0.0,0.44087837786003925,0.0,0.0,0.0,stabilize
1761303072.120074,6.279824495315552,0.0,0.0,2.019674760361468,0.0,0.0,0.011648044996972825,0.0,0.0,0.0,0.440973894323768,0.0,0.0,0.0,stabilize
1761303072.224942,6.384692430496216,0.0,0.0,2.0207972196090185,0.0,0.0,0.009800295485001,0.0,0.0,0.0,0.44109100618740504,0.0,0.0,0.0,stabilize
1761303072.3293252,6.489075660705566,0.0,0.0,2.02173426599932,0.0,0.0,0.008189016897271063,0.0,0.0,0.0,0.44116615977318113,0.0,0.0,0.0,stabilize
1761303072.4343565,6.594106912612915,0.0,0.0,2.022518250931097,0.0,0.0,0.006768452353350695,0.0,0.0,0.0,0.4412619849269142,0.0,0.0,0.0,stabilize
1761303072.5383983,6.698148727416992,0.0,0.0,2.0231574275485475,0.0,0.0,0.005546330989943109,0.0,0.0,0.0,0.4413863655937617,0.0,0.0,0.0,stabilize
1761303072.6469789,6.806729316711426,0.0,0.0,2.0236969550134702,0.0,0.0,0.004412569467065,0.0,0.0,0.0,0.44140544688300787,0.0,0.0,0.0,stabilize
1761303072.7540772,6.913827657699585,0.0,0.0,2.0241181784731017,0.0,0.0,0.003461907473737179,0.0,0.0,0.0,0.4414661372420465,0.0,0.0,0.0,stabilize
1761303072.8584735,7.018224000930786,0.0,0.0,2.0244364099031755,0.0,0.0,0.0026495591822435025,0.0,0.0,0.0,0.44152485692930865,0.0,0.0,0.0,stabilize
1761303072.9650373,7.1247878074646,0.0,0.0,2.024679121428534,0.0,0.0,0.0019232248815637461,0.0,0.0,0.0,0.44158909244265304,0.0,0.0,0.0,stabilize
1761303073.0690815,7.228832006454468,0.0,0.0,2.0248465127252406,0.0,0.0,0.0013080397011259316,0.0,0.0,0.0,0.44164485535759324,0.0,0.0,0.0,stabilize
1761303073.1738136,7.333564043045044,0.0,0.0,2.0249544759169376,0.0,0.0,0.000770213226373066,0.0,0.0,0.0,0.4416871973243409,0.0,0.0,0.0,stabilize
1761303073.2784724,7.438222885131836,0.0,0.0,2.0250096043575065,0.0,0.0,0.0002992524844423606,0.0,0.0,0.0,0.44170231986330716,0.0,0.0,0.0,stabilize
1761303073.3829875,7.54273796081543,0.0,0.0,2.0250189227521553,0.0,0.0,-0.00010624775471202566,0.0,0.0,0.0,0.44174798544772237,0.0,0.0,0.0,stabilize
1761303073.4870968,7.646847248077393,0.0,0.0,2.0249888326845027,0.0,0.0,-0.0004579202701999706,0.0,0.0,0.0,0.4417682541458999,0.0,0.0,0.0,stabilize
1761303073.5911243,7.750874757766724,0.0,0.0,2.024924688697511,0.0,0.0,-0.0007625974713494634,0.0,0.0,0.0,0.4417847478120701,0.0,0.0,0.0,stabilize
1761303073.6971164,7.856866836547852,0.0,0.0,2.024828983110692,0.0,0.0,-0.0010328788274363901,0.0,0.0,0.0,0.441788194849815,0.0,0.0,0.0,stabilize
1761303073.8021505,7.961900949478149,0.0,0.0,2.024708188653357,0.0,0.0,-0.0012620532080117076,0.0,0.0,0.0,0.44177823562943214,0.0,0.0,0.0,stabilize
1761303073.9087436,8.068494081497192,0.0,0.0,2.0245628657040253,0.0,0.0,-0.0014642148386631569,0.0,0.0,0.0,0.44179261204194487,0.0,0.0,0.0,stabilize
1761303074.0151188,8.174869298934937,0.0,0.0,2.024398343016146,0.0,0.0,-0.001629187805566804,0.0,0.0,0.0,0.44182145030672215,0.0,0.0,0.0,stabilize
1761303074.1207385,8.280488967895508,0.0,0.0,2.024218600318229,0.0,0.0,-0.0017700206724570362,0.0,0.0,0.0,0.441838772697238,0.0,0.0,0.0,stabilize
1761303074.2250783,8.384828805923462,0.0,0.0,2.024027437363997,0.0,0.0,-0.0018938236236633649,0.0,0.0,0.0,0.4418142632379135,0.0,0.0,0.0,stabilize
1761303074.3306594,8.490409851074219,0.0,0.0,2.0238222934200305,0.0,0.0,-0.0019927881472189615,0.0,0.0,0.0,0.4418530375565122,0.0,0.0,0.0,stabilize
1761303074.4357626,8.595513105392456,0.0,0.0,2.023608314592829,0.0,0.0,-0.0020752899852537615,0.0,0.0,0.0,0.4418687191647818,0.0,0.0,0.0,stabilize
1761303074.5433526,8.703103065490723,0.0,0.0,2.023380815086793,0.0,0.0,-0.0021503761328817705,0.0,0.0,0.0,0.44184793216556606,0.0,0.0,0.0,stabilize
1761303074.649344,8.809094429016113,0.0,0.0,2.0231499142107165,0.0,0.0,-0.0022068813734322803,0.0,0.0,0.0,0.44187259999509987,0.0,0.0,0.0,stabilize
1761303074.755718,8.915468454360962,0.0,0.0,2.0229126302420815,0.0,0.0,-0.0022506385681672603,0.0,0.0,0.0,0.441889588829368,0.0,0.0,0.0,stabilize
1761303074.863163,9.022913455963135,0.0,0.0,2.0226684557992503,0.0,0.0,-0.0022888286589312187,0.0,0.0,0.0,0.4418840562289725,0.0,0.0,0.0,stabilize
1761303074.967891,9.127641439437866,0.0,0.0,2.022427160866818,0.0,0.0,-0.002319022861270794,0.0,0.0,0.0,0.4418673597032966,0.0,0.0,0.0,stabilize
1761303075.0770652,9.236815690994263,0.0,0.0,2.0221728929203198,0.0,0.0,-0.002337246489388846,0.0,0.0,0.0,0.4418940203728339,0.0,0.0,0.0,stabilize
1761303075.18411,9.343860387802124,0.0,0.0,2.0219218037038647,0.0,0.0,-0.0023520027727258063,0.0,0.0,0.0,0.44189461925243134,0.0,0.0,0.0,stabilize
1761303075.290619,9.450369358062744,0.0,0.0,2.021670746912274,0.0,0.0,-0.0023599577735826244,0.0,0.0,0.0,0.44188065671400467,0.0,0.0,0.0,stabilize
1761303075.397081,9.556831359863281,0.0,0.0,2.02141915841163,0.0,0.0,-0.0023672026051894447,0.0,0.0,0.0,0.44186639674506906,0.0,0.0,0.0,stabilize
1761303075.504323,9.664073467254639,0.0,0.0,2.0211655558706854,0.0,0.0,-0.002363763868922673,0.0,0.0,0.0,0.4418985676267728,0.0,0.0,0.0,stabilize
1761303075.611632,9.771382570266724,0.0,0.0,2.0209120715330435,0.0,0.0,-0.0023599630358067175,0.0,0.0,0.0,0.4418927813416782,0.0,0.0,0.0,stabilize
1761303075.7199526,9.879703044891357,0.0,0.0,2.0206568358586963,0.0,0.0,-0.0023520178503165967,0.0,0.0,0.0,0.4418960507254947,0.0,0.0,0.0,stabilize
1761303075.827175,9.98692536354065,0.0,0.0,2.0204052007293902,0.0,0.0,-0.0023407032059613434,0.0,0.0,0.0,0.4419051134008112,0.0,0.0,0.0,stabilize
1761303075.9343185,10.094069004058838,0.0,0.0,2.020155005152448,0.0,0.0,-0.0023290803908916067,0.0,0.0,0.0,0.44189492518769974,0.0,0.0,0.0,stabilize
1761303076.0421872,10.201937675476074,0.0,0.0,2.0199045986704327,0.0,0.0,-0.0023136511598463375,0.0,0.0,0.0,0.4419014153205238,0.0,0.0,0.0,stabilize
1761303076.14944,10.309190511703491,0.0,0.0,2.019657334255982,0.0,0.0,-0.0022974068996991417,0.0,0.0,0.0,0.4418980110022135,0.0,0.0,0.0,stabilize
1761303076.2566974,10.416447877883911,0.0,0.0,2.019411913028402,0.0,0.0,-0.0022771796085660607,0.0,0.0,0.0,0.44191282766484585,0.0,0.0,0.0,stabilize
1761303076.3642845,10.524034976959229,0.0,0.0,2.019167750028886,0.0,0.0,-0.002259134585079728,0.0,0.0,0.0,0.4419072800735838,0.0,0.0,0.0,stabilize
1761303076.4714763,10.631226778030396,0.0,0.0,2.0189266175446643,0.0,0.0,-0.0022407935932773526,0.0,0.0,0.0,0.4418874010877757,0.0,0.0,0.0,stabilize
1761303076.5788066,10.73855710029602,0.0,0.0,2.0186873916552743,0.0,0.0,-0.002217561911205925,0.0,0.0,0.0,0.44191048714072234,0.0,0.0,0.0,stabilize
1761303076.6888707,10.848621129989624,0.0,0.0,2.0184444069954504,0.0,0.0,-0.0021967778233365136,0.0,0.0,0.0,0.44189279066851656,0.0,0.0,0.0,stabilize
1761303076.7947507,10.954501152038574,0.0,0.0,2.018213147626388,0.0,0.0,-0.002175145405710732,0.0,0.0,0.0,0.44187915348167295,0.0,0.0,0.0,stabilize
1761303076.901513,11.06126356124878,0.0,0.0,2.0179823381632884,0.0,0.0,-0.002148536058553732,0.0,0.0,0.0,0.44191394931332706,0.0,0.0,0.0,stabilize
1761303077.00952,11.169270515441895,0.0,0.0,2.017753455103826,0.0,0.0,-0.00212609812795057,0.0,0.0,0.0,0.4419115035950713,0.0,0.0,0.0,stabilize
1761303077.114387,11.274137496948242,0.0,0.0,2.0175294818066343,0.0,0.0,-0.002105201027375569,0.0,0.0,0.0,0.4418940593266606,0.0,0.0,0.0,stabilize
1761303077.2222435,11.381994009017944,0.0,0.0,2.0173037915054954,0.0,0.0,-0.002081721426207718,0.0,0.0,0.0,0.4418959814784349,0.0,0.0,0.0,stabilize
1761303077.325456,11.485206365585327,0.0,0.0,2.017090323529431,0.0,0.0,-0.0020559028715278886,0.0,0.0,0.0,0.4419105460227238,0.0,0.0,0.0,stabilize
1761303077.432095,11.591845512390137,0.0,0.0,2.0168721794079305,0.0,0.0,-0.00203413713701512,0.0,0.0,0.0,0.44190322216305344,0.0,0.0,0.0,stabilize
1761303077.5379524,11.697702884674072,0.0,0.0,2.0166581586607952,0.0,0.0,-0.002007723068445687,0.0,0.0,0.0,0.4419195129358791,0.0,0.0,0.0,stabilize
1761303077.6439703,11.803720712661743,0.0,0.0,2.0164463432167974,0.0,0.0,-0.001986061528444938,0.0,0.0,0.0,0.4419052235798302,0.0,0.0,0.0,stabilize
1761303077.749095,11.9088454246521,0.0,0.0,2.0162387971087283,0.0,0.0,-0.001962957228557388,0.0,0.0,0.0,0.44189850049540924,0.0,0.0,0.0,stabilize
1761303077.8557386,12.015489101409912,0.0,0.0,2.0160307249834934,0.0,0.0,-0.0019394865342419573,0.0,0.0,0.0,0.44190249892334743,0.0,0.0,0.0,stabilize
1761303077.9608426,12.120593070983887,0.0,0.0,2.0158281503800026,0.0,0.0,-0.0019152500284846787,0.0,0.0,0.0,0.4419007740425408,0.0,0.0,0.0,stabilize
1761303078.0681577,12.22790813446045,0.0,0.0,2.015623779190249,0.0,0.0,-0.0018919105715682295,0.0,0.0,0.0,0.4419133559636674,0.0,0.0,0.0,stabilize
1761303078.173797,12.333547353744507,0.0,0.0,2.0154251046837186,0.0,0.0,-0.0018700906320856503,0.0,0.0,0.0,0.4418924095147252,0.0,0.0,0.0,stabilize
1761303078.2789595,12.43870997428894,0.0,0.0,2.0152297470592067,0.0,0.0,-0.0018480076833110298,0.0,0.0,0.0,0.4418913789219095,0.0,0.0,0.0,stabilize
1761303078.3853521,12.545102596282959,0.0,0.0,2.015034508467471,0.0,0.0,-0.0018228978654588868,0.0,0.0,0.0,0.441911393781335,0.0,0.0,0.0,stabilize
1761303078.492102,12.651852369308472,0.0,0.0,2.014841057940172,0.0,0.0,-0.0018020064026087615,0.0,0.0,0.0,0.44189505745161134,0.0,0.0,0.0,stabilize
1761303078.5969734,12.756723880767822,0.0,0.0,2.0146534039003594,0.0,0.0,-0.0017782771855483655,0.0,0.0,0.0,0.4418964857072365,0.0,0.0,0.0,stabilize
1761303078.7040973,12.863847732543945,0.0,0.0,2.01446408653522,0.0,0.0,-0.0017549042770447242,0.0,0.0,0.0,0.4419155513202659,0.0,0.0,0.0,stabilize
1761303078.811796,12.971546411514282,0.0,0.0,2.014276180559554,0.0,0.0,-0.0017335329903635972,0.0,0.0,0.0,0.4419049940997674,0.0,0.0,0.0,stabilize
1761303078.919324,13.079074382781982,0.0,0.0,2.0140909490020964,0.0,0.0,-0.0017119682655661564,0.0,0.0,0.0,0.4418998284003937,0.0,0.0,0.0,stabilize
1761303079.028002,13.187752485275269,0.0,0.0,2.0139061093838206,0.0,0.0,-0.00169139281607669,0.0,0.0,0.0,0.4418820209607374,0.0,0.0,0.0,stabilize
1761303079.1365619,13.29631233215332,0.0,0.0,2.0137247413045523,0.0,0.0,-0.0016680227158732393,0.0,0.0,0.0,0.44190276190300526,0.0,0.0,0.0,stabilize
1761303079.2444618,13.404212236404419,0.0,0.0,2.01354507817007,0.0,0.0,-0.001646041564715281,0.0,0.0,0.0,0.4419026699592995,0.0,0.0,0.0,stabilize
1761303079.3503208,13.510071277618408,0.0,0.0,2.0133719453650687,0.0,0.0,-0.001625643355861091,0.0,0.0,0.0,0.4418988972984418,0.0,0.0,0.0,stabilize
1761303079.4586072,13.61835765838623,0.0,0.0,2.0131970653314073,0.0,0.0,-0.0016055798064389518,0.0,0.0,0.0,0.44189660774724904,0.0,0.0,0.0,stabilize
1761303079.5656478,13.725398302078247,0.0,0.0,2.01302644240985,0.0,0.0,-0.0015842430500494853,0.0,0.0,0.0,0.44189238021576577,0.0,0.0,0.0,stabilize
1761303079.6731894,13.832939863204956,0.0,0.0,2.012857214881887,0.0,0.0,-0.001564256763083178,0.0,0.0,0.0,0.44189315107371796,0.0,0.0,0.0,stabilize
1761303079.779649,13.939399480819702,0.0,0.0,2.012691863550544,0.0,0.0,-0.0015434551256118263,0.0,0.0,0.0,0.441902632556948,0.0,0.0,0.0,stabilize
1761303079.8876224,14.047372817993164,0.0,0.0,2.0125262914377933,0.0,0.0,-0.0015233318304500056,0.0,0.0,0.0,0.4419039176716718,0.0,0.0,0.0,stabilize
1761303079.9939833,14.153733730316162,0.0,0.0,2.0123653170258193,0.0,0.0,-0.0015041166067841568,0.0,0.0,0.0,0.44190063302953947,0.0,0.0,0.0,stabilize
1761303080.100591,14.26034140586853,0.0,0.0,2.012206027712141,0.0,0.0,-0.0014843322455239578,0.0,0.0,0.0,0.4419040356460343,0.0,0.0,0.0,stabilize
1761303080.2062044,14.365954875946045,0.0,0.0,2.012050249776687,0.0,0.0,-0.0014651597443942701,0.0,0.0,0.0,0.44190276667917344,0.0,0.0,0.0,stabilize
1761303080.313566,14.473316431045532,0.0,0.0,2.0118938939960818,0.0,0.0,-0.001446904967357173,0.0,0.0,0.0,0.44190120063848065,0.0,0.0,0.0,stabilize
1761303080.4208791,14.580629587173462,0.0,0.0,2.011739633694029,0.0,0.0,-0.0014287105737537883,0.0,0.0,0.0,0.4418974956780253,0.0,0.0,0.0,stabilize
1761303080.5285597,14.688310146331787,0.0,0.0,2.0115868464882007,0.0,0.0,-0.0014094913680486034,0.0,0.0,0.0,0.44190180344920144,0.0,0.0,0.0,stabilize
1761303080.6358867,14.795637130737305,0.0,0.0,2.0114365422613827,0.0,0.0,-0.0013914968453564974,0.0,0.0,0.0,0.44190000152482145,0.0,0.0,0.0,stabilize
1761303080.7405977,14.90034818649292,0.0,0.0,2.01129173695637,0.0,0.0,-0.0013728574812151427,0.0,0.0,0.0,0.4418946395055484,0.0,0.0,0.0,stabilize
1761303080.846562,15.006312370300293,0.0,0.0,2.011147252689,0.0,0.0,-0.001355097931479076,0.0,0.0,0.0,0.4419014925109283,0.0,0.0,0.0,stabilize
1761303080.9512756,15.111026048660278,0.0,0.0,2.0110062394218384,0.0,0.0,-0.0013391700567365653,0.0,0.0,0.0,0.44189253713762416,0.0,0.0,0.0,stabilize
1761303081.0565684,15.216318845748901,0.0,0.0,2.0108661972579482,0.0,0.0,-0.0013211730711471606,0.0,0.0,0.0,0.4419031272439332,0.0,0.0,0.0,stabilize
1761303081.1613214,15.321071863174438,0.0,0.0,2.0107286239101145,0.0,0.0,-0.0013056007589844821,0.0,0.0,0.0,0.4418971116985546,0.0,0.0,0.0,stabilize
1761303081.2669964,15.426746845245361,0.0,0.0,2.010591573527719,0.0,0.0,-0.0012877987464921473,0.0,0.0,0.0,0.44190497927751377,0.0,0.0,0.0,stabilize
1761303081.3746126,15.534363031387329,0.0,0.0,2.010454463830981,0.0,0.0,-0.0012723464948967205,0.0,0.0,0.0,0.4418996958348721,0.0,0.0,0.0,stabilize
1761303081.4809213,15.640671730041504,0.0,0.0,2.0103194079757314,0.0,0.0,-0.0012544098094001632,0.0,0.0,0.0,0.4419103392953294,0.0,0.0,0.0,stabilize
1761303081.5875552,15.747305631637573,0.0,0.0,2.010186372098,0.0,0.0,-0.0012391098605298168,0.0,0.0,0.0,0.44190460189670216,0.0,0.0,0.0,stabilize
1761303081.6943133,15.854063749313354,0.0,0.0,2.0100548969331125,0.0,0.0,-0.001223705767456372,0.0,0.0,0.0,0.4418970989942632,0.0,0.0,0.0,stabilize
1761303081.8022876,15.962038040161133,0.0,0.0,2.009923632439297,0.0,0.0,-0.0012081592236784888,0.0,0.0,0.0,0.4418961865228318,0.0,0.0,0.0,stabilize
1761303081.9090126,16.06876301765442,0.0,0.0,2.009795585236691,0.0,0.0,-0.0011912451797035607,0.0,0.0,0.0,0.44190397140250387,0.0,0.0,0.0,stabilize
1761303082.0163658,16.176116228103638,0.0,0.0,2.0096684476549482,0.0,0.0,-0.0011768538353593982,0.0,0.0,0.0,0.44189774281105365,0.0,0.0,0.0,stabilize
1761303082.1226027,16.282353162765503,0.0,0.0,2.00954426901213,0.0,0.0,-0.001161563881250985,0.0,0.0,0.0,0.4418996597954962,0.0,0.0,0.0,stabilize
1761303082.2300146,16.38976502418518,0.0,0.0,2.009420324073567,0.0,0.0,-0.0011464720933331428,0.0,0.0,0.0,0.44189986300253176,0.0,0.0,0.0,stabilize
1761303082.3370783,16.49682879447937,0.0,0.0,2.0092983878239634,0.0,0.0,-0.0011315396908808122,0.0,0.0,0.0,0.441898777128094,0.0,0.0,0.0,stabilize
1761303082.4445353,16.604285717010498,0.0,0.0,2.009177584147285,0.0,0.0,-0.0011168056418557654,0.0,0.0,0.0,0.4418998844608054,0.0,0.0,0.0,stabilize
1761303082.5516596,16.71141004562378,0.0,0.0,2.009058721120217,0.0,0.0,-0.0011023782505547297,0.0,0.0,0.0,0.44189951077647005,0.0,0.0,0.0,stabilize
1761303082.6533782,16.81312870979309,0.0,0.0,2.0089471838218333,0.0,0.0,-0.00108187038317502,0.0,0.0,0.0,0.4419732204599671,0.0,0.0,0.0,stabilize
1761303082.7599666,16.91971707344055,0.0,0.0,2.0088319469783067,0.0,0.0,-0.001074011880637794,0.0,0.0,0.0,0.44190016192182535,0.0,0.0,0.0,stabilize
1761303082.866129,17.025879383087158,0.0,0.0,2.008718620685336,0.0,0.0,-0.0010609692617377178,0.0,0.0,0.0,0.44189654580666116,0.0,0.0,0.0,stabilize
1761303082.9732027,17.13295316696167,0.0,0.0,2.0086057704167297,0.0,0.0,-0.0010472727169420332,0.0,0.0,0.0,0.44189879473028904,0.0,0.0,0.0,stabilize
1761303083.0819623,17.24171280860901,0.0,0.0,2.0084926335233946,0.0,0.0,-0.001033328477916298,0.0,0.0,0.0,0.4419005304977678,0.0,0.0,0.0,stabilize
1761303083.189589,17.349339485168457,0.0,0.0,2.008382147087263,0.0,0.0,-0.0010196516990819784,0.0,0.0,0.0,0.44190254965978265,0.0,0.0,0.0,stabilize
1761303083.2969458,17.456696271896362,0.0,0.0,2.0082733618891755,0.0,0.0,-0.0010069050570904673,0.0,0.0,0.0,0.44189761628139385,0.0,0.0,0.0,stabilize
1761303083.4046676,17.564418077468872,0.0,0.0,2.0081656159771506,0.0,0.0,-0.00099402758535107,0.0,0.0,0.0,0.4418979037845587,0.0,0.0,0.0,stabilize
1761303083.510854,17.670604467391968,0.0,0.0,2.008061304319475,0.0,0.0,-0.000979994035564972,0.0,0.0,0.0,0.4419044906727192,0.0,0.0,0.0,stabilize
1761303083.6164718,17.776222229003906,0.0,0.0,2.0079578679915304,0.0,0.0,-0.0009686197025630532,0.0,0.0,0.0,0.4418955532544847,0.0,0.0,0.0,stabilize
1761303083.7223747,17.88212513923645,0.0,0.0,2.0078559853025935,0.0,0.0,-0.0009562645866022986,0.0,0.0,0.0,0.4418959943522234,0.0,0.0,0.0,stabilize
1761303083.829141,17.98889136314392,0.0,0.0,2.0077545802953045,0.0,0.0,-0.0009437832263135827,0.0,0.0,0.0,0.44189814798527793,0.0,0.0,0.0,stabilize
1761303083.9356544,18.095404863357544,0.0,0.0,2.007654719385853,0.0,0.0,-0.0009315153614387864,0.0,0.0,0.0,0.44189913443104445,0.0,0.0,0.0,stabilize
1761303084.0429153,18.20266580581665,0.0,0.0,2.007555450220129,0.0,0.0,-0.0009193564159686208,0.0,0.0,0.0,0.44189988966638055,0.0,0.0,0.0,stabilize
1761303084.150094,18.309844493865967,0.0,0.0,2.0074575453895473,0.0,0.0,-0.0009074474848583671,0.0,0.0,0.0,0.4418990675027536,0.0,0.0,0.0,stabilize
1761303084.2577107,18.417461156845093,0.0,0.0,2.0073605137787993,0.0,0.0,-0.0008959030063792164,0.0,0.0,0.0,0.44189728564649544,0.0,0.0,0.0,stabilize
1761303084.3647377,18.5244882106781,0.0,0.0,2.0072652725526434,0.0,0.0,-0.0008835521786746066,0.0,0.0,0.0,0.4419002767953529,0.0,0.0,0.0,stabilize
1761303084.4727564,18.632506847381592,0.0,0.0,2.00717039256122,0.0,0.0,-0.0008726346609877523,0.0,0.0,0.0,0.4418971756902961,0.0,0.0,0.0,stabilize
1761303084.5798054,18.739555835723877,0.0,0.0,2.0070775972976227,0.0,0.0,-0.0008611161247270767,0.0,0.0,0.0,0.44189975809457455,0.0,0.0,0.0,stabilize
1761303084.6889236,18.848674058914185,0.0,0.0,2.006984223500649,0.0,0.0,-0.0008494149612543146,0.0,0.0,0.0,0.44189931087533385,0.0,0.0,0.0,stabilize
1761303084.7953358,18.95508623123169,0.0,0.0,2.0068943793299194,0.0,0.0,-0.0008392724318245772,0.0,0.0,0.0,0.44189469026069783,0.0,0.0,0.0,stabilize
1761303084.901014,19.06076455116272,0.0,0.0,2.006806304333543,0.0,0.0,-0.000828273406117514,0.0,0.0,0.0,0.4418977574755894,0.0,0.0,0.0,stabilize
1761303085.0046723,19.164422750473022,0.0,0.0,2.006720878660781,0.0,0.0,-0.0008303196362104942,0.0,0.0,0.0,0.4418652576001055,0.0,0.0,0.0,stabilize
1761303085.1101246,19.269875049591064,0.0,0.0,2.0066353062032376,0.0,0.0,-0.0008064449992668498,0.0,0.0,0.0,0.4418983231476629,0.0,0.0,0.0,stabilize
1761303085.2171357,19.376886129379272,0.0,0.0,2.006549527955456,0.0,0.0,-0.0007971718362520801,0.0,0.0,0.0,0.4418924680774468,0.0,0.0,0.0,stabilize
1761303085.3247674,19.484517812728882,0.0,0.0,2.0064643301338343,0.0,0.0,-0.0007865200577509601,0.0,0.0,0.0,0.4418972961192041,0.0,0.0,0.0,stabilize
1761303085.4320967,19.59184718132019,0.0,0.0,2.006380460004495,0.0,0.0,-0.0007764160057648133,0.0,0.0,0.0,0.4418974295318383,0.0,0.0,0.0,stabilize
1761303085.5388894,19.69863986968994,0.0,0.0,2.006298083128164,0.0,0.0,-0.0007662891675583254,0.0,0.0,0.0,0.4418989380545871,0.0,0.0,0.0,stabilize
1761303085.647397,19.80714750289917,0.0,0.0,2.006215454611695,0.0,0.0,-0.0007563343523819601,0.0,0.0,0.0,0.44189839817249377,0.0,0.0,0.0,stabilize
1761303085.7538233,19.913573741912842,0.0,0.0,2.0061354773965774,0.0,0.0,-0.0007469060229148695,0.0,0.0,0.0,0.4418946661242778,0.0,0.0,0.0,stabilize
1761303085.8611085,20.020859003067017,0.0,0.0,2.0060558956885473,0.0,0.0,-0.0007375324423519729,0.0,0.0,0.0,0.4418947472054737,0.0,0.0,0.0,stabilize
1761303085.9684305,20.128180980682373,0.0,0.0,2.0059773169378143,0.0,0.0,-0.0007268444378203195,0.0,0.0,0.0,0.4418994532906938,0.0,0.0,0.0,stabilize
1761303086.0753496,20.235100030899048,0.0,0.0,2.0059000513860825,0.0,0.0,-0.0007183694243886871,0.0,0.0,0.0,0.44189268246900415,0.0,0.0,0.0,stabilize
1761303086.1829386,20.342689037322998,0.0,0.0,2.005823302603677,0.0,0.0,-0.0007088651636938736,0.0,0.0,0.0,0.4418957309891659,0.0,0.0,0.0,stabilize
1761303086.2907372,20.45048761367798,0.0,0.0,2.0057474037827014,0.0,0.0,-0.0006993856934853772,0.0,0.0,0.0,0.4418967432576458,0.0,0.0,0.0,stabilize
1761303086.3981056,20.55785608291626,0.0,0.0,2.0056727950645463,0.0,0.0,-0.0006905213610388109,0.0,0.0,0.0,0.4418957949015567,0.0,0.0,0.0,stabilize
1761303086.5053613,20.665111780166626,0.0,0.0,2.0055992326975147,0.0,0.0,-0.0006813069605091626,0.0,0.0,0.0,0.4418982289455917,0.0,0.0,0.0,stabilize
1761303086.6122181,20.771968603134155,0.0,0.0,2.005526896340435,0.0,0.0,-0.0006725899178281536,0.0,0.0,0.0,0.4418970162151103,0.0,0.0,0.0,stabilize
1761303086.7147503,20.87450075149536,0.0,0.0,2.0054583138435107,0.0,0.0,-0.0006639234294852165,0.0,0.0,0.0,0.44189483075827185,0.0,0.0,0.0,stabilize
1761303086.8196268,20.979377269744873,0.0,0.0,2.0053891304148155,0.0,0.0,-0.0006556403724826174,0.0,0.0,0.0,0.44189604750706635,0.0,0.0,0.0,stabilize
1761303086.9260056,21.085756063461304,0.0,0.0,2.005319832440716,0.0,0.0,-0.0006475295958405459,0.0,0.0,0.0,0.44189334737749375,0.0,0.0,0.0,stabilize
1761303087.0297098,21.189460277557373,0.0,0.0,2.0052537053560395,0.0,0.0,-0.0006417499815679386,0.0,0.0,0.0,0.44185859682759254,0.0,0.0,0.0,stabilize
1761303087.1351967,21.294947147369385,0.0,0.0,2.0051861121608283,0.0,0.0,-0.0006307209583762597,0.0,0.0,0.0,0.44189680215669763,0.0,0.0,0.0,stabilize
1761303087.24217,21.401920557022095,0.0,0.0,2.0051190670994767,0.0,0.0,-0.0006227589470074845,0.0,0.0,0.0,0.4418966895334749,0.0,0.0,0.0,stabilize
1761303087.349592,21.509342432022095,0.0,0.0,2.0050525973782047,0.0,0.0,-0.0006147033953434032,0.0,0.0,0.0,0.44189683222085874,0.0,0.0,0.0,stabilize
1761303087.4565816,21.616332054138184,0.0,0.0,2.0049872486151985,0.0,0.0,-0.0006066544421899444,0.0,0.0,0.0,0.4418981650960554,0.0,0.0,0.0,stabilize
1761303087.5629404,21.72269082069397,0.0,0.0,2.0049231224538095,0.0,0.0,-0.0005986073188542895,0.0,0.0,0.0,0.44189853948137675,0.0,0.0,0.0,stabilize
1761303087.6704912,21.830241680145264,0.0,0.0,2.0048591078025986,0.0,0.0,-0.0005913467717380714,0.0,0.0,0.0,0.4418954416811939,0.0,0.0,0.0,stabilize
1761303087.7775743,21.93732476234436,0.0,0.0,2.004796199707512,0.0,0.0,-0.000583893484269372,0.0,0.0,0.0,0.4418934181784413,0.0,0.0,0.0,stabilize
1761303087.8836722,22.04342269897461,0.0,0.0,2.004734679017099,0.0,0.0,-0.0005760803905152598,0.0,0.0,0.0,0.44189711713672775,0.0,0.0,0.0,stabilize
1761303087.9910045,22.150754928588867,0.0,0.0,2.00467323901579,0.0,0.0,-0.0005686742422349421,0.0,0.0,0.0,0.44189721315841485,0.0,0.0,0.0,stabilize
1761303088.098259,22.258009433746338,0.0,0.0,2.0046126403481836,0.0,0.0,-0.0005614363538608963,0.0,0.0,0.0,0.44189505029856097,0.0,0.0,0.0,stabilize
1761303088.2055533,22.36530375480652,0.0,0.0,2.004552804856811,0.0,0.0,-0.0005540059775243922,0.0,0.0,0.0,0.4418968733384768,0.0,0.0,0.0,stabilize
1761303088.3124056,22.472156047821045,0.0,0.0,2.0044939903321244,0.0,0.0,-0.0005468249165655399,0.0,0.0,0.0,0.44189613665579536,0.0,0.0,0.0,stabilize
1761303088.4177036,22.577454090118408,0.0,0.0,2.004436782525887,0.0,0.0,-0.0005398974546189857,0.0,0.0,0.0,0.4418954382515338,0.0,0.0,0.0,stabilize
1761303088.523079,22.6828293800354,0.0,0.0,2.0043802604900463,0.0,0.0,-0.0005330555138308873,0.0,0.0,0.0,0.44189512708874523,0.0,0.0,0.0,stabilize
1761303088.629834,22.789584398269653,0.0,0.0,2.004323725193482,0.0,0.0,-0.0005261565257781455,0.0,0.0,0.0,0.4418964317901695,0.0,0.0,0.0,stabilize
1761303088.733103,22.892853498458862,0.0,0.0,2.004269691936334,0.0,0.0,-0.0005194652174515435,0.0,0.0,0.0,0.44189473652781414,0.0,0.0,0.0,stabilize
1761303088.8403394,23.00008988380432,0.0,0.0,2.0042143539468658,0.0,0.0,-0.0005123161763289512,0.0,0.0,0.0,0.4418984612279464,0.0,0.0,0.0,stabilize
1761303088.947858,23.107608556747437,0.0,0.0,2.004159583019252,0.0,0.0,-0.0005064259610147161,0.0,0.0,0.0,0.4418913504823134,0.0,0.0,0.0,stabilize
1761303089.0554016,23.21515202522278,0.0,0.0,2.004105507374968,0.0,0.0,-0.0004993093822529197,0.0,0.0,0.0,0.4418979419952428,0.0,0.0,0.0,stabilize
1761303089.1626296,23.32238006591797,0.0,0.0,2.0040522913084597,0.0,0.0,-0.0004932561418843261,0.0,0.0,0.0,0.44189590389412176,0.0,0.0,0.0,stabilize
1761303089.2697506,23.429501056671143,0.0,0.0,2.0039998134524653,0.0,0.0,-0.0004862607474777188,0.0,0.0,0.0,0.4418978009271916,0.0,0.0,0.0,stabilize
1761303089.3772976,23.53704810142517,0.0,0.0,2.003947809103921,0.0,0.0,-0.0004804176878852063,0.0,0.0,0.0,0.441895187653473,0.0,0.0,0.0,stabilize
1761303089.484323,23.644073486328125,0.0,0.0,2.003896729337087,0.0,0.0,-0.00047408845403899044,0.0,0.0,0.0,0.4418960455434723,0.0,0.0,0.0,stabilize
1761303089.5918393,23.75158977508545,0.0,0.0,2.0038460782553957,0.0,0.0,-0.000467930226861664,0.0,0.0,0.0,0.44189689290350054,0.0,0.0,0.0,stabilize
1761303089.6993136,23.85906410217285,0.0,0.0,2.0037961056296183,0.0,0.0,-0.0004620950897529861,0.0,0.0,0.0,0.44189396005744436,0.0,0.0,0.0,stabilize
1761303089.8068662,23.9666166305542,0.0,0.0,2.003746745778249,0.0,0.0,-0.00045605819923779376,0.0,0.0,0.0,0.4418944553679824,0.0,0.0,0.0,stabilize
1761303089.9141982,24.073948621749878,0.0,0.0,2.0036981278044284,0.0,0.0,-0.0004500147232437823,0.0,0.0,0.0,0.4418957488258899,0.0,0.0,0.0,stabilize
1761303090.0212398,24.18099021911621,0.0,0.0,2.0036502728728576,0.0,0.0,-0.0004445301929426921,0.0,0.0,0.0,0.4418910791044317,0.0,0.0,0.0,stabilize
1761303090.1270618,24.28681230545044,0.0,0.0,2.0036035776789736,0.0,0.0,-0.0004384078263287734,0.0,0.0,0.0,0.4418964490156609,0.0,0.0,0.0,stabilize
1761303090.2335565,24.393306970596313,0.0,0.0,2.0035571839574358,0.0,0.0,-0.00043287331427577144,0.0,0.0,0.0,0.44189533873341236,0.0,0.0,0.0,stabilize
1761303090.3406618,24.500412225723267,0.0,0.0,2.003511123371838,0.0,0.0,-0.0004272670960151949,0.0,0.0,0.0,0.44189516373938387,0.0,0.0,0.0,stabilize
1761303090.4480855,24.6078360080719,0.0,0.0,2.0034655243956636,0.0,0.0,-0.00042166958709291313,0.0,0.0,0.0,0.4418955640562381,0.0,0.0,0.0,stabilize
1761303090.5545273,24.714277744293213,0.0,0.0,2.0034209310034514,0.0,0.0,-0.0004161597789444828,0.0,0.0,0.0,0.4418960959089753,0.0,0.0,0.0,stabilize
1761303090.662151,24.821901559829712,0.0,0.0,2.003376421035413,0.0,0.0,-0.00041132295009314087,0.0,0.0,0.0,0.4418927540893892,0.0,0.0,0.0,stabilize
1761303090.769516,24.929266452789307,0.0,0.0,2.0033325959054666,0.0,0.0,-0.00040530331959252186,0.0,0.0,0.0,0.4418955033443046,0.0,0.0,0.0,stabilize
1761303090.8766396,25.03639006614685,0.0,0.0,2.0032894377786277,0.0,0.0,-0.0004005232731162888,0.0,0.0,0.0,0.4418923476028359,0.0,0.0,0.0,stabilize
1761303090.9841874,25.143937826156616,0.0,0.0,2.0032466697788136,0.0,0.0,-0.00039503566683776905,0.0,0.0,0.0,0.4418956969897334,0.0,0.0,0.0,stabilize
1761303091.092724,25.252474546432495,0.0,0.0,2.0032040709439127,0.0,0.0,-0.0003897721211427179,0.0,0.0,0.0,0.4418962732629212,0.0,0.0,0.0,stabilize
1761303091.2003682,25.360118627548218,0.0,0.0,2.0031623780135828,0.0,0.0,-0.00038484272877977534,0.0,0.0,0.0,0.44189444385986754,0.0,0.0,0.0,stabilize
1761303091.3076522,25.467402696609497,0.0,0.0,2.003121363765354,0.0,0.0,-0.00037978706196351215,0.0,0.0,0.0,0.441895697054007,0.0,0.0,0.0,stabilize
1761303091.414826,25.574576377868652,0.0,0.0,2.0030809225524737,0.0,0.0,-0.0003748905139173933,0.0,0.0,0.0,0.4418955069351786,0.0,0.0,0.0,stabilize
1761303091.5222542,25.682004690170288,0.0,0.0,2.003040909577625,0.0,0.0,-0.0003700794891119897,0.0,0.0,0.0,0.4418946632443891,0.0,0.0,0.0,stabilize
1761303091.6281047,25.78785514831543,0.0,0.0,2.0030019982620946,0.0,0.0,-0.0003654776858587503,0.0,0.0,0.0,0.44189248987907676,0.0,0.0,0.0,stabilize
1761303091.7359662,25.895716667175293,0.0,0.0,2.0029628512267657,0.0,0.0,-0.00036049326491041406,0.0,0.0,0.0,0.44189518738879374,0.0,0.0,0.0,stabilize
1761303091.8433325,26.003082990646362,0.0,0.0,2.0029243931295917,0.0,0.0,-0.0003558676015259839,0.0,0.0,0.0,0.4418947703660954,0.0,0.0,0.0,stabilize
1761303091.9506516,26.11040210723877,0.0,0.0,2.0028864511543585,0.0,0.0,-0.0003512816879032478,0.0,0.0,0.0,0.4418945517894491,0.0,0.0,0.0,stabilize
1761303092.0581486,26.217899084091187,0.0,0.0,2.002848939509963,0.0,0.0,-0.0003467686484768367,0.0,0.0,0.0,0.4418940688363546,0.0,0.0,0.0,stabilize
1761303092.1648908,26.324641227722168,0.0,0.0,2.0028121763379767,0.0,0.0,-0.0003421138143390518,0.0,0.0,0.0,0.4418942497039674,0.0,0.0,0.0,stabilize
1761303092.2716475,26.431397914886475,0.0,0.0,2.0027758819693338,0.0,0.0,-0.00033750183011094426,0.0,0.0,0.0,0.44189611120780614,0.0,0.0,0.0,stabilize
1761303092.3788486,26.538599014282227,0.0,0.0,2.002739907622928,0.0,0.0,-0.0003336100619585404,0.0,0.0,0.0,0.44189272591483664,0.0,0.0,0.0,stabilize
1761303092.4867866,26.64653706550598,0.0,0.0,2.002704153581669,0.0,0.0,-0.000329098310887794,0.0,0.0,0.0,0.44189422052447347,0.0,0.0,0.0,stabilize
1761303092.5938003,26.75355076789856,0.0,0.0,2.0026691694471728,0.0,0.0,-0.00032460427290444816,0.0,0.0,0.0,0.44189649588983027,0.0,0.0,0.0,stabilize
1761303092.701375,26.861125469207764,0.0,0.0,2.002634457413763,0.0,0.0,-0.00032060626428499187,0.0,0.0,0.0,0.441893821278752,0.0,0.0,0.0,stabilize
1761303092.808602,26.968352556228638,0.0,0.0,2.002600307722408,0.0,0.0,-0.00031636349097914266,0.0,0.0,0.0,0.441895091293567,0.0,0.0,0.0,stabilize
1761303092.9151402,27.074890613555908,0.0,0.0,2.0025668176928333,0.0,0.0,-0.00031201546381360906,0.0,0.0,0.0,0.4418964111074862,0.0,0.0,0.0,stabilize
1761303093.0232294,27.182979822158813,0.0,0.0,2.0025332770495337,0.0,0.0,-0.00030831492393506855,0.0,0.0,0.0,0.4418918593502752,0.0,0.0,0.0,stabilize
1761303093.1298902,27.28964066505432,0.0,0.0,2.0025006132990133,0.0,0.0,-0.00030425648735209833,0.0,0.0,0.0,0.44189454968334674,0.0,0.0,0.0,stabilize
1761303093.2357278,27.39547824859619,0.0,0.0,2.0024686200184285,0.0,0.0,-0.0003005211543937195,0.0,0.0,0.0,0.44189289695785955,0.0,0.0,0.0,stabilize
1761303093.3407872,27.500537633895874,0.0,0.0,2.0024372675899293,0.0,0.0,-0.0002964837773513407,0.0,0.0,0.0,0.4418953396040375,0.0,0.0,0.0,stabilize
1761303093.4465911,27.60634160041809,0.0,0.0,2.002406092991259,0.0,0.0,-0.00029286427982757647,0.0,0.0,0.0,0.44189387547104986,0.0,0.0,0.0,stabilize
1761303093.5523498,27.71210026741028,0.0,0.0,2.002375329716929,0.0,0.0,-0.00028920940150393217,0.0,0.0,0.0,0.44189308572628455,0.0,0.0,0.0,stabilize
1761303093.6576645,27.81741499900818,0.0,0.0,2.0023450875623934,0.0,0.0,-0.00028533244760837393,0.0,0.0,0.0,0.4418948578832787,0.0,0.0,0.0,stabilize
1761303093.7639802,27.923730611801147,0.0,0.0,2.0023149452111078,0.0,0.0,-0.0002817737065726392,0.0,0.0,0.0,0.44189381648128223,0.0,0.0,0.0,stabilize
1761303093.8700805,28.029830932617188,0.0,0.0,2.002285250797295,0.0,0.0,-0.00027795148028651387,0.0,0.0,0.0,0.4418951137202159,0.0,0.0,0.0,stabilize
1761303093.9758127,28.135563135147095,0.0,0.0,2.002256039950986,0.0,0.0,-0.0002747371280339894,0.0,0.0,0.0,0.44189255751232137,0.0,0.0,0.0,stabilize
1761303094.0813599,28.24111032485962,0.0,0.0,2.002227253905034,0.0,0.0,-0.0002711688224490276,0.0,0.0,0.0,0.4418923807514881,0.0,0.0,0.0,stabilize
1761303094.187328,28.347078561782837,0.0,0.0,2.002198720942163,0.0,0.0,-0.00026751832104810456,0.0,0.0,0.0,0.44189466311708636,0.0,0.0,0.0,stabilize
1761303094.2935991,28.453349590301514,0.0,0.0,2.0021704719403886,0.0,0.0,-0.000264328820898368,0.0,0.0,0.0,0.4418925938837408,0.0,0.0,0.0,stabilize
1761303094.3976638,28.557414293289185,0.0,0.0,2.002143167092907,0.0,0.0,-0.0002607723326065558,0.0,0.0,0.0,0.4418945982345161,0.0,0.0,0.0,stabilize
1761303094.502517,28.662267446517944,0.0,0.0,2.0021159994996904,0.0,0.0,-0.000257436297270584,0.0,0.0,0.0,0.4418948246221315,0.0,0.0,0.0,stabilize
1761303094.608853,28.768603563308716,0.0,0.0,2.0020889305760523,0.0,0.0,-0.00025436792280010854,0.0,0.0,0.0,0.4418928536184355,0.0,0.0,0.0,stabilize
1761303094.7186246,28.87837505340576,0.0,0.0,2.0020610742705975,0.0,0.0,-0.0002507656928680776,0.0,0.0,0.0,0.4418934163500313,0.0,0.0,0.0,stabilize
1761303094.824981,28.984731435775757,0.0,0.0,2.00203458007767,0.0,0.0,-0.00024760937637963073,0.0,0.0,0.0,0.4418933181534384,0.0,0.0,0.0,stabilize
1761303094.932276,29.092026472091675,0.0,0.0,2.002008190890076,0.0,0.0,-0.000244374031758783,0.0,0.0,0.0,0.4418942364692773,0.0,0.0,0.0,stabilize
1761303095.033463,29.19321346282959,0.0,0.0,2.0019836044746158,0.0,0.0,-0.00024197945974725895,0.0,0.0,0.0,0.44188252989844834,0.0,0.0,0.0,stabilize
1761303095.1395419,29.29929232597351,0.0,0.0,2.001958195534591,0.0,0.0,-0.00023801681843211992,0.0,0.0,0.0,0.44189400982513427,0.0,0.0,0.0,stabilize
1761303095.245208,29.404958486557007,0.0,0.0,2.001933195155188,0.0,0.0,-0.00023508033634009665,0.0,0.0,0.0,0.44189471814694276,0.0,0.0,0.0,stabilize
1761303095.3513334,29.511083841323853,0.0,0.0,2.0019083965338926,0.0,0.0,-0.00023201683345085665,0.0,0.0,0.0,0.4418949209665607,0.0,0.0,0.0,stabilize
1761303095.4572747,29.617025136947632,0.0,0.0,2.0018839538388824,0.0,0.0,-0.0002292896429925807,0.0,0.0,0.0,0.44189392521242293,0.0,0.0,0.0,stabilize
1761303095.563841,29.723591566085815,0.0,0.0,2.001859678042525,0.0,0.0,-0.0002264602843317078,0.0,0.0,0.0,0.4418933105566705,0.0,0.0,0.0,stabilize
1761303095.6703138,29.830064296722412,0.0,0.0,2.0018357360847294,0.0,0.0,-0.000223543630808841,0.0,0.0,0.0,0.4418926284017803,0.0,0.0,0.0,stabilize
1761303095.7763345,29.936084985733032,0.0,0.0,2.001812202311149,0.0,0.0,-0.00022067584791808916,0.0,0.0,0.0,0.44189264065958356,0.0,0.0,0.0,stabilize
1761303095.8818862,30.04163670539856,0.0,0.0,2.0017890728904426,0.0,0.0,-0.00021774696996939698,0.0,0.0,0.0,0.44189395575819124,0.0,0.0,0.0,stabilize
1761303095.988218,30.147968530654907,0.0,0.0,2.001766068866438,0.0,0.0,-0.000214988821031735,0.0,0.0,0.0,0.4418941632491793,0.0,0.0,0.0,stabilize
1761303096.0942526,30.254003047943115,0.0,0.0,2.001743424277354,0.0,0.0,-0.0002121511337473717,0.0,0.0,0.0,0.44189448578877105,0.0,0.0,0.0,stabilize
1761303096.199291,30.359041452407837,0.0,0.0,2.0017212813297394,0.0,0.0,-0.00020943695827794158,0.0,0.0,0.0,0.4418946313278803,0.0,0.0,0.0,stabilize
1761303096.3044193,30.46416974067688,0.0,0.0,2.0016994008789433,0.0,0.0,-0.00020675143394136006,0.0,0.0,0.0,0.4418948485634185,0.0,0.0,0.0,stabilize
1761303096.4098053,30.56955575942993,0.0,0.0,2.0016777459780624,0.0,0.0,-0.00020407542292149835,0.0,0.0,0.0,0.4418951058549466,0.0,0.0,0.0,stabilize
1761303096.5164573,30.676207780838013,0.0,0.0,2.001656110469107,0.0,0.0,-0.0002015470825972872,0.0,0.0,0.0,0.44189381430259983,0.0,0.0,0.0,stabilize
1761303096.623672,30.783422470092773,0.0,0.0,2.0016346404260914,0.0,0.0,-0.00019896329579283185,0.0,0.0,0.0,0.44189384977881374,0.0,0.0,0.0,stabilize
1761303096.7301626,30.889913082122803,0.0,0.0,2.0016135918860956,0.0,0.0,-0.00019645045381595994,0.0,0.0,0.0,0.4418935407136397,0.0,0.0,0.0,stabilize
1761303096.8368282,30.996578693389893,0.0,0.0,2.001592780596401,0.0,0.0,-0.00019387238378941986,0.0,0.0,0.0,0.44189377744020286,0.0,0.0,0.0,stabilize
1761303096.944431,31.10418152809143,0.0,0.0,2.0015720569323605,0.0,0.0,-0.0001913264637254957,0.0,0.0,0.0,0.4418940514040456,0.0,0.0,0.0,stabilize
1761303097.0465908,31.20634126663208,0.0,0.0,2.001552621915147,0.0,0.0,-0.00018816048202133622,0.0,0.0,0.0,0.441900094133595,0.0,0.0,0.0,stabilize
1761303097.15345,31.3132004737854,0.0,0.0,2.001532585143542,0.0,0.0,-0.00018638716088675578,0.0,0.0,0.0,0.44189365951807896,0.0,0.0,0.0,stabilize
1761303097.2605708,31.420321226119995,0.0,0.0,2.001512746480611,0.0,0.0,-0.00018408825202137006,0.0,0.0,0.0,0.44189350557252766,0.0,0.0,0.0,stabilize
1761303097.3673859,31.52713632583618,0.0,0.0,2.0014932143836095,0.0,0.0,-0.00018159609573014269,0.0,0.0,0.0,0.4418941712584543,0.0,0.0,0.0,stabilize
1761303097.4742897,31.634040117263794,0.0,0.0,2.0014739153284338,0.0,0.0,-0.00017931729743976018,0.0,0.0,0.0,0.4418932687477025,0.0,0.0,0.0,stabilize
1761303097.5812206,31.740971088409424,0.0,0.0,2.0014548593244483,0.0,0.0,-0.0001771831913310573,0.0,0.0,0.0,0.441892742069974,0.0,0.0,0.0,stabilize
1761303097.689085,31.848835468292236,0.0,0.0,2.001435883791722,0.0,0.0,-0.00017474631470237273,0.0,0.0,0.0,0.4418940817137829,0.0,0.0,0.0,stabilize
1761303097.7958157,31.95556616783142,0.0,0.0,2.001417353155953,0.0,0.0,-0.00017238359737947577,0.0,0.0,0.0,0.4418949234336735,0.0,0.0,0.0,stabilize
1761303097.9017172,32.06146764755249,0.0,0.0,2.0013992050072673,0.0,0.0,-0.00017030206343877108,0.0,0.0,0.0,0.4418933334935616,0.0,0.0,0.0,stabilize
1761303098.0092845,32.16903495788574,0.0,0.0,2.001381006182847,0.0,0.0,-0.000168153030699639,0.0,0.0,0.0,0.4418931410394717,0.0,0.0,0.0,stabilize
1761303098.116025,32.27577543258667,0.0,0.0,2.0013631826406892,0.0,0.0,-0.0001658869916304055,0.0,0.0,0.0,0.4418937435154088,0.0,0.0,0.0,stabilize
1761303098.2219386,32.38168907165527,0.0,0.0,2.001345725804747,0.0,0.0,-0.00016372671340967316,0.0,0.0,0.0,0.4418941835745237,0.0,0.0,0.0,stabilize
1761303098.3270698,32.486820220947266,0.0,0.0,2.0013286201186924,0.0,0.0,-0.00016156986936220372,0.0,0.0,0.0,0.441894312976238,0.0,0.0,0.0,stabilize
1761303098.4333875,32.593137979507446,0.0,0.0,2.0013115410684037,0.0,0.0,-0.00015964086560647269,0.0,0.0,0.0,0.4418936835245346,0.0,0.0,0.0,stabilize
1761303098.5399117,32.69966220855713,0.0,0.0,2.001294648520727,0.0,0.0,-0.0001575158155623255,0.0,0.0,0.0,0.4418941559000318,0.0,0.0,0.0,stabilize
1761303098.6420565,32.801806926727295,0.0,0.0,2.0012787968506287,0.0,0.0,-0.00015739300525334832,0.0,0.0,0.0,0.44188847221956806,0.0,0.0,0.0,stabilize
1761303098.746591,32.906341552734375,0.0,0.0,2.0012624907850944,0.0,0.0,-0.00015364145969247141,0.0,0.0,0.0,0.44189242077251506,0.0,0.0,0.0,stabilize
1761303098.853754,33.01350450515747,0.0,0.0,2.001246139862254,0.0,0.0,-0.00015164076785136054,0.0,0.0,0.0,0.4418933958584307,0.0,0.0,0.0,stabilize
1761303098.9605792,33.12032961845398,0.0,0.0,2.001230048606516,0.0,0.0,-0.00014964817480991906,0.0,0.0,0.0,0.4418939909989798,0.0,0.0,0.0,stabilize
1761303099.062124,33.221874475479126,0.0,0.0,2.0012149355605127,0.0,0.0,-0.00014781246277379773,0.0,0.0,0.0,0.4418928604289963,0.0,0.0,0.0,stabilize
1761303099.1682787,33.3280291557312,0.0,0.0,2.0011993496295335,0.0,0.0,-0.00014582902948501191,0.0,0.0,0.0,0.4418941987449227,0.0,0.0,0.0,stabilize
1761303099.2760205,33.435770988464355,0.0,0.0,2.001183729321983,0.0,0.0,-0.00014403922071444135,0.0,0.0,0.0,0.4418933563012769,0.0,0.0,0.0,stabilize
1761303099.3833828,33.54313325881958,0.0,0.0,2.0011683648907286,0.0,0.0,-0.00014227171251277447,0.0,0.0,0.0,0.44189273384957595,0.0,0.0,0.0,stabilize
1761303099.4911835,33.65093398094177,0.0,0.0,2.0011531365503554,0.0,0.0,-0.00014036339962515847,0.0,0.0,0.0,0.4418933829291407,0.0,0.0,0.0,stabilize
1761303099.5979788,33.757729291915894,0.0,0.0,2.001138246866248,0.0,0.0,-0.00013851540035772633,0.0,0.0,0.0,0.4418938241887927,0.0,0.0,0.0,stabilize
1761303099.7054565,33.8652069568634,0.0,0.0,2.0011234550309864,0.0,0.0,-0.00013675116403335591,0.0,0.0,0.0,0.4418934508603076,0.0,0.0,0.0,stabilize
1761303099.812962,33.97271251678467,0.0,0.0,2.001108851705503,0.0,0.0,-0.00013495896578092687,0.0,0.0,0.0,0.44189352523089565,0.0,0.0,0.0,stabilize
1761303099.9203026,34.080053091049194,0.0,0.0,2.0010944606285133,0.0,0.0,-0.00013315969827610148,0.0,0.0,0.0,0.4418939046372422,0.0,0.0,0.0,stabilize
1761303100.026421,34.186171531677246,0.0,0.0,2.0010804189230256,0.0,0.0,-0.0001314475021201911,0.0,0.0,0.0,0.4418938665508344,0.0,0.0,0.0,stabilize
1761303100.1340246,34.29377508163452,0.0,0.0,2.0010664318564633,0.0,0.0,-0.00012985249170152798,0.0,0.0,0.0,0.4418927329567365,0.0,0.0,0.0,stabilize
1761303100.239859,34.39960956573486,0.0,0.0,2.0010527188238254,0.0,0.0,-0.00012802022933362204,0.0,0.0,0.0,0.44189414803757787,0.0,0.0,0.0,stabilize
1761303100.3473427,34.50709319114685,0.0,0.0,2.0010390389068733,0.0,0.0,-0.000126451268439355,0.0,0.0,0.0,0.4418934467569031,0.0,0.0,0.0,stabilize
1761303100.4545116,34.614262104034424,0.0,0.0,2.001025576468893,0.0,0.0,-0.00012476284905106223,0.0,0.0,0.0,0.44189379274392127,0.0,0.0,0.0,stabilize
1761303100.560762,34.72051239013672,0.0,0.0,2.0010124029664826,0.0,0.0,-0.00012312384586135182,0.0,0.0,0.0,0.4418937821428265,0.0,0.0,0.0,stabilize
1761303100.6654491,34.825199604034424,0.0,0.0,2.000999590737813,0.0,0.0,-0.0001217595040518611,0.0,0.0,0.0,0.4418922801834263,0.0,0.0,0.0,stabilize
1761303100.773741,34.933491468429565,0.0,0.0,2.0009865656169654,0.0,0.0,-0.00012005693002657896,0.0,0.0,0.0,0.4418937241716866,0.0,0.0,0.0,stabilize
1761303100.8798602,35.039610624313354,0.0,0.0,2.0009738462748676,0.0,0.0,-0.00011847127570800296,0.0,0.0,0.0,0.4418938988548583,0.0,0.0,0.0,stabilize
1761303100.9870167,35.146767139434814,0.0,0.0,2.000961230116546,0.0,0.0,-0.00011700671972459375,0.0,0.0,0.0,0.44189289461508974,0.0,0.0,0.0,stabilize
1761303101.0937352,35.253485679626465,0.0,0.0,2.0009488290145225,0.0,0.0,-0.00011537592405115416,0.0,0.0,0.0,0.4418941906118079,0.0,0.0,0.0,stabilize
1761303101.1997721,35.359522581100464,0.0,0.0,2.0009366673457745,0.0,0.0,-0.00011400097578222552,0.0,0.0,0.0,0.44189310795858205,0.0,0.0,0.0,stabilize
1761303101.306909,35.46665954589844,0.0,0.0,2.000924535943022,0.0,0.0,-0.00011252670912881525,0.0,0.0,0.0,0.441893124106326,0.0,0.0,0.0,stabilize
1761303101.4134383,35.57318878173828,0.0,0.0,2.000912629224357,0.0,0.0,-0.00011104649183123083,0.0,0.0,0.0,0.44189361695538054,0.0,0.0,0.0,stabilize
1761303101.520347,35.680097579956055,0.0,0.0,2.0009008334707588,0.0,0.0,-0.00010960975082437515,0.0,0.0,0.0,0.441893642910683,0.0,0.0,0.0,stabilize
1761303101.6271777,35.78692817687988,0.0,0.0,2.000889198352745,0.0,0.0,-0.00010820885571634059,0.0,0.0,0.0,0.4418934749637652,0.0,0.0,0.0,stabilize
1761303101.7343378,35.89408826828003,0.0,0.0,2.000877677821686,0.0,0.0,-0.00010678235985159875,0.0,0.0,0.0,0.4418935838174485,0.0,0.0,0.0,stabilize
1761303101.8410707,36.000821113586426,0.0,0.0,2.0008663521485617,0.0,0.0,-0.00010530662383798595,0.0,0.0,0.0,0.4418939815966494,0.0,0.0,0.0,stabilize
1761303101.9486501,36.10840058326721,0.0,0.0,2.0008550840079646,0.0,0.0,-0.00010406726170729409,0.0,0.0,0.0,0.44189327982275006,0.0,0.0,0.0,stabilize
1761303102.0551639,36.214914321899414,0.0,0.0,2.0008440726671415,0.0,0.0,-0.0001026795235432111,0.0,0.0,0.0,0.4418937514004314,0.0,0.0,0.0,stabilize
1761303102.161806,36.32155656814575,0.0,0.0,2.0008331901462983,0.0,0.0,-0.00010133726878353378,0.0,0.0,0.0,0.44189391470622164,0.0,0.0,0.0,stabilize
1761303102.266737,36.4264874458313,0.0,0.0,2.0008226210317286,0.0,0.0,-0.00010007837319296823,0.0,0.0,0.0,0.44189355735054614,0.0,0.0,0.0,stabilize
1761303102.3727238,36.53247427940369,0.0,0.0,2.00081208024241,0.0,0.0,-9.872097756019999e-05,0.0,0.0,0.0,0.441893889756432,0.0,0.0,0.0,stabilize
1761303102.4794998,36.6392502784729,0.0,0.0,2.000801597114066,0.0,0.0,-9.744973538802297e-05,0.0,0.0,0.0,0.4418938179176537,0.0,0.0,0.0,stabilize
1761303102.5859072,36.74565768241882,0.0,0.0,2.000791285747212,0.0,0.0,-9.63159790259887e-05,0.0,0.0,0.0,0.4418933393417784,0.0,0.0,0.0,stabilize
1761303102.6924195,36.85216999053955,0.0,0.0,2.0007810964503214,0.0,0.0,-9.503044786689036e-05,0.0,0.0,0.0,0.44189381505015946,0.0,0.0,0.0,stabilize
1761303102.7989469,36.95869731903076,0.0,0.0,2.0007710368852414,0.0,0.0,-9.373437951743294e-05,0.0,0.0,0.0,0.4418939187047167,0.0,0.0,0.0,stabilize
1761303102.9051332,37.06488370895386,0.0,0.0,2.000761138835517,0.0,0.0,-9.259157884797405e-05,0.0,0.0,0.0,0.44189362310364255,0.0,0.0,0.0,stabilize
1761303103.0111487,37.17089915275574,0.0,0.0,2.000751383721615,0.0,0.0,-9.147696043500185e-05,0.0,0.0,0.0,0.44189266545968653,0.0,0.0,0.0,stabilize
1761303103.118391,37.278141498565674,0.0,0.0,2.000741643156359,0.0,0.0,-9.022034043817464e-05,0.0,0.0,0.0,0.4418934034337492,0.0,0.0,0.0,stabilize
1761303103.224836,37.384586572647095,0.0,0.0,2.000732100342297,0.0,0.0,-8.908268227192942e-05,0.0,0.0,0.0,0.4418932937920743,0.0,0.0,0.0,stabilize
1761303103.331779,37.49152946472168,0.0,0.0,2.000722635046516,0.0,0.0,-8.787301336649769e-05,0.0,0.0,0.0,0.441893521637825,0.0,0.0,0.0,stabilize
1761303103.4392908,37.599041223526,0.0,0.0,2.0007132421286773,0.0,0.0,-8.677167538822392e-05,0.0,0.0,0.0,0.4418936017982686,0.0,0.0,0.0,stabilize
1761303103.5469224,37.70667290687561,0.0,0.0,2.0007039607501347,0.0,0.0,-8.567897166324422e-05,0.0,0.0,0.0,0.4418932057224074,0.0,0.0,0.0,stabilize
1761303103.6533816,37.8131320476532,0.0,0.0,2.000694900187583,0.0,0.0,-8.460580984587723e-05,0.0,0.0,0.0,0.44189273278659275,0.0,0.0,0.0,stabilize
1761303103.7607906,37.92054104804993,0.0,0.0,2.000685875973176,0.0,0.0,-8.3469261240712e-05,0.0,0.0,0.0,0.4418932738032112,0.0,0.0,0.0,stabilize
1761303103.8670714,38.02682185173035,0.0,0.0,2.0006770629483683,0.0,0.0,-8.239255511050703e-05,0.0,0.0,0.0,0.44189324120251383,0.0,0.0,0.0,stabilize
1761303103.9730718,38.13282227516174,0.0,0.0,2.0006683860324994,0.0,0.0,-8.125445267378645e-05,0.0,0.0,0.0,0.4418936940225132,0.0,0.0,0.0,stabilize
1761303104.0794373,38.239187717437744,0.0,0.0,2.0006597909039674,0.0,0.0,-8.030334334173852e-05,0.0,0.0,0.0,0.44189320539551663,0.0,0.0,0.0,stabilize
1761303104.1862023,38.34595274925232,0.0,0.0,2.000651274118089,0.0,0.0,-7.925822527643632e-05,0.0,0.0,0.0,0.4418931035158664,0.0,0.0,0.0,stabilize
1761303104.292962,38.452712535858154,0.0,0.0,2.0006428676776675,0.0,0.0,-7.825176689510778e-05,0.0,0.0,0.0,0.44189323106070033,0.0,0.0,0.0,stabilize
1761303104.3991265,38.55887699127197,0.0,0.0,2.0006346161803914,0.0,0.0,-7.723431538941113e-05,0.0,0.0,0.0,0.44189310658669373,0.0,0.0,0.0,stabilize
1761303104.5043993,38.66414976119995,0.0,0.0,2.000626539420652,0.0,0.0,-7.630716557792874e-05,0.0,0.0,0.0,0.44189259034356587,0.0,0.0,0.0,stabilize
1761303104.6110034,38.77075386047363,0.0,0.0,2.000618464312957,0.0,0.0,-7.527863027329072e-05,0.0,0.0,0.0,0.4418929547224748,0.0,0.0,0.0,stabilize
1761303104.7171817,38.87693214416504,0.0,0.0,2.000610525396751,0.0,0.0,-7.433338164353892e-05,0.0,0.0,0.0,0.44189267127625564,0.0,0.0,0.0,stabilize
1761303104.8242059,38.9839563369751,0.0,0.0,2.000602625903206,0.0,0.0,-7.331153788092711e-05,0.0,0.0,0.0,0.44189340573428,0.0,0.0,0.0,stabilize
1761303104.9308393,39.09058976173401,0.0,0.0,2.000594857277877,0.0,0.0,-7.2394213809265e-05,0.0,0.0,0.0,0.44189315525995526,0.0,0.0,0.0,stabilize
1761303105.037048,39.19679856300354,0.0,0.0,2.0005872191531355,0.0,0.0,-7.141911467340311e-05,0.0,0.0,0.0,0.441893231328808,0.0,0.0,0.0,stabilize
1761303105.1425917,39.30234217643738,0.0,0.0,2.0005797263904705,0.0,0.0,-7.058278497337432e-05,0.0,0.0,0.0,0.44189288994591386,0.0,0.0,0.0,stabilize
1761303105.2482975,39.408047914505005,0.0,0.0,2.0005723174847345,0.0,0.0,-6.96482723239521e-05,0.0,0.0,0.0,0.4418932710846411,0.0,0.0,0.0,stabilize
1761303105.3555086,39.51525902748108,0.0,0.0,2.000564898754826,0.0,0.0,-6.87390329091991e-05,0.0,0.0,0.0,0.44189318036442554,0.0,0.0,0.0,stabilize
1761303105.4629166,39.62266707420349,0.0,0.0,2.0005575629195538,0.0,0.0,-6.785123060364233e-05,0.0,0.0,0.0,0.4418931804808691,0.0,0.0,0.0,stabilize
1761303105.5693803,39.72913074493408,0.0,0.0,2.000550386196869,0.0,0.0,-6.697468746215198e-05,0.0,0.0,0.0,0.4418931633057999,0.0,0.0,0.0,stabilize
1761303105.6766715,39.836421966552734,0.0,0.0,2.0005432465890114,0.0,0.0,-6.605957875390956e-05,0.0,0.0,0.0,0.44189338744888296,0.0,0.0,0.0,stabilize
1761303105.7836401,39.94339060783386,0.0,0.0,2.0005362214218416,0.0,0.0,-6.521994996626344e-05,0.0,0.0,0.0,0.44189350831690816,0.0,0.0,0.0,stabilize
1761303105.8912919,40.051042318344116,0.0,0.0,2.000529242939867,0.0,0.0,-6.438705014836791e-05,0.0,0.0,0.0,0.44189324601108426,0.0,0.0,0.0,stabilize
1761303105.9985304,40.15828084945679,0.0,0.0,2.0005223815301205,0.0,0.0,-6.354934151691117e-05,0.0,0.0,0.0,0.4418933892377186,0.0,0.0,0.0,stabilize
1761303106.105697,40.26544737815857,0.0,0.0,2.0005156135810043,0.0,0.0,-6.273939059978418e-05,0.0,0.0,0.0,0.4418932106201924,0.0,0.0,0.0,stabilize
1761303106.212062,40.37181234359741,0.0,0.0,2.0005089833156044,0.0,0.0,-6.194910571529496e-05,0.0,0.0,0.0,0.4418930328672403,0.0,0.0,0.0,stabilize
1761303106.3195536,40.47930407524109,0.0,0.0,2.000502368636852,0.0,0.0,-6.112982230311415e-05,0.0,0.0,0.0,0.4418931791730772,0.0,0.0,0.0,stabilize
1761303106.4266167,40.58636713027954,0.0,0.0,2.000495866154567,0.0,0.0,-6.034864299730454e-05,0.0,0.0,0.0,0.44189305597896655,0.0,0.0,0.0,stabilize
1761303106.533218,40.69296836853027,0.0,0.0,2.0004894755836617,0.0,0.0,-5.9563012967893603e-05,0.0,0.0,0.0,0.44189311387228547,0.0,0.0,0.0,stabilize
1761303106.6402345,40.7999849319458,0.0,0.0,2.000483142726911,0.0,0.0,-5.878803745333159e-05,0.0,0.0,0.0,0.44189306830873876,0.0,0.0,0.0,stabilize
1761303106.742546,40.90229654312134,0.0,0.0,2.0004771612902843,0.0,0.0,-5.8050777657268165e-05,0.0,0.0,0.0,0.4418931050160662,0.0,0.0,0.0,stabilize
1761303106.8472857,41.007036209106445,0.0,0.0,2.000471121098044,0.0,0.0,-5.723779231032939e-05,0.0,0.0,0.0,0.4418936537494386,0.0,0.0,0.0,stabilize
1761303106.953796,41.11354637145996,0.0,0.0,2.0004650559856847,0.0,0.0,-5.6596639041078766e-05,0.0,0.0,0.0,0.4418929032818146,0.0,0.0,0.0,stabilize
1761303107.0614266,41.221177101135254,0.0,0.0,2.000459005289166,0.0,0.0,-5.5807698946521594e-05,0.0,0.0,0.0,0.44189352355000316,0.0,0.0,0.0,stabilize
1761303107.1687362,41.3284866809845,0.0,0.0,2.00045305157852,0.0,0.0,-5.512654292876427e-05,0.0,0.0,0.0,0.44189302525805985,0.0,0.0,0.0,stabilize
1761303107.2754853,41.43523573875427,0.0,0.0,2.0004472052993,0.0,0.0,-5.439807564043792e-05,0.0,0.0,0.0,0.4418933319977375,0.0,0.0,0.0,stabilize
1761303107.3819294,41.54167985916138,0.0,0.0,2.0004414508625077,0.0,0.0,-5.3748504250660346e-05,0.0,0.0,0.0,0.4418926688733581,0.0,0.0,0.0,stabilize
1761303107.4886034,41.648353815078735,0.0,0.0,2.000435758021885,0.0,0.0,-5.305409797811572e-05,0.0,0.0,0.0,0.4418927578913465,0.0,0.0,0.0,stabilize
1761303107.595978,41.75572848320007,0.0,0.0,2.0004301012792585,0.0,0.0,-5.232789593672781e-05,0.0,0.0,0.0,0.4418932094596663,0.0,0.0,0.0,stabilize
1761303107.7035794,41.86332988739014,0.0,0.0,2.0004245060959183,0.0,0.0,-5.163900732893957e-05,0.0,0.0,0.0,0.44189327525143207,0.0,0.0,0.0,stabilize
1761303107.8108406,41.97059106826782,0.0,0.0,2.000419001237393,0.0,0.0,-5.099230231721147e-05,0.0,0.0,0.0,0.44189299884164673,0.0,0.0,0.0,stabilize
1761303107.9175844,42.07733488082886,0.0,0.0,2.0004135940910324,0.0,0.0,-5.027926499247853e-05,0.0,0.0,0.0,0.4418934489823271,0.0,0.0,0.0,stabilize
1761303108.02359,42.183340549468994,0.0,0.0,2.0004082939989787,0.0,0.0,-4.9660021681232055e-05,0.0,0.0,0.0,0.4418932368847484,0.0,0.0,0.0,stabilize
1761303108.130097,42.2898473739624,0.0,0.0,2.0004030369213766,0.0,0.0,-4.905464504619302e-05,0.0,0.0,0.0,0.44189288736130206,0.0,0.0,0.0,stabilize
1761303108.2359254,42.39567589759827,0.0,0.0,2.0003978805353992,0.0,0.0,-4.840547844344062e-05,0.0,0.0,0.0,0.4418931639108608,0.0,0.0,0.0,stabilize
1761303108.3426764,42.502426862716675,0.0,0.0,2.0003927454831385,0.0,0.0,-4.778087438036453e-05,0.0,0.0,0.0,0.4418931168778183,0.0,0.0,0.0,stabilize
1761303108.4485245,42.608274936676025,0.0,0.0,2.00038772010546,0.0,0.0,-4.716937055599405e-05,0.0,0.0,0.0,0.4418931229160238,0.0,0.0,0.0,stabilize
1761303108.5547671,42.71451759338379,0.0,0.0,2.0003827403867476,0.0,0.0,-4.655145925273383e-05,0.0,0.0,0.0,0.44189309008990174,0.0,0.0,0.0,stabilize
1761303108.6603782,42.82012867927551,0.0,0.0,2.000377853709652,0.0,0.0,-4.588689216320244e-05,0.0,0.0,0.0,0.4418938143402666,0.0,0.0,0.0,stabilize
1761303108.7682626,42.92801308631897,0.0,0.0,2.000372926031173,0.0,0.0,-4.538484961174164e-05,0.0,0.0,0.0,0.4418929561535112,0.0,0.0,0.0,stabilize
1761303108.8740938,43.033844232559204,0.0,0.0,2.000368154858996,0.0,0.0,-4.4759376518601734e-05,0.0,0.0,0.0,0.44189327592200384,0.0,0.0,0.0,stabilize
1761303108.9801211,43.13987159729004,0.0,0.0,2.0003634357614497,0.0,0.0,-4.4193378738101084e-05,0.0,0.0,0.0,0.4418932189368205,0.0,0.0,0.0,stabilize
1761303109.0828063,43.24255681037903,0.0,0.0,2.000358920716541,0.0,0.0,-4.363727394345808e-05,0.0,0.0,0.0,0.4418926922800819,0.0,0.0,0.0,stabilize
1761303109.1897843,43.34953474998474,0.0,0.0,2.0003542817689626,0.0,0.0,-4.3100837174730714e-05,0.0,0.0,0.0,0.4418928535057129,0.0,0.0,0.0,stabilize
1761303109.2968085,43.4565589427948,0.0,0.0,2.0003496991987597,0.0,0.0,-4.257183019588044e-05,0.0,0.0,0.0,0.44189277161607604,0.0,0.0,0.0,stabilize
1761303109.4043398,43.56409025192261,0.0,0.0,2.0003451533374474,0.0,0.0,-4.196373616451896e-05,0.0,0.0,0.0,0.44189318797512833,0.0,0.0,0.0,stabilize
1761303109.510753,43.67050337791443,0.0,0.0,2.0003407129502384,0.0,0.0,-4.143470891794769e-05,0.0,0.0,0.0,0.441893100009065,0.0,0.0,0.0,stabilize
