timestamp,simulation_time,position_x,position_y,position_z,velocity_x,velocity_y,velocity_z,attitude_roll,attitude_pitch,attitude_yaw,angular_velocity_x,angular_velocity_y,angular_velocity_z,acceleration_x,acceleration_y,acceleration_z,motor_speed_1,motor_speed_2,motor_speed_3,motor_speed_4,control_throttle,control_roll,control_pitch,control_yaw,estimated_position_x,estimated_position_y,estimated_position_z,estimated_velocity_x,estimated_velocity_y,estimated_velocity_z,estimated_attitude_roll,estimated_attitude_pitch,estimated_attitude_yaw,sensor_accel_x,sensor_accel_y,sensor_accel_z,sensor_gyro_x,sensor_gyro_y,sensor_gyro_z,sensor_gps_x,sensor_gps_y,sensor_gps_z,sensor_gps_vx,sensor_gps_vy,sensor_gps_vz,sensor_baro_altitude,sensor_mag_x,sensor_mag_y,sensor_mag_z,flight_mode,battery_level,gps_fix,waypoint_index,mission_complete,setpoint_altitude,setpoint_position_x,setpoint_position_y,setpoint_position_z,position_error,attitude_error
1760964189.0664737,0.11090850830078125,0.0,0.0,0.0,0.0,0.0,-3.2257401256782954,0.0,0.0,0.0,,,,,,,,,,,0.65,0.0,0.0,0.0,0.10033031441848754,-0.48306335442108816,1.2076081348885481,-0.01588897854274509,0.014625209490472059,-2.8378154257895316,-0.006844064606504785,0.003835551677773095,-0.02979382690568419,,,,,,,,,,,,,,,,,stabilize,85.0,True,0,False,10.0,0.0,0.0,-10.0,11.218462304683108,0.030809492022698958
1760964189.237027,0.2814617156982422,0.0,0.0,0.0,0.0,0.0,-7.963923219073413,0.0,0.0,-0.007470965906828132,,,,,,,,,,,0.55,0.0,0.0,-0.22981514388692395,0.01273522247419219,-0.7159694441451574,-0.53976804395545,-0.027858549239669593,-0.01817892843695176,-7.360717192940652,-0.009011937785961485,0.008245650022094049,0.08835645670393077,,,,,,,,,,,,,,,,,stabilize,85.0,True,0,False,10.0,0.0,0.0,-10.0,9.487294824817425,0.08919680043711486
1760964189.3386195,0.383054256439209,0.0,0.0,0.0,0.0,0.0,-10.627112225886279,0.0,0.0,-0.020625873286450228,,,,,,,,,,,0.55,0.0,0.0,-0.2189906450236793,-0.351609267145876,-0.9059875434653797,-0.6628565048510202,-0.02220184524776186,-0.023567434151710358,-10.136173572423083,-0.00641214261887033,0.003635745445929224,0.08334333284118692,,,,,,,,,,,,,,,,,stabilize,85.0,True,0,False,10.0,0.0,0.0,-10.0,9.387581752222463,0.08366866406839059
1760964189.4423337,0.4867684841156006,0.0,0.0,0.0,0.0,0.0,-13.269070383428446,0.0,0.0,-0.028425231734379636,,,,,,,,,,,0.55,0.0,0.0,-0.0037585401176849728,-0.3546015829567036,-0.909732876215455,-0.7548478878913805,-0.03527205311605004,-0.04947324002806449,-12.788312232637862,-0.006663977825443998,0.0012747912227351291,0.022948107559624037,,,,,,,,,,,,,,,,,stabilize,85.0,True,0,False,10.0,0.0,0.0,-10.0,9.296568924325205,0.02393009263850948
1760964189.5508301,0.5952649116516113,0.0,0.0,0.0,0.0,0.0,-15.95612606692615,0.0,0.0,-0.025998059380354013,,,,,,,,,,,0.55,0.0,0.0,-0.00918083850399771,-0.35927715828901285,-0.9164264526740983,-0.5744853396793405,-0.05569843077299235,-0.07265191058190922,-15.487541677727204,-0.0072835819110880036,0.010344618066874298,-0.01866482624071093,,,,,,,,,,,,,,,,,stabilize,85.0,True,0,False,10.0,0.0,0.0,-10.0,9.476773930592032,0.02254855709354729
1760964189.6580405,0.7024753093719482,0.0,0.0,0.0,0.0,0.0,-18.49200704376157,0.0,0.0,-0.012549965793056533,,,,,,,,,,,0.55,0.0,0.0,-0.021517168366854227,1.5692175531990809,-0.9858125773857798,-0.6603330433975829,-0.04433760119461972,0.013052679540111859,-18.190073689817222,-0.008977686975243045,0.013097519210693213,0.030515646178560125,,,,,,,,,,,,,,,,,stabilize,85.0,True,0,False,10.0,0.0,0.0,-10.0,9.52174611230793,0.03439983335126782
1760964189.7587712,0.8032059669494629,0.0,0.0,0.0,0.0,0.0,-20.74454266321766,0.0,0.0,0.0034215659079523918,,,,,,,,,,,0.55,0.0,0.0,-0.020322113670258657,1.1979356959437155,-1.0323012927136104,-1.0007587578413466,-0.11171748466167822,0.013703009600364,-20.505818488036425,-0.010676727018632126,0.013230778197705783,0.009680662258432449,,,,,,,,,,,,,,,,,stabilize,85.0,True,0,False,10.0,0.0,0.0,-10.0,9.137124209789619,0.019564284124626546
1760964189.866128,0.9105627536773682,0.0,0.0,0.0,0.0,0.0,-23.010888093234854,0.0,0.0,0.016850703917033596,,,,,,,,,,,0.55,0.0,0.0,-0.13717364643787652,0.7826781858262826,-1.1409052677142029,-1.2920876010652085,-0.07666058605781635,-0.07916528581095972,-22.83332874919643,-0.01898477854989853,0.014927498547855298,0.05405576141762217,,,,,,,,,,,,,,,,,stabilize,85.0,True,0,False,10.0,0.0,0.0,-10.0,8.81714173187596,0.059205382964083585
1760964189.9743621,1.0187969207763672,0.0,0.0,0.0,0.0,0.0,-25.13952279088522,0.0,0.0,0.02720769961760716,,,,,,,,,,,0.55,0.0,0.0,-0.2434010754107303,0.21294066198230344,-0.7238513662028537,-1.1425404793316907,-0.061518964293433294,-0.1279241640912973,-24.97361558504843,-0.02234628306188265,0.00935949621146497,0.09571809986065925,,,,,,,,,,,,,,,,,stabilize,85.0,True,0,False,10.0,0.0,0.0,-10.0,8.889538440557915,0.09873657466688494
1760964190.084571,1.1290056705474854,0.0,0.0,0.0,0.0,0.0,-27.164095751364087,0.0,0.0,0.03435610504007539,,,,,,,,,,,0.55,0.0,0.0,0.00893565083502183,0.20440277825757677,-0.7421020356315415,-1.3168653510147337,-0.09436578589465057,-0.20337487623440836,-27.01257390031905,-0.025111120591700953,0.01427369153550564,0.01753263673306327,,,,,,,,,,,,,,,,,stabilize,85.0,True,0,False,10.0,0.0,0.0,-10.0,8.717185512506681,0.03378905145509818
1760964190.1921618,1.2365965843200684,0.0,0.0,0.0,0.0,0.0,-29.000210352926196,0.0,0.0,0.0339980569437913,,,,,,,,,,,0.55,0.0,0.0,0.019374210344977577,0.1919997051353394,-0.7684856599139663,-1.4426923104054925,-0.13615358593492669,-0.28557446189813346,-28.863562101151008,-0.026463535672894563,0.022503253512707218,0.04861096244511027,,,,,,,,,,,,,,,,,stabilize,85.0,True,0,False,10.0,0.0,0.0,-10.0,8.59389021285813,0.059747307962850126
1760964190.3015628,1.3459975719451904,0.0,0.0,0.0,0.0,0.0,-30.70732466583699,0.0,0.0,0.028820660699111243,,,,,,,,,,,0.55,0.0,0.0,-0.1316723602370567,0.17368885048829316,-0.8035607930211051,-1.4924325188895664,-0.19832670146831533,-0.3522300255076382,-30.58386775852935,-0.021663062040526638,0.023037018386371618,0.05727970700132509,,,,,,,,,,,,,,,,,stabilize,85.0,True,0,False,10.0,0.0,0.0,-10.0,8.547197330734349,0.06542902496035977
1760964190.411859,1.4562938213348389,0.0,0.0,0.0,0.0,0.0,-32.28116513001361,0.0,0.0,0.020710049921663965,,,,,,,,,,,0.55,0.0,0.0,0.018406957833514218,0.1484272142573677,-0.8460501345901517,-1.444322694101721,-0.25829124395036346,-0.41633995691844067,-32.16971633923221,-0.022947462261151397,0.021606727803089327,0.013079989862759073,,,,,,,,,,,,,,,,,stabilize,85.0,True,0,False,10.0,0.0,0.0,-10.0,8.598688599480449,0.03412510579314944
1760964190.519545,1.5639798641204834,0.0,0.0,0.0,0.0,0.0,-33.680014121849894,0.0,0.0,0.01423013664636712,,,,,,,,,,,0.55,0.0,0.0,0.2728976618178368,0.11768795851720165,-0.8940826381620823,-1.651619643989042,-0.3119427409808778,-0.4786207699194681,-33.579869860481104,-0.028625369005064228,0.02003707244545449,-0.09824003765711604,,,,,,,,,,,,,,,,,stabilize,85.0,True,0,False,10.0,0.0,0.0,-10.0,8.396945205732408,0.1042688880814026
1760964190.6262739,1.6707086563110352,0.0,0.0,0.0,0.0,0.0,-34.939815553928334,0.0,0.0,0.007039911124076527,,,,,,,,,,,0.55,0.0,0.0,0.020980613250603693,-0.9091924824395041,-1.219829580331471,-1.4626882794092102,-0.18453746465572132,-0.3069028829200158,-34.86245095513076,-0.029043638913430907,0.0186736628701837,-0.0015255962091530462,,,,,,,,,,,,,,,,,stabilize,85.0,True,0,False,10.0,0.0,0.0,-10.0,8.671811032864648,0.03456249542663865
1760964190.734036,1.778470754623413,0.0,0.0,0.0,0.0,0.0,-36.09021960216676,0.0,0.0,-0.006294992717961289,,,,,,,,,,,0.55,0.0,0.0,0.014138158497639556,0.719397090227718,-0.7390039712947164,-1.7676983980191276,-0.03983373810839354,-0.16144957197871307,-35.99194575344798,-0.026171154846112845,0.02256370976434645,-0.004308737998125714,,,,,,,,,,,,,,,,,stabilize,85.0,True,0,False,10.0,0.0,0.0,-10.0,8.296652861786752,0.0348226301052257
1760964190.8419535,1.8863883018493652,0.0,0.0,0.0,0.0,0.0,-37.1286713037471,0.0,0.0,-0.018906715816407443,,,,,,,,,,,0.55,0.0,0.0,0.013322149515554015,0.04338790481729921,-0.7789533468630171,-1.9862854676229578,-0.011205772013132859,-0.13196220531885822,-37.04973731369926,-0.021906438884563183,0.021727477527159318,-0.048740659395981344,,,,,,,,,,,,,,,,,stabilize,85.0,True,0,False,10.0,0.0,0.0,-10.0,8.051600551027388,0.05768558938462343
1760964190.9499557,1.9943904876708984,0.0,0.0,0.0,0.0,0.0,-38.06376568406738,0.0,0.0,-0.023998428300806934,,,,,,,,,,,0.55,0.0,0.0,0.2680939254414544,-0.12139752245979159,-0.9111581925966833,-1.7150062078590391,-0.03205636153354135,-0.1510342539731308,-37.992060823731244,-0.02390544702965062,0.02392174158079408,-0.10826023850423293,,,,,,,,,,,,,,,,,stabilize,85.0,True,0,False,10.0,0.0,0.0,-10.0,8.335830417313543,0.11341957220400332
1760964191.0578134,2.102248191833496,0.0,0.0,0.0,0.0,0.0,-38.89971016511372,0.0,0.0,-0.021168319385262056,,,,,,,,,,,0.55,0.0,0.0,-0.014838022087162912,-1.5266014570817272,-0.2999134639613493,-1.9780302189188042,-0.09074831877494395,-0.06371635888996395,-38.82052560849472,-0.014567161861328228,0.027484829337264892,-0.031848174761959114,,,,,,,,,,,,,,,,,stabilize,85.0,True,0,False,10.0,0.0,0.0,-10.0,8.171441688172855,0.044518808205757286
1760964191.1656432,2.210078001022339,0.0,0.0,0.0,0.0,0.0,-39.64739917713615,0.0,0.0,-0.018072259018587125,,,,,,,,,,,0.55,0.0,0.0,-0.013420020913480988,-0.30397101952594185,-0.40386528864915816,-1.7860920241589706,-0.055636275654440195,-0.01925673770778965,-39.563023973814474,-0.014105526857481475,0.024833878842059478,0.0020564431516214956,,,,,,,,,,,,,,,,,stabilize,85.0,True,0,False,10.0,0.0,0.0,-10.0,8.229446505547758,0.02863418210295296
1760964191.2748063,2.3192410469055176,0.0,0.0,0.0,0.0,0.0,-40.31907678361058,0.0,0.0,-0.02019963448008895,,,,,,,,,,,0.55,0.0,0.0,-0.011441778761763393,-0.31223265476780576,-0.40743844531727397,-2.0304675497107785,-0.09428760872334553,-0.047076661047987696,-40.242759074323864,-0.01771386309398122,0.02221976936344723,-0.04810823328766869,,,,,,,,,,,,,,,,,stabilize,85.0,True,0,False,10.0,0.0,0.0,-10.0,7.9860467562893,0.05587397610997316
1760964191.3820007,2.4264354705810547,0.0,0.0,0.0,0.0,0.0,-40.912100984105365,0.0,0.0,-0.0212495560111296,,,,,,,,,,,0.55,0.0,0.0,0.16396161168714404,0.45827492336787135,0.5841185888796159,-1.7849033429199908,-0.05949323551447524,-0.08377005478307842,-40.83989811067047,-0.017734587061706743,0.019711837275247522,-0.06924009173844439,,,,,,,,,,,,,,,,,stabilize,85.0,True,0,False,10.0,0.0,0.0,-10.0,8.248577060101317,0.07414352575217399
1760964191.4900305,2.5344653129577637,0.0,0.0,0.0,0.0,0.0,-41.440779090665316,0.0,0.0,-0.01641429159097501,,,,,,,,,,,0.55,0.0,0.0,-0.016959719530401818,0.5435000824292153,1.2267538346271274,-2.0778250150225834,-0.07666304547744313,-0.08138880522568857,-41.37073795446109,-0.017643056892737645,0.020212532651733325,-0.0005461866190853842,,,,,,,,,,,,,,,,,stabilize,85.0,True,0,False,10.0,0.0,0.0,-10.0,8.034996814123504,0.026835093674899498
1760964191.59703,2.6414647102355957,0.0,0.0,0.0,0.0,0.0,-41.905601026101344,0.0,0.0,-0.010921710891497906,,,,,,,,,,,0.55,0.0,0.0,-0.019520482378428107,0.16342934970628886,0.47334075556382604,-1.8711604528329449,-0.023001677641444004,-0.05725392426628359,-41.82433395532373,-0.01939848897850756,0.01426503836128047,0.01585576617612955,,,,,,,,,,,,,,,,,stabilize,85.0,True,0,False,10.0,0.0,0.0,-10.0,8.144249075685877,0.02883050494060374
1760964191.7052424,2.7496771812438965,0.0,0.0,0.0,0.0,0.0,-42.322852563160346,0.0,0.0,-0.005994105665410854,,,,,,,,,,,0.55,0.0,0.0,-0.177226171959009,0.15957527650985123,0.4656078232812006,-1.938000041623551,-0.049157534308413214,-0.08650936002864433,-42.243875525738495,-0.02121874881471611,0.01955374097972386,0.07183012516204311,,,,,,,,,,,,,,,,,stabilize,85.0,True,0,False,10.0,0.0,0.0,-10.0,8.077010476830875,0.07740898506219371
1760964191.812297,2.85673189163208,0.0,0.0,0.0,0.0,0.0,-42.68821641584124,0.0,0.0,-0.013143006370540044,,,,,,,,,,,0.55,0.0,0.0,0.013855011915206519,0.15303234016150608,0.4547083158979401,-2.0020882703833056,-0.07326072914570941,-0.1157480401529208,-42.612815370986105,-0.016221372199661157,0.017782580910102687,0.021750085152735854,,,,,,,,,,,,,,,,,stabilize,85.0,True,0,False,10.0,0.0,0.0,-10.0,8.012288723231482,0.032441012684803
1760964191.9196987,2.9641335010528564,0.0,0.0,0.0,0.0,0.0,-43.01317198692461,0.0,0.0,-0.014562757994196485,,,,,,,,,,,0.55,0.0,0.0,-0.01652500657397541,-0.28822492209004585,1.6611456056885026,-1.907479567039555,-0.07684228835922952,-0.13269688097297108,-43.000644983897644,-0.01703711952929159,0.015204913070060432,-0.006796178977985725,,,,,,,,,,,,,,,,,stabilize,85.0,True,0,False,10.0,0.0,0.0,-10.0,8.266278805296512,0.02382521504675831
1760964192.0269678,3.0714025497436523,0.0,0.0,0.0,0.0,0.0,-43.29920741119044,0.0,0.0,-0.012686876692572667,,,,,,,,,,,0.55,0.0,0.0,-0.013862141298429418,0.626872104770374,2.159287017895182,-2.036178714481364,-0.025821718062576042,-0.06778483180388223,-43.30638076678179,-0.020662441706973116,0.016300263715836663,-0.03903236048111755,,,,,,,,,,,,,,,,,stabilize,85.0,True,0,False,10.0,0.0,0.0,-10.0,8.275139789095384,0.047076111343523165
1760964192.134476,3.178910732269287,0.0,0.0,0.0,0.0,0.0,-43.55180608059484,0.0,0.0,-0.012633522492357163,,,,,,,,,,,0.55,0.0,0.0,-0.3,-0.011330538942435499,0.4121804470490829,-2.3359416965636868,-0.08006766096471954,-0.08326497111415912,-43.542154691822816,-0.018378632478635314,0.02162228235290245,0.13026012301970413,,,,,,,,,,,,,,,,,stabilize,85.0,True,0,False,10.0,0.0,0.0,-10.0,7.675142394803721,0.13331540374256023
1760964192.2407937,3.2852284908294678,0.0,0.0,0.0,0.0,0.0,-43.774392436901614,0.0,0.0,-0.015936524530269905,,,,,,,,,,,0.55,0.0,0.0,0.012519106479502998,-0.07055552377001403,-0.2533651373290254,-2.3085008016881474,-0.111426174094253,-0.05233601496327335,-43.77058444089276,-0.022552422877177743,0.032687217986572634,-0.03968840113159471,,,,,,,,,,,,,,,,,stabilize,85.0,True,0,False,10.0,0.0,0.0,-10.0,7.6959945356256645,0.05614476985183158
1760964192.3511105,3.395545244216919,0.0,0.0,0.0,0.0,0.0,-43.97670242272091,0.0,0.0,-0.01943078812233936,,,,,,,,,,,0.55,0.0,0.0,0.2710533370542431,-0.38904463208766177,0.5260292804625011,-2.389408652581317,-0.1535713012152854,-0.06922606650993672,-43.9814504906407,-0.029759323225665733,0.032735867624009964,-0.09868553724908447,,,,,,,,,,,,,,,,,stabilize,85.0,True,0,False,10.0,0.0,0.0,-10.0,7.638662395149052,0.10814846096957086
1760964192.4611516,3.5055863857269287,0.0,0.0,0.0,0.0,0.0,-44.15340837751388,0.0,0.0,-0.024928610396625337,,,,,,,,,,,0.55,0.0,0.0,0.25154600027876156,-0.3926043968197394,0.786834905128061,-1.9087337966734073,-0.08104579487245417,-0.06531879647131415,-44.133568454963026,-0.03282298950106299,0.033652519565040145,-0.09085000939974906,,,,,,,,,,,,,,,,,stabilize,85.0,True,0,False,10.0,0.0,0.0,-10.0,8.138908781490624,0.10229156818035783
1760964192.5683208,3.612755537033081,0.0,0.0,0.0,0.0,0.0,-44.30711336665674,0.0,0.0,-0.02653631928719363,,,,,,,,,,,0.55,0.0,0.0,-0.0036001256657454766,-0.40349031149971,0.7777834728830643,-2.498738155436187,-0.12148665443324053,-0.10125720735517044,-44.28560668691379,-0.028215935277150658,0.03085376312979704,-0.03804700540136491,,,,,,,,,,,,,,,,,stabilize,85.0,True,0,False,10.0,0.0,0.0,-10.0,7.552263291416228,0.05653024255073977
1760964192.6748366,3.719271421432495,0.0,0.0,0.0,0.0,0.0,-44.44048698937724,0.0,0.0,-0.02005977473432897,,,,,,,,,,,0.55,0.0,0.0,0.26496571561310817,-0.41837529483707864,0.7654355421249545,-2.28679327412717,-0.15809021395978332,-0.12970518363965372,-44.41878105491366,-0.02616855406398801,0.031978907509670605,-0.10879491361799239,,,,,,,,,,,,,,,,,stabilize,85.0,True,0,False,10.0,0.0,0.0,-10.0,7.762376404975991,0.11637773402355948
1760964192.7827802,3.8272149562835693,0.0,0.0,0.0,0.0,0.0,-44.55947968200829,0.0,0.0,-0.006557598559284995,,,,,,,,,,,0.55,0.0,0.0,0.1345588342619332,-0.19807978835179874,0.6151606246016155,-2.4172606309064073,-0.15981335880046202,-0.1219631764331146,-44.542953167228106,-0.020213300905516107,0.0372554942597173,-0.05835337418068395,,,,,,,,,,,,,,,,,stabilize,85.0,True,0,False,10.0,0.0,0.0,-10.0,7.610229598127487,0.07212257388851066
1760964192.8881361,3.9325709342956543,0.0,0.0,0.0,0.0,0.0,-44.66276782745598,0.0,0.0,0.015378979861079285,,,,,,,,,,,0.55,0.0,0.0,0.18960303664426348,-0.31029017334937864,-0.9452689948596604,-1.8836321189294214,-0.09097408288621626,-0.0959074931789563,-44.6553874733829,-0.02051378773731638,0.03962102345823877,-0.08329251574565756,,,,,,,,,,,,,,,,,stabilize,85.0,True,0,False,10.0,0.0,0.0,-10.0,8.177116915221054,0.09448959819181471
1760964192.995588,4.040022850036621,0.0,0.0,0.0,0.0,0.0,-44.755043789087104,0.0,0.0,0.044673753761971025,,,,,,,,,,,0.55,0.0,0.0,-0.2936993632696773,-0.21822908876681085,-1.0224846118352025,-1.941119966433393,-0.1609856917713362,-0.03242171179034187,-44.74117822790726,-0.024326710533300794,0.035133395465537315,0.10915694974114432,,,,,,,,,,,,,,,,,stabilize,85.0,True,0,False,10.0,0.0,0.0,-10.0,8.126416560332254,0.11722364948720694
1760964193.1034272,4.147861957550049,0.0,0.0,0.0,0.0,0.0,-44.835574215657196,0.0,0.0,0.06557568863893945,,,,,,,,,,,0.55,0.0,0.0,-0.22715250486187966,0.024153466116815597,-0.8683826071546052,-2.1887641443727848,-0.15061715748157187,-0.036079271828273494,-44.82850630579541,-0.019912072305348073,0.032049297540404593,0.08526812376740339,,,,,,,,,,,,,,,,,stabilize,85.0,True,0,False,10.0,0.0,0.0,-10.0,7.859394209134081,0.09324323582512577
1760964193.2109134,4.255348205566406,0.0,0.0,0.0,0.0,0.0,-44.906628958895396,0.0,0.0,0.08133145074567058,,,,,,,,,,,0.55,0.0,0.0,0.009720839489504998,-0.8034085874224642,-0.42572212729514264,-2.21200755627605,-0.1528919233101157,-0.037283528590894746,-44.84457633793045,-0.015578326686011454,0.03478841250774821,0.03854932987809356,,,,,,,,,,,,,,,,,stabilize,85.0,True,0,False,10.0,0.0,0.0,-10.0,7.8408884057557025,0.05421225637432393
1760964193.319495,4.363929748535156,0.0,0.0,0.0,0.0,0.0,-44.97075644703744,0.0,0.0,0.08412775421861085,,,,,,,,,,,0.55,0.0,0.0,-0.14107958037913157,-0.36935656339892775,-0.41846825184679953,-2.0127517141816584,-0.15278106911293782,-0.017332984057314222,-44.88292056062071,-0.017205486010570478,0.034376094476137445,0.06291720351747253,,,,,,,,,,,,,,,,,stabilize,85.0,True,0,False,10.0,0.0,0.0,-10.0,8.006726867330846,0.07373139845921357
1760964193.429117,4.4735517501831055,0.0,0.0,0.0,0.0,0.0,-45.0266324127353,0.0,0.0,0.07032313977811842,,,,,,,,,,,0.55,0.0,0.0,-0.2031654660200922,-0.3880422617758492,-0.42172739928609776,-2.216497561935124,-0.18963623911512664,-0.04005966831610004,-44.939713642340664,-0.019734341549685192,0.03752748102622449,0.0885859133461678,,,,,,,,,,,,,,,,,stabilize,85.0,True,0,False,10.0,0.0,0.0,-10.0,7.804571801168504,0.0982100815188951
1760964193.538061,4.58249568939209,0.0,0.0,0.0,0.0,0.0,-45.07526780999114,0.0,0.0,0.04431206747657469,,,,,,,,,,,0.55,0.0,0.0,-0.2007440356482772,-0.935701798915145,0.00811216675560833,-2.123187364474184,-0.18914985226768571,-0.04147442376933684,-45.006252409257385,-0.019816501807326335,0.036908637364675985,0.08924305999217436,,,,,,,,,,,,,,,,,stabilize,85.0,True,0,False,10.0,0.0,0.0,-10.0,7.932198998948631,0.09858633278890008
1760964193.6446161,4.689050912857056,0.0,0.0,0.0,0.0,0.0,-45.11687987274349,0.0,0.0,0.011850434952640498,,,,,,,,,,,0.55,0.0,0.0,-0.17534616953209872,-0.9582067373666343,0.002481238642608019,-2.2187628890940783,-0.2293944720727565,-0.06319633703738173,-45.047995676485904,-0.017883123866999532,0.03575146442322297,0.0791774642327082,,,,,,,,,,,,,,,,,stabilize,85.0,True,0,False,10.0,0.0,0.0,-10.0,7.840013857399715,0.08869635939523793
1760964193.7537892,4.798223972320557,0.0,0.0,0.0,0.0,0.0,-45.154500300055744,0.0,0.0,-0.024495156335966307,,,,,,,,,,,0.55,0.0,0.0,0.21331046559433645,0.04913437818054446,0.39895258712818343,-2.1796528519508067,-0.18612647712636443,-0.05058795635697031,-45.145894691170795,-0.011203090734023908,0.03710121739187359,-0.0695974307383736,,,,,,,,,,,,,,,,,stabilize,85.0,True,0,False,10.0,0.0,0.0,-10.0,7.830670908031866,0.07966060468849422
1760964193.86313,4.907564878463745,0.0,0.0,0.0,0.0,0.0,-45.187734541380074,0.0,0.0,-0.05869034674398411,,,,,,,,,,,0.55,0.0,0.0,0.01184541996025046,0.026422898428773677,0.3927295826749547,-2.198567501404204,-0.22652463477113016,-0.06408463904916295,-45.17953304965357,-0.015886854337381212,0.036145571426522555,-0.020438718429839464,,,,,,,,,,,,,,,,,stabilize,85.0,True,0,False,10,0.0,0.0,-10.0,7.811356074640053,0.04445937117797857
1760964193.9730387,5.017473459243774,0.0,0.0,0.0,0.0,0.0,-45.21749601012987,0.0,0.0,-0.07937087415428631,,,,,,,,,,,0.55,0.0,0.0,0.15540906026173784,-0.0006572385542823662,0.3849427604890327,-2.408943170408837,-0.2661604668000355,-0.07745971624436858,-45.208895340051384,-0.012942974639606166,0.03275533469661749,-0.0631197803285021,,,,,,,,,,,,,,,,,stabilize,85.0,True,0,False,10,0.0,0.0,-10.0,7.600810821938543,0.07228097406874981
1760964194.0818741,5.126308917999268,0.0,0.0,0.0,0.0,0.0,-45.24324313810888,0.0,0.0,-0.08603910051142279,,,,,,,,,,,0.55,0.0,0.0,0.3,0.9871314513067483,-0.3190925328965014,-2.085644514989384,-0.10451075704308649,-0.001342460118576999,-45.227495273020146,-0.012792716985260223,0.033386987025884905,-0.1311460970339667,,,,,,,,,,,,,,,,,stabilize,85.0,True,0,False,10,0.0,0.0,-10.0,7.982059338906652,0.13593249529738713
1760964194.1911144,5.235549211502075,0.0,0.0,0.0,0.0,0.0,-45.26496766742683,0.0,0.0,-0.08166614757729798,,,,,,,,,,,0.55,0.0,0.0,-0.1754124632470181,0.9735975054788817,-0.3196606709966209,-2.0417501747511873,-0.1435474857726499,-0.007860531466416316,-45.248292423473984,-0.002699978382341723,0.034873753548895436,0.05956225712286002,,,,,,,,,,,,,,,,,stabilize,85.0,True,0,False,10,0.0,0.0,-10.0,8.02395260007993,0.0690733743451404
1760964194.301077,5.3455116748809814,0.0,0.0,0.0,0.0,0.0,-45.28525758989826,0.0,0.0,-0.07142934645057958,,,,,,,,,,,0.55,0.0,0.0,0.3,0.9495461197789612,-0.12499361265516007,-2.232589681442638,-0.16150758466956885,-0.00924572200240271,-45.28430637153953,-0.00040027795898928885,0.031268615772047044,-0.13509744102043003,,,,,,,,,,,,,,,,,stabilize,85.0,True,0,False,10,0.0,0.0,-10.0,7.826233084544777,0.13866940947812872
1760964194.409131,5.453565835952759,0.0,0.0,0.0,0.0,0.0,-45.30182608141605,0.0,0.0,-0.0472739606276019,,,,,,,,,,,0.55,0.0,0.0,-0.02816751192365508,0.9300381012903801,-0.1258213070784374,-2.3047540107022364,-0.2004338396205097,-0.0066772504403781775,-45.30186981480403,0.0012876826464226334,0.036347805134411194,0.007762728183236745,,,,,,,,,,,,,,,,,stabilize,85.0,True,0,False,10,0.0,0.0,-10.0,7.752265004949847,0.037189797169840076
1760964194.5174937,5.5619285106658936,0.0,0.0,0.0,0.0,0.0,-45.31645632462513,0.0,0.0,-0.019973205534209976,,,,,,,,,,,0.55,0.0,0.0,-0.02998459464672599,-0.3619237694096353,-0.03387722877695014,-2.023783758138495,-0.0570416854330706,0.03662413188477966,-45.4209762605469,-0.006861163492472462,0.03939964799672811,-0.042072222114621693,,,,,,,,,,,,,,,,,stabilize,85.0,True,0,False,10,0.0,0.0,-10.0,7.984495101033537,0.05804721957508887
1760964194.6263702,5.670804977416992,0.0,0.0,0.0,0.0,0.0,-45.329749227436935,0.0,0.0,0.013374598907611546,,,,,,,,,,,0.55,0.0,0.0,-0.23918117432652464,-0.29374259789041673,-0.14157371601046587,-1.9885305263391864,-0.059476163575908826,0.006692420726596768,-45.39912350875959,-0.004773471801001826,0.03855289743581736,0.0904118335577261,,,,,,,,,,,,,,,,,stabilize,85.0,True,0,False,10,0.0,0.0,-10.0,8.018102703151133,0.0984043270440969
1760964194.7345011,5.77893590927124,0.0,0.0,0.0,0.0,0.0,-45.34099723903269,0.0,0.0,0.03608750619703737,,,,,,,,,,,0.55,0.0,0.0,-0.2505318672204725,-0.3023953399745563,-0.1413079471524444,-1.900188949458947,-0.10111799942791226,-0.0014978478766290255,-45.409180402858695,-0.003311376405598701,0.03598044068996382,0.09767053567022678,,,,,,,,,,,,,,,,,stabilize,85.0,True,0,False,10,0.0,0.0,-10.0,8.106685508395755,0.10413976600728753
1760964194.8372705,5.881705284118652,0.0,0.0,0.0,0.0,0.0,-45.350031789287755,0.0,0.0,0.051807464897007285,,,,,,,,,,,0.55,0.0,0.0,-0.1883218481657162,-0.31470870533681633,-0.14183338146484686,-2.2795425935776854,-0.1414343047129384,-0.007897115253671143,-45.416639406597604,-0.004837149791073159,0.039857768756123006,0.07498553653683973,,,,,,,,,,,,,,,,,stabilize,85.0,True,0,False,10,0.0,0.0,-10.0,7.7281706012285785,0.08505804158358915
1760964194.943451,5.9878857135772705,0.0,0.0,0.0,0.0,0.0,-45.35860268308982,0.0,0.0,0.0630063286303304,,,,,,,,,,,0.55,0.0,0.0,-0.21943397530041625,-0.33209735810331825,-0.14313047262884446,-2.394637336131767,-0.18261377617029703,-0.015059144770482508,-45.42507581761715,-0.004794503019039625,0.03666775151498119,0.08903269191309851,,,,,,,,,,,,,,,,,stabilize,85.0,True,0,False,10,0.0,0.0,-10.0,7.6139553608105075,0.09640711327312265
1760964195.0521111,6.096545934677124,0.0,0.0,0.0,0.0,0.0,-45.367025845325976,0.0,0.0,0.061278002967141074,,,,,,,,,,,0.55,0.0,0.0,0.022362018798667317,0.5722588319740404,0.06210803640254707,-2.4438994132709766,-0.12178877642089696,-0.035968473074156536,-45.38345187972543,-0.005533448223417226,0.030923190950796244,0.0210211351154274,,,,,,,,,,,,,,,,,stabilize,85.0,True,0,False,10,0.0,0.0,-10.0,7.577994039039933,0.03779882153403332
1760964195.161772,6.206206798553467,0.0,0.0,0.0,0.0,0.0,-45.37391963121168,0.0,0.0,0.048521534399380895,,,,,,,,,,,0.55,0.0,0.0,0.3,0.557125381894707,0.05790889957825242,-2.259381877714673,-0.1549194500971483,-0.04165566585220248,-45.38989532383754,-0.00038189535759960676,0.032644171298698614,-0.1253054245095056,,,,,,,,,,,,,,,,,stabilize,85.0,True,0,False,10,0.0,0.0,-10.0,7.760857623153108,0.12948836694989377
1760964195.2715337,6.3159685134887695,0.0,0.0,0.0,0.0,0.0,-45.380409831183066,0.0,0.0,0.03616610801264134,,,,,,,,,,,0.55,0.0,0.0,-0.3,0.5380316007415515,0.05338871287258038,-2.237133871823082,-0.1929843878014111,-0.041128252523939306,-45.3956034027344,0.000850804457339344,0.033012020601849185,0.12651822674398755,,,,,,,,,,,,,,,,,stabilize,85.0,True,0,False,10,0.0,0.0,-10.0,7.781671984994947,0.13075694654925446
1760964195.3733857,6.417820453643799,0.0,0.0,0.0,0.0,0.0,-45.38464468815524,0.0,0.0,0.016126278782511782,,,,,,,,,,,0.55,0.0,0.0,-0.13005279730886313,0.5167037415719772,0.049228275446620846,-2.3171586740166967,-0.22864391021691377,-0.04103966883334822,-45.40063314539996,-0.000381025426527466,0.0376158531433331,0.0594937106626702,,,,,,,,,,,,,,,,,stabilize,85.0,True,0,False,10,0.0,0.0,-10.0,7.700354343788006,0.07038891387491343
1760964195.482406,6.526840686798096,0.0,0.0,0.0,0.0,0.0,-45.388660752162856,0.0,0.0,-0.006163911793378371,,,,,,,,,,,0.55,0.0,0.0,0.02264906934091829,0.3332509093704096,0.1903319287368453,-2.4868067137180354,-0.1733488572726277,0.01069025219423951,-45.4066544618161,-0.0015348426412432746,0.03573108700448893,-0.022668186394292834,,,,,,,,,,,,,,,,,stabilize,85.0,True,0,False,10,0.0,0.0,-10.0,7.522988486547436,0.042342803342033684
1760964195.5917633,6.636198043823242,0.0,0.0,0.0,0.0,0.0,-45.39240282082017,0.0,0.0,-0.02336018451238569,,,,,,,,,,,0.55,0.0,0.0,0.006380789930062076,-0.10463777094476168,1.041681985579068,-2.1744310720594737,-0.13614537447753605,0.008989040351946666,-45.412062972214216,-0.0004918025298464391,0.034495925701135854,-0.009033297504116335,,,,,,,,,,,,,,,,,stabilize,85.0,True,0,False,10,0.0,0.0,-10.0,7.89528843476516,0.03566246238700467
1760964195.6977034,6.742138147354126,0.0,0.0,0.0,0.0,0.0,-45.39610679797281,0.0,0.0,-0.03325844623173307,,,,,,,,,,,0.55,0.0,0.0,-0.012393295042771042,-0.07083118018188311,1.3449853783078864,-2.433437308462801,-0.2156550223985277,-0.004568249991347457,-45.38863509531718,-0.0011799251215738197,0.03613694899820807,-0.01929827318862129,,,,,,,,,,,,,,,,,stabilize,85.0,True,0,False,10,0.0,0.0,-10.0,7.6854976214237825,0.04098407805787842
1760964195.8056588,6.850093603134155,0.0,0.0,0.0,0.0,0.0,-45.39884401778306,0.0,0.0,-0.03948858665348874,,,,,,,,,,,0.55,0.0,0.0,-0.012476026162686697,0.9795150109317613,2.2500911393178074,-2.4683440000812458,-0.15821253875004315,-0.0329346073666066,-45.38503975421054,-0.0028756726159713435,0.033686076759176384,0.01715484651038446,,,,,,,,,,,,,,,,,stabilize,85.0,True,0,False,10,0.0,0.0,-10.0,7.921376262556231,0.03791187174506451
1760964195.9081388,6.952573537826538,0.0,0.0,0.0,0.0,0.0,-45.40176498881488,0.0,0.0,-0.04063450564554868,,,,,,,,,,,0.55,0.0,0.0,0.21283699409305296,1.0464736938019452,1.650682883622285,-2.403486337163613,-0.12499872619737668,0.0068382925850096355,-45.37148956040155,-0.0012983338189850406,0.033512796168808395,-0.0881266323016722,,,,,,,,,,,,,,,,,stabilize,85.0,True,0,False,10,0.0,0.0,-10.0,7.843907253643618,0.09429261104981532
1760964196.0128238,7.057258605957031,0.0,0.0,0.0,0.0,0.0,-45.40435096432617,0.0,0.0,-0.03236615442276974,,,,,,,,,,,0.55,0.0,0.0,0.3,1.031388207908454,1.6513856100294362,-2.3779735237224826,-0.16220043235536655,0.005527082715006069,-45.37298344131066,-0.007667738233700589,0.03882555050862281,-0.1241452592386687,,,,,,,,,,,,,,,,,stabilize,85.0,True,0,False,10,0.0,0.0,-10.0,7.866773396602978,0.13030066374871016
1760964196.1187844,7.163219213485718,0.0,0.0,0.0,0.0,0.0,-45.40624967884507,0.0,0.0,-0.016801592789344295,,,,,,,,,,,0.55,0.0,0.0,-0.025767957061000844,0.24951105899052303,1.5250889633657128,-2.0620537675073725,-0.1751596238675219,-0.024324414737552986,-45.398296017089365,-0.002272670341643277,0.0477281686964574,-0.03591381132809768,,,,,,,,,,,,,,,,,stabilize,85.0,True,0,False,10,0.0,0.0,-10.0,8.086973630764625,0.059774116151637725
1760964196.226352,7.270786762237549,0.0,0.0,0.0,0.0,0.0,-45.40786267611524,0.0,0.0,0.005593901285021562,,,,,,,,,,,0.55,0.0,0.0,-0.022460182504715938,0.9049848712116265,-0.5353346468002487,-1.9660397926900472,-0.14821177405156494,-0.010658137043148542,-45.40620390980523,-0.002416300311394854,0.04542071884203702,0.010579639672856883,,,,,,,,,,,,,,,,,stabilize,85.0,True,0,False,10,0.0,0.0,-10.0,8.10247477094662,0.04669913257149121
1760964196.33411,7.378544807434082,0.0,0.0,0.0,0.0,0.0,-45.409160605921365,0.0,0.0,0.022124632988879542,,,,,,,,,,,0.55,0.0,0.0,-0.014270556881757263,1.789741843292158,-0.4826097021134037,-2.4451822463670174,-0.10241614830498719,0.0406324643970305,-45.40453149710096,0.0007514910110471781,0.04307034081680745,-0.027993405994332123,,,,,,,,,,,,,,,,,stabilize,85.0,True,0,False,10,0.0,0.0,-10.0,7.778904761006713,0.05137362918832135
1760964196.4410548,7.4854896068573,0.0,0.0,0.0,0.0,0.0,-45.410909388908706,0.0,0.0,0.035540127005013925,,,,,,,,,,,0.55,0.0,0.0,0.00013876699737598846,1.6115856607929109,-0.3590327843845789,-2.1625906712026146,-0.10208313437970123,0.01091342404612532,-45.398571111122884,-0.0019479845954499507,0.03912837973996904,0.03791065972149872,,,,,,,,,,,,,,,,,stabilize,85.0,True,0,False,10,0.0,0.0,-10.0,8.009438049542336,0.054516445826728245
1760964196.547303,7.591737747192383,0.0,0.0,0.0,0.0,0.0,-45.41191435640941,0.0,0.0,0.04207116791447201,,,,,,,,,,,0.55,0.0,0.0,-0.14475394547291046,1.5985115697977739,-0.3579546114903882,-2.3478067403217047,-0.1427133792540151,0.009169010163222422,-45.39882209742143,-0.0026825173759877125,0.035780388008964305,0.05638381687523081,,,,,,,,,,,,,,,,,stabilize,85.0,True,0,False,10,0.0,0.0,-10.0,7.825562754596663,0.06683237891145336
1760964196.6544528,7.698887586593628,0.0,0.0,0.0,0.0,0.0,-45.41274450770353,0.0,0.0,0.046438934363295326,,,,,,,,,,,0.55,0.0,0.0,-0.3,1.2132395527356528,-0.8880324093399751,-2.4078631893890403,-0.1603745527414157,-0.04119294199793192,-45.4279925595666,-0.0021552839155524906,0.031904796924480436,0.14010253189239955,,,,,,,,,,,,,,,,,stabilize,85.0,True,0,False,10,0.0,0.0,-10.0,7.739579647719527,0.14370553489065688
1760964196.7590766,7.803511381149292,0.0,0.0,0.0,0.0,0.0,-45.413598224200456,0.0,0.0,0.04468517934985426,,,,,,,,,,,0.55,0.0,0.0,0.016643937454971985,0.0354341575029242,-1.7930926157954343,-2.19052462683955,-0.0665962527247029,-0.04048692407270328,-45.409145701869654,-0.0021965684462981246,0.02381305169694663,0.004893794495177975,,,,,,,,,,,,,,,,,stabilize,85.0,True,0,False,10,0.0,0.0,-10.0,8.01276121648072,0.024409743313311583
1760964196.8684905,7.9129252433776855,0.0,0.0,0.0,0.0,0.0,-45.41476408865832,0.0,0.0,0.03311177786512254,,,,,,,,,,,0.55,0.0,0.0,-0.2036459683100783,-0.22130848970687772,-1.4484345009609154,-2.335683532546659,-0.06341894903767069,-0.010283885520571358,-45.39585017696141,-0.001800082094557814,0.025724222872934698,0.08638475249805745,,,,,,,,,,,,,,,,,stabilize,85.0,True,0,False,10,0.0,0.0,-10.0,7.803120328718935,0.09015154686478877
1760964196.9776998,8.02213454246521,0.0,0.0,0.0,0.0,0.0,-45.41559691501679,0.0,0.0,0.012179279261810857,,,,,,,,,,,0.55,0.0,0.0,0.023056345580874053,-0.22969300302909723,-1.4498089309704265,-2.2882538353922297,-0.0881832774628367,-0.014485586370717105,-45.39554319378835,-0.0033841214303573478,0.018570386082636912,-0.006294932560421455,,,,,,,,,,,,,,,,,stabilize,85.0,True,0,False,10,0.0,0.0,-10.0,7.850205966680416,0.019898183159621705
1760964197.0855494,8.129984140396118,0.0,0.0,0.0,0.0,0.0,-45.41641768732398,0.0,0.0,-0.011645369505859794,,,,,,,,,,,0.55,0.0,0.0,-0.23681096292149967,-0.19197157788416433,-0.16429078044672352,-2.284151506882255,-0.05828293070169721,0.02352277867325717,-45.39011421645072,-0.006185878962093042,0.021389118437614384,0.10080445174352642,,,,,,,,,,,,,,,,,stabilize,85.0,True,0,False,10,0.0,0.0,-10.0,7.719984618896757,0.10323418511997326
1760964197.1935008,8.237935543060303,0.0,0.0,0.0,0.0,0.0,-45.416771600035744,0.0,0.0,-0.037826790019392126,,,,,,,,,,,0.55,0.0,0.0,0.00538912863584296,-0.19947773544841932,-0.1621793529203482,-1.9306797743416568,-0.0804311762852814,0.015101405245463209,-45.3908431011431,-0.007672606232993216,0.02115037293047752,-0.013009581176262788,,,,,,,,,,,,,,,,,stabilize,85.0,True,0,False,10,0.0,0.0,-10.0,8.073414544891902,0.02598954335663891
1760964197.3002677,8.34470248222351,0.0,0.0,0.0,0.0,0.0,-45.41732272198948,0.0,0.0,-0.06042371141552803,,,,,,,,,,,0.55,0.0,0.0,0.19970041487468124,-0.17138247920281546,-0.39641564659285816,-2.017482686367807,-0.03251129589033732,0.06131953243106521,-45.41760468275146,-0.006327049962802934,0.026378121321962374,-0.07883653674485026,,,,,,,,,,,,,,,,,stabilize,85.0,True,0,False,10,0.0,0.0,-10.0,7.9941916402772755,0.08337287551494249
1760964197.410871,8.455305814743042,0.0,0.0,0.0,0.0,0.0,-45.41815464321219,0.0,0.0,-0.07461035329096978,,,,,,,,,,,0.55,0.0,0.0,0.3,-0.17671497601858516,-0.3900933402729594,-2.256932317157101,-0.06370863411735664,0.05321813405017788,-45.41640240673241,-0.006828536052964395,0.025929779460165437,-0.12959370235081014,,,,,,,,,,,,,,,,,stabilize,85.0,True,0,False,10,0.0,0.0,-10.0,7.754901555658889,0.1323386189155298
1760964197.5191584,8.56359314918518,0.0,0.0,0.0,0.0,0.0,-45.41887383238551,0.0,0.0,-0.07179207703052747,,,,,,,,,,,0.55,0.0,0.0,-0.022016301410383146,-0.17256444593559433,-0.1424943436805142,-2.3661074017062464,-0.016770389064082077,0.008441165822470075,-45.41667202168362,-0.007725720316784787,0.02166876178876263,0.005609798321354699,,,,,,,,,,,,,,,,,stabilize,85.0,True,0,False,10,0.0,0.0,-10.0,7.6371722075822115,0.023678932177731215
1760964197.625122,8.669556856155396,0.0,0.0,0.0,0.0,0.0,-45.41904005267896,0.0,0.0,-0.06146494233034776,,,,,,,,,,,0.55,0.0,0.0,0.11186451504665539,-0.17562249820336048,-0.14188915162411664,-2.3066575967156826,-0.04149143868305724,0.003737740437334962,-45.41674123460021,-0.0018183749823596864,0.024862612586905527,-0.05292708570557993,,,,,,,,,,,,,,,,,stabilize,85.0,True,0,False,10,0.0,0.0,-10.0,7.696654671179961,0.05850412287616
1760964197.734821,8.779255867004395,0.0,0.0,0.0,0.0,0.0,-45.418755960870946,0.0,0.0,-0.04702491724440969,,,,,,,,,,,0.55,0.0,0.0,0.12277262354795032,-0.8453777790169394,-1.1103071110825586,-1.765102877906742,-0.020868338238009203,-0.03041524380338846,-45.40950089944875,-0.0050640341492408664,0.017808237877549322,-0.05730961264301693,,,,,,,,,,,,,,,,,stabilize,85.0,True,0,False,10,0.0,0.0,-10.0,8.35230363921451,0.06022598674542996
1760964197.844076,8.888510704040527,0.0,0.0,0.0,0.0,0.0,-45.4194130126041,0.0,0.0,-0.022527749032158366,,,,,,,,,,,0.55,0.0,0.0,-0.03147433974390387,-0.8486882813737836,-1.1138567822432968,-2.3547137523886246,-0.04070245245795094,-0.03502880465000395,-45.40952190550115,-0.005687245796416793,0.01750624079373151,-0.005325559395689298,,,,,,,,,,,,,,,,,stabilize,85.0,True,0,False,10,0.0,0.0,-10.0,7.772473900773563,0.019161806134965053
1760964197.9448535,8.989288330078125,0.0,0.0,0.0,0.0,0.0,-45.419686623660596,0.0,0.0,0.007828971586641174,,,,,,,,,,,0.55,0.0,0.0,-0.3,-0.8537274303198035,-1.1176879684333179,-2.0776233410124383,-0.059729534211235606,-0.0395900403817547,-45.40709693738337,-0.003507508777329121,0.021375783890802427,0.16686017357766494,,,,,,,,,,,,,,,,,stabilize,85.0,True,0,False,10,0.0,0.0,-10.0,8.046249365196928,0.16826034672832993
1760964198.0541637,9.09859848022461,0.0,0.0,0.0,0.0,0.0,-45.419979793092836,0.0,0.0,0.03677160851503472,,,,,,,,,,,0.55,0.0,0.0,-0.002281912107298405,-0.8616024442490053,-1.1223176939742787,-2.1547667884022315,-0.08479243136283339,-0.044705239958197716,-45.40706396324673,-0.005236456964003656,0.026156078171637228,0.008148485359411498,,,,,,,,,,,,,,,,,stabilize,85.0,True,0,False,10,0.0,0.0,-10.0,7.971802802534709,0.027891911381423887
1760964198.1621225,9.206557273864746,0.0,0.0,0.0,0.0,0.0,-45.42119960933846,0.0,0.0,0.05657212546973781,,,,,,,,,,,0.55,0.0,0.0,-0.3,-0.8723565528450047,-1.1275987943935997,-2.270056715062163,-0.11495348964499996,-0.05380184562622143,-45.40607017283419,-0.006549671607133765,0.02879140768538869,0.15248561119714246,,,,,,,,,,,,,,,,,stabilize,85.0,True,0,False,10,0.0,0.0,-10.0,7.860312219292888,0.15531807678706833
1760964198.2707014,9.315136194229126,0.0,0.0,0.0,0.0,0.0,-45.42131431825303,0.0,0.0,0.06259686285169906,,,,,,,,,,,0.55,0.0,0.0,-0.16963588123327303,-1.9048441558272171,-0.9996258416621666,-2.289255513137118,-0.021033006434442163,-0.08371105731455981,-45.42989714505235,-0.0064815949137509215,0.026811526137379717,0.07127193397444594,,,,,,,,,,,,,,,,,stabilize,85.0,True,0,False,10,0.0,0.0,-10.0,8.005202284951595,0.07642354073778013
1760964198.3729036,9.417338371276855,0.0,0.0,0.0,0.0,0.0,-45.42151861229273,0.0,0.0,0.06062379027626047,,,,,,,,,,,0.55,0.0,0.0,-0.3,-2.729797684841326,-1.4175791908309712,-2.4470492136723188,-0.03150911766575513,-0.07968414306792333,-45.423708397753025,-0.008216206301918714,0.030179054683286737,0.12720575890050365,,,,,,,,,,,,,,,,,stabilize,85.0,True,0,False,10,0.0,0.0,-10.0,8.155267729702686,0.13099460479357752
1760964198.4836614,9.528096199035645,0.0,0.0,0.0,0.0,0.0,-45.420702733026815,0.0,0.0,0.050360317868632556,,,,,,,,,,,0.55,0.0,0.0,0.020854341960767492,-2.543163552065661,-0.6887394538952673,-2.295808433304228,-0.06593274216834528,-0.08772003426307111,-45.43653294832916,-0.013766750076277126,0.03171538264400963,0.04191794243171306,,,,,,,,,,,,,,,,,stabilize,85.0,True,0,False,10,0.0,0.0,-10.0,8.142273060040017,0.0543369377277284
1760964198.5895886,9.634023427963257,0.0,0.0,0.0,0.0,0.0,-45.420511565329875,0.0,0.0,0.037792741470882345,,,,,,,,,,,0.55,0.0,0.0,0.021459897021288046,-1.1886192835525389,0.6026790178074891,-1.9509590070495666,-0.010699210100022626,-0.13666885428257672,-45.442108428774,-0.017229849676641765,0.03492148426766267,-0.024688563742082927,,,,,,,,,,,,,,,,,stabilize,85.0,True,0,False,10,0.0,0.0,-10.0,8.15862112773567,0.04610751525492537
1760964198.6980317,9.742466449737549,0.0,0.0,0.0,0.0,0.0,-45.42039861917056,0.0,0.0,0.026662207483378223,,,,,,,,,,,0.55,0.0,0.0,0.17461981414933114,-0.6637023973883867,-0.44721093424042596,-2.2904452961623263,-0.0366804922948446,-0.12542287485322717,-45.40440684847766,-0.018038751918744503,0.03046500347108698,-0.05972961522893077,,,,,,,,,,,,,,,,,stabilize,85.0,True,0,False,10,0.0,0.0,-10.0,7.750982661796431,0.06943442908727247
1760964198.8074145,9.85184931755066,0.0,0.0,0.0,0.0,0.0,-45.42071520191139,0.0,0.0,0.015117669924579252,,,,,,,,,,,0.55,0.0,0.0,0.021031814399081257,-1.9614056075283406,0.008431649585884049,-2.146421425459124,-0.04292754787152013,-0.1248161593071176,-45.39987132093825,-0.01641309769035666,0.029838850794467724,0.0047816008660989395,,,,,,,,,,,,,,,,,stabilize,85.0,True,0,False,10,0.0,0.0,-10.0,8.094805709616868,0.03438910436999452
1760964198.9172184,9.961653232574463,0.0,0.0,0.0,0.0,0.0,-45.420812811768755,0.0,0.0,-0.005992379265406,,,,,,,,,,,0.55,0.0,0.0,-0.21484182627824983,-1.059288939397459,0.38443683634637,-2.302213335692949,-0.061424935967049295,-0.1587828112439379,-45.415876232998286,-0.015698567261486756,0.031621383174575746,0.09195231967925911,,,,,,,,,,,,,,,,,stabilize,85.0,True,0,False,10,0.0,0.0,-10.0,7.779833177353694,0.09849662929427296
1760964199.0172858,10.061720609664917,0.0,0.0,0.0,0.0,0.0,-45.420564705465196,0.0,0.0,-0.026137153610994925,,,,,,,,,,,0.55,0.0,0.0,0.005913985304782852,-1.0670479588664001,0.36787784035539084,-2.1786340696726207,-0.09351442559304979,-0.17252468046060887,-45.41444510394247,-0.017721075377376903,0.032374217637492785,-0.022993349416315464,,,,,,,,,,,,,,,,,stabilize,85.0,True,0,False,10,0.0,0.0,-10.0,7.902385112611975,0.04348356698284075
1760964199.1248055,10.169240236282349,0.0,0.0,0.0,0.0,0.0,-45.42102586958919,0.0,0.0,-0.04284673913408157,,,,,,,,,,,0.55,0.0,0.0,0.3,-1.1734237756055834,-0.06269199095570822,-2.339011414754085,-0.07007564909492123,-0.15291293066847608,-45.37117886353674,-0.018502736504858217,0.028385516739250903,-0.15043827033093304,,,,,,,,,,,,,,,,,stabilize,85.0,True,0,False,10,0.0,0.0,-10.0,7.750587058162411,0.15420688051732775
1760964199.2346473,10.27908205986023,0.0,0.0,0.0,0.0,0.0,-45.42078719153034,0.0,0.0,-0.05319591766234368,,,,,,,,,,,0.55,0.0,0.0,0.20920993512168548,-1.1826125399187422,-0.08040006977439369,-2.043752845830238,-0.09944306478908162,-0.1715128712123924,-45.370161385481886,-0.015245334719359993,0.027026836068020345,-0.08518396903526515,,,,,,,,,,,,,,,,,stabilize,85.0,True,0,False,10,0.0,0.0,-10.0,8.04406025394062,0.09065968607464941
1760964199.3426514,10.387086153030396,0.0,0.0,0.0,0.0,0.0,-45.42169925046943,0.0,0.0,-0.049330454596550964,,,,,,,,,,,0.55,0.0,0.0,0.167266368040507,-0.24950483265748996,-0.3477490187074549,-2.0599308222042025,-0.030932570160709574,-0.11754641325624807,-45.38108713274185,-0.020654556550283157,0.03372569765574942,-0.0731971717002379,,,,,,,,,,,,,,,,,stabilize,85.0,True,0,False,10,0.0,0.0,-10.0,7.951596103281043,0.08319771230971423
1760964199.4508758,10.495310544967651,0.0,0.0,0.0,0.0,0.0,-45.4219623581671,0.0,0.0,-0.0269051923606924,,,,,,,,,,,0.55,0.0,0.0,-0.028926226112324226,-0.25506010794752104,-0.3615043108101465,-2.2505500192197934,-0.070149615118808,-0.13594360345100678,-45.37832636553543,-0.019412111424953853,0.03194334754729039,-0.00703323271541893,,,,,,,,,,,,,,,,,stabilize,85.0,True,0,False,10,0.0,0.0,-10.0,7.762069055993696,0.03803516642439002
1760964199.5585449,10.60297966003418,0.0,0.0,0.0,0.0,0.0,-45.42171413673089,0.0,0.0,0.003524654836730735,,,,,,,,,,,0.55,0.0,0.0,-0.0316138420667285,0.10214917372938705,-1.049904668553455,-2.380305644244134,-0.11082604672752815,-0.03293397684951096,-45.389713322276926,-0.023578044410203936,0.030615124828233992,-0.03804217745381437,,,,,,,,,,,,,,,,,stabilize,85.0,True,0,False,10,0.0,0.0,-10.0,7.692364808164116,0.05422561490555364
1760964199.6687315,10.713166236877441,0.0,0.0,0.0,0.0,0.0,-45.421372821448834,0.0,0.0,0.036617577783072536,,,,,,,,,,,0.55,0.0,0.0,-0.02946071308000246,0.8483483155670791,-0.9918731809577652,-2.443420349348441,-0.1703622000512301,-0.015903085595981328,-45.38375576214219,-0.01873029526707605,0.030831902229454082,0.04250731298373167,,,,,,,,,,,,,,,,,stabilize,85.0,True,0,False,10,0.0,0.0,-10.0,7.668468118749011,0.0557521462633986
1760964199.77691,10.82134485244751,0.0,0.0,0.0,0.0,0.0,-45.421555365594216,0.0,0.0,0.06526712282165799,,,,,,,,,,,0.55,0.0,0.0,-0.2161678784002899,0.6208504074464248,-1.3058847136872447,-2.2987144475851657,-0.09746287025961792,-0.013070748822684036,-45.3851245143402,-0.02163800979116802,0.029731412482249923,0.08030732586280553,,,,,,,,,,,,,,,,,stabilize,85.0,True,0,False,10,0.0,0.0,-10.0,7.83585281087527,0.08832568676861338
1760964199.8854508,10.929885625839233,0.0,0.0,0.0,0.0,0.0,-45.422128470499324,0.0,0.0,0.07959649052347341,,,,,,,,,,,0.55,0.0,0.0,0.013277222036387632,0.13411976953482813,-1.2195555805646225,-1.8062381528691165,-0.09161826901945307,-0.032362462906289455,-45.39339374330133,-0.01917993805479329,0.027572666705069842,0.04233072579463232,,,,,,,,,,,,,,,,,stabilize,85.0,True,0,False,10,0.0,0.0,-10.0,8.285109361629699,0.05403713833388038
1760964199.9875417,11.031976461410522,0.0,0.0,0.0,0.0,0.0,-45.42236099472936,0.0,0.0,0.08212713379666438,,,,,,,,,,,0.55,0.0,0.0,-0.16823835893208522,-0.04680473483557009,-1.727622829371751,-2.2396937645488357,-0.08738627879009178,-0.010376023582897884,-45.40534177650241,-0.017963755037345694,0.029904802539411066,0.07192081674976177,,,,,,,,,,,,,,,,,stabilize,85.0,True,0,False,10,0.0,0.0,-10.0,7.950422893893865,0.0799349585095016
1760964200.0975041,11.141938924789429,0.0,0.0,0.0,0.0,0.0,-45.423479089767326,0.0,0.0,0.06867080146849977,,,,,,,,,,,0.55,0.0,0.0,-0.3,0.24439786427781537,-0.6273456788088019,-2.2439224444615413,-0.10126251486007375,0.03686779103368281,-45.40125127788186,-0.019142437641243692,0.030802306147760212,0.2451384578553855,,,,,,,,,,,,,,,,,stabilize,85.0,True,0,False,10,0.0,0.0,-10.0,7.78524450253883,0.24780653442269407
1760964200.2039824,11.248417139053345,0.0,0.0,0.0,0.0,0.0,-45.42293771605485,0.0,0.0,0.04036227034380727,,,,,,,,,,,0.55,0.0,0.0,0.0331157112936029,0.23182342046396345,-0.6245396489457903,-2.091091726878329,-0.13460457730555825,0.016865770559800125,-45.399436619737266,-0.019025731430519173,0.03251569215430459,-0.04121696101432992,,,,,,,,,,,,,,,,,stabilize,85.0,True,0,False,10,0.0,0.0,-10.0,7.93691514028173,0.05583982958423622
1760964200.3124557,11.356890439987183,0.0,0.0,0.0,0.0,0.0,-45.423136484194984,0.0,0.0,0.0037911192847038177,,,,,,,,,,,0.55,0.0,0.0,0.029213784670784945,0.21915650298814762,0.08757535883741165,-2.0266891066919612,-0.10151030977306767,-0.021369134716617066,-45.4370441669385,-0.015009235004283543,0.033043946310116645,0.001313049814821346,,,,,,,,,,,,,,,,,stabilize,85.0,True,0,False,10,0.0,0.0,-10.0,7.976802969713,0.03631671272260038
1760964200.4220703,11.46650505065918,0.0,0.0,0.0,0.0,0.0,-45.42322721790295,0.0,0.0,-0.03205464088735759,,,,,,,,,,,0.55,0.0,0.0,-0.2580746751123302,0.08941239720594274,-0.30130911839497965,-2.4030555718608007,-0.11755537446737388,0.029351477252496684,-45.43521407648261,-0.012604833519499217,0.036082934802219184,0.10430407411775738,,,,,,,,,,,,,,,,,stabilize,85.0,True,0,False,10,0.0,0.0,-10.0,7.603443062576145,0.11108645232231569
1760964200.5315502,11.575984954833984,0.0,0.0,0.0,0.0,0.0,-45.423053437852055,0.0,0.0,-0.0656506012300667,,,,,,,,,,,0.55,0.0,0.0,-0.0005729710991997754,0.07426203542353,-0.2989225780654971,-2.3340316092270355,-0.15800246818957217,0.014459083925145022,-45.434559972371645,-0.01678509594159228,0.03143015882699359,0.010884769779988056,,,,,,,,,,,,,,,,,stabilize,85.0,True,0,False,10,0.0,0.0,-10.0,7.672153604165704,0.03725684558335343
1760964200.6385438,11.682978630065918,0.0,0.0,0.0,0.0,0.0,-45.42374799134726,0.0,0.0,-0.08602500601009506,,,,,,,,,,,0.55,0.0,0.0,0.3,0.610094774030018,-0.6790379912235911,-2.2421566764163057,-0.07247839953600049,-0.028589288617150647,-45.42584546861222,-0.018969625787972153,0.02649886371024322,-0.12382173228703594,,,,,,,,,,,,,,,,,stabilize,85.0,True,0,False,10,0.0,0.0,-10.0,7.8113661583679335,0.1280385015026033
1760964200.7455778,11.79001259803772,0.0,0.0,0.0,0.0,0.0,-45.424399933067676,0.0,0.0,-0.08905919743130385,,,,,,,,,,,0.55,0.0,0.0,0.11724033963774595,0.5777798428223669,-0.2523792099259903,-2.434685974201164,-0.10715282151108173,0.004103890334465135,-45.42254615728534,-0.01264554410815655,0.029638864567113163,-0.05410623385008214,,,,,,,,,,,,,,,,,stabilize,85.0,True,0,False,10,0.0,0.0,-10.0,7.591541419324754,0.06297504759870201
1760964200.85273,11.897164821624756,0.0,0.0,0.0,0.0,0.0,-45.42429493524141,0.0,0.0,-0.07617610662646185,,,,,,,,,,,0.55,0.0,0.0,0.1343669920283381,0.5646248784241781,-0.2525054732047023,-2.1860105390512765,-0.1394110057115428,-0.00750231386598185,-45.42217828135633,-0.015865258853569503,0.03326973963448768,-0.06248500473992547,,,,,,,,,,,,,,,,,stabilize,85.0,True,0,False,10,0.0,0.0,-10.0,7.838430427269963,0.07254624615502772
1760964200.9615757,12.00601053237915,0.0,0.0,0.0,0.0,0.0,-45.42474290477265,0.0,0.0,-0.05015767598560721,,,,,,,,,,,0.55,0.0,0.0,0.2530651781572461,0.4889821209346082,-0.08620686714336799,-2.1785583364796617,-0.09397668026038457,-0.053120956206598756,-45.44345349935106,-0.014091659008813796,0.03819919933276823,-0.11013835074089717,,,,,,,,,,,,,,,,,stabilize,85.0,True,0,False,10,0.0,0.0,-10.0,7.837186027802847,0.11742320889504819
1760964201.0685494,12.11298418045044,0.0,0.0,0.0,0.0,0.0,-45.42363043414456,0.0,0.0,-0.020188153257221144,,,,,,,,,,,0.55,0.0,0.0,-0.030273014037095754,0.8442696863266717,1.107636147410838,-1.9098590548754313,-0.0670720499897342,-0.04741676143943606,-45.44283177010808,-0.009455009367852615,0.03276384781569095,0.01399657930199496,,,,,,,,,,,,,,,,,stabilize,85.0,True,0,False,10,0.0,0.0,-10.0,8.209143052126837,0.036861513235256244
1760964201.1777039,12.22213864326477,0.0,0.0,0.0,0.0,0.0,-45.42322506384313,0.0,0.0,0.01234934231571702,,,,,,,,,,,0.55,0.0,0.0,-0.03208801006929601,-0.20218729786477316,0.327830844113345,-1.986711840147806,-0.02311520949095072,-0.04968133445629933,-45.46752268135116,-0.0091825514648565,0.025963197975519343,-0.035289148939033815,,,,,,,,,,,,,,,,,stabilize,85.0,True,0,False,10,0.0,0.0,-10.0,8.022539491868974,0.04476305321760415
1760964201.28432,12.328754901885986,0.0,0.0,0.0,0.0,0.0,-45.42286037848765,0.0,0.0,0.05016903442717392,,,,,,,,,,,0.55,0.0,0.0,-0.19031735848667947,0.29732456764121745,0.40335507806259385,-2.134913251241738,-0.0430925334625772,-0.04232418815429472,-45.47558367391518,-0.009256702264170661,0.02705588718101013,0.0618017685945282,,,,,,,,,,,,,,,,,stabilize,85.0,True,0,False,10,0.0,0.0,-10.0,7.881033357562619,0.06809674125368013
1760964201.3915238,12.435958623886108,0.0,0.0,0.0,0.0,0.0,-45.42383119404867,0.0,0.0,0.0773478928061877,,,,,,,,,,,0.55,0.0,0.0,-0.3,-0.0767117367041765,0.10705249492936986,-2.146485225912993,-0.02569455301867757,-0.01288252550880806,-45.4921858822766,-0.015980116088059194,0.026184210655899168,0.15193685270579071,,,,,,,,,,,,,,,,,stabilize,85.0,True,0,False,10,0.0,0.0,-10.0,7.854618974464748,0.1550025296825878
1760964201.501946,12.546380758285522,0.0,0.0,0.0,0.0,0.0,-45.424851350687014,0.0,0.0,0.08487078331364555,,,,,,,,,,,0.55,0.0,0.0,-0.3,0.5307640837522876,0.3754694857938614,-2.126730571462544,0.0007886270148291462,-0.03953688463789252,-45.53753074420231,-0.011777133650878848,0.029293472566113827,0.2200355777061621,,,,,,,,,,,,,,,,,stabilize,85.0,True,0,False,10,0.0,0.0,-10.0,7.900067046658922,0.2222891447383269
1760964201.6083329,12.652767658233643,0.0,0.0,0.0,0.0,0.0,-45.425111499544286,0.0,0.0,0.07472253488009668,,,,,,,,,,,0.55,0.0,0.0,-0.3,0.6917641936924797,-0.24343532281129093,-2.4421842892416556,-0.02248967729562442,-0.021809568883668102,-45.500118529870434,-0.00878272978300114,0.029322476965248184,0.14196239679505612,,,,,,,,,,,,,,,,,stabilize,85.0,True,0,False,10,0.0,0.0,-10.0,7.593311318117603,0.14522488113823914
1760964201.7157583,12.760193109512329,0.0,0.0,0.0,0.0,0.0,-45.42530469459794,0.0,0.0,0.049768771036893394,,,,,,,,,,,0.55,0.0,0.0,-0.21063037709290633,0.6877184115762598,-0.2466906288252197,-2.246049890357182,-0.05384362698995547,-0.03885635657861669,-45.499991924661835,-0.014668021387753985,0.03787023663956939,0.09499169447703519,,,,,,,,,,,,,,,,,stabilize,85.0,True,0,False,10,0.0,0.0,-10.0,7.788296038467017,0.10330889455505267
1760964201.8240933,12.868528127670288,0.0,0.0,0.0,0.0,0.0,-45.42434748817683,0.0,0.0,0.017515264706773736,,,,,,,,,,,0.55,0.0,0.0,0.035923490085889784,0.45304094016017665,-0.02473200525606113,-2.177688640509462,-0.03812945101997775,-0.03185789784033869,-45.48873512775709,-0.017610401654794033,0.04015084361406436,-0.03979941338754557,,,,,,,,,,,,,,,,,stabilize,85.0,True,0,False,10,0.0,0.0,-10.0,7.835458682831523,0.05921325692239
1760964201.9325092,12.976943969726562,0.0,0.0,0.0,0.0,0.0,-45.42347676206852,0.0,0.0,-0.013547315123679335,,,,,,,,,,,0.55,0.0,0.0,0.20150231956570122,0.44654741974126455,-0.029202106741541205,-2.193970684908887,-0.0810434769379583,-0.05034773247322104,-45.486130884594466,-0.01861020381596042,0.04094305220047329,-0.07461734680280901,,,,,,,,,,,,,,,,,stabilize,85.0,True,0,False,10,0.0,0.0,-10.0,7.818845888568053,0.08712302596588883
1760964202.0404892,13.08492398262024,0.0,0.0,0.0,0.0,0.0,-45.42281135485532,0.0,0.0,-0.04073338930982122,,,,,,,,,,,0.55,0.0,0.0,0.003692519292436176,-0.2345509641733009,0.019492501280898102,-2.2330467221411707,-0.1403524355188071,-0.07457685880547442,-45.45353379443748,-0.01608634558095298,0.04675740763419827,-0.001430857232036356,,,,,,,,,,,,,,,,,stabilize,85.0,True,0,False,10,0.0,0.0,-10.0,7.770518472588739,0.04946789903805193
1760964202.147484,13.191918849945068,0.0,0.0,0.0,0.0,0.0,-45.42262596295849,0.0,0.0,-0.064998913039049,,,,,,,,,,,0.55,0.0,0.0,0.19528360510239698,-0.2522518257793822,0.010681195542464019,-2.517560512849974,-0.19089944688881616,-0.08964212371608368,-45.449745023090586,-0.014734513848969545,0.048591548202662316,-0.07621045503868555,,,,,,,,,,,,,,,,,stabilize,85.0,True,0,False,10,0.0,0.0,-10.0,7.48669792033906,0.09157662317589922
1760964202.2553122,13.299746990203857,0.0,0.0,0.0,0.0,0.0,-45.42189962061445,0.0,0.0,-0.08217539449762953,,,,,,,,,,,0.55,0.0,0.0,-0.007335645025602789,0.22932980766557173,-0.4131894634174047,-2.375624810151295,-0.21101085277503318,-0.0927643885925287,-45.47545961452755,-0.016624699486982357,0.04421092697339855,0.03228222947524757,,,,,,,,,,,,,,,,,stabilize,85.0,True,0,False,10,0.0,0.0,-10.0,7.639006134893698,0.05721126669435133
1760964202.3640244,13.408459186553955,0.0,0.0,0.0,0.0,0.0,-45.42231442534896,0.0,0.0,-0.09153031490290199,,,,,,,,,,,0.55,0.0,0.0,0.3,0.20400824515345067,-0.42412132919326745,-2.33543958386073,-0.2584677928984316,-0.10797435062765863,-45.4722876584965,-0.023143271997452853,0.04690749908420976,-0.14528034949940555,,,,,,,,,,,,,,,,,stabilize,85.0,True,0,False,10,0.0,0.0,-10.0,7.678996330160357,0.1544095348731828
1760964202.4702003,13.51463508605957,0.0,0.0,0.0,0.0,0.0,-45.4226102963401,0.0,0.0,-0.08618925347151078,,,,,,,,,,,0.55,0.0,0.0,0.21623201944770193,0.1737346050246024,-0.43669292675763166,-2.4095471571091953,-0.3078091422257624,-0.1261339089565991,-45.47189632319515,-0.017851522043923956,0.04250935337494769,-0.09242459897767394,,,,,,,,,,,,,,,,,stabilize,85.0,True,0,False,10,0.0,0.0,-10.0,7.604989072011366,0.10328614844123449
1760964202.5785444,13.622979164123535,0.0,0.0,0.0,0.0,0.0,-45.42346261495494,0.0,0.0,-0.0641575936100564,,,,,,,,,,,0.55,0.0,0.0,-0.03210386732463873,0.13802399284511424,-0.45114413212623483,-2.372810398109743,-0.3544314306149556,-0.14246000198761813,-45.47273554724492,-0.017544811846553786,0.0399538579637815,-0.035155246302702794,,,,,,,,,,,,,,,,,stabilize,85.0,True,0,False,10,0.0,0.0,-10.0,7.6417669994403585,0.056035903950277265
1760964202.6841729,13.728607654571533,0.0,0.0,0.0,0.0,0.0,-45.42336796079162,0.0,0.0,-0.030359772806796196,,,,,,,,,,,0.55,0.0,0.0,-0.034257728282551414,0.0980018974895653,-0.4670745021945033,-1.9707394841241181,-0.3980147014315368,-0.15864160247350018,-45.47102072008422,-0.017758783123027935,0.04342648748053095,-0.03622175721122077,,,,,,,,,,,,,,,,,stabilize,85.0,True,0,False,10,0.0,0.0,-10.0,8.043431319674161,0.05927267404442014
1760964202.792407,13.836841821670532,0.0,0.0,0.0,0.0,0.0,-45.42267395355419,0.0,0.0,0.006658143433799307,,,,,,,,,,,0.55,0.0,0.0,-0.18147377990625646,0.7376553693756208,-0.7515685961574919,-2.191786262733959,-0.1651968584115063,-0.08972400391078733,-45.42633017537807,-0.017361344590421362,0.04176999825341954,0.0582159910907178,,,,,,,,,,,,,,,,,stabilize,85.0,True,0,False,10,0.0,0.0,-10.0,7.878908082058638,0.07372415247903877
1760964202.8987281,13.94316291809082,0.0,0.0,0.0,0.0,0.0,-45.42372166144898,0.0,0.0,0.02805983173724519,,,,,,,,,,,0.55,0.0,0.0,0.007495836800656543,0.7180948379634073,-0.7622973759251601,-2.455070075716722,-0.20356825858889577,-0.11286254305637591,-45.42611174642861,-0.02077502905852418,0.04204652623699087,0.013248211468860502,,,,,,,,,,,,,,,,,stabilize,85.0,True,0,False,10,0.0,0.0,-10.0,7.617264932244208,0.048734251898476216
1760964203.0074139,14.051848649978638,0.0,0.0,0.0,0.0,0.0,-45.4238927792616,0.0,0.0,0.0368701268945398,,,,,,,,,,,0.55,0.0,0.0,-0.2815249357902934,-1.2559056727615654,0.03320897542373456,-2.187507281569791,-0.08272934497632016,0.008430617464756544,-45.42794673817026,-0.023431797235242073,0.043372780312024954,0.11419942805545838,,,,,,,,,,,,,,,,,stabilize,85.0,True,0,False,10,0.0,0.0,-10.0,7.912865749552965,0.12438551588453733
1760964203.1141508,14.158585548400879,0.0,0.0,0.0,0.0,0.0,-45.423228311834535,0.0,0.0,0.03527006163462685,,,,,,,,,,,0.55,0.0,0.0,-0.1807190138543776,-1.2672548600363363,0.03264167229387884,-2.1718067588817767,-0.1311964628546181,-0.01944171222419115,-45.42608455578619,-0.025238833966375836,0.048123901359492224,0.07625647548695262,,,,,,,,,,,,,,,,,stabilize,85.0,True,0,False,10,0.0,0.0,-10.0,7.930170854360257,0.09363737862484527
1760964203.222549,14.2669837474823,0.0009968938127778726,7.648411667207244e-06,0.0,0.03655211400648172,0.0002323411953079555,-45.423076982002186,-0.0012728675703603631,-0.05146816087162036,0.028973818076476258,,,,,,,,,,,0.55,0.0,0.0007895863922273029,-0.005988287877401369,-0.9348461930860215,-0.38102917988545704,-1.912707893501293,-0.09651703187786871,-0.040675877686123005,-45.39421781734238,-0.0288387082823128,0.0026627280622166924,0.007366505774127757,,,,,,,,,,,,,,,,,stabilize,85.0,True,0,False,10,0.0,0.0,-10.0,8.15005608916208,0.029883551051471616
1760964203.3297641,14.374198913574219,0.012120186819842947,3.701751158731602e-05,0.0,0.18845999999365987,-7.918345475604172e-05,-45.418055853386385,-0.0031536432343833394,-0.10264241699250638,0.018914750988676017,,,,,,,,,,,0.55,0.0,0.2128553806615507,0.21158991884112402,-0.7829426595668293,0.22673975915087533,-2.357076280323454,0.07793290489095359,-0.014715978307892055,-45.4194174587746,-0.03066030826573817,-0.053272251963968384,-0.0711740658366271,,,,,,,,,,,,,,,,,stabilize,85.0,True,0,False,10,0.0,0.0,-10.0,7.68626652617145,0.09404113451027243
1760964203.4384656,14.482900381088257,0.039637797231434714,-0.0002641753981704074,0.0,0.29089842211142974,-0.006648764876249756,-45.41418521240305,-0.005146709640851143,-0.02193306819962123,0.0007276202727344544,,,,,,,,,,,0.55,0.0,-0.0010584395098940994,0.026093494133255176,-0.6852787155755136,-0.0769506109550669,-2.1548754981091314,0.174779262818842,-0.0406362210875784,-45.37477720284999,-0.03562581881601327,0.021363539591040433,-0.011251039354265876,,,,,,,,,,,,,,,,,stabilize,85.0,True,0,False,10,0.0,0.0,-10.0,7.8753734365244945,0.043037026810882235
1760964203.5416975,14.586132287979126,0.06949943610249865,-0.001434017467562498,0.0,0.29713288747023575,-0.01629828212577637,-45.41510726583822,-0.0058014925491675275,-0.0482684403438811,-0.01788855178889637,,,,,,,,,,,0.55,0.0,0.0009110981186402035,0.02287472452888286,0.02079329608004367,-0.37926776087374586,-2.07144377651108,0.1496235782051934,-0.10730573100203199,-45.35091142974656,-0.03291457211857814,0.00968755817126666,-0.0008882111217542871,,,,,,,,,,,,,,,,,stabilize,85.0,True,0,False,10,0.0,0.0,-10.0,7.937649537780372,0.034322103083400425
