timestamp,simulation_time,position_x,position_y,position_z,velocity_x,velocity_y,velocity_z,attitude_roll,attitude_pitch,attitude_yaw,angular_velocity_x,angular_velocity_y,angular_velocity_z,acceleration_x,acceleration_y,acceleration_z,motor_speed_1,motor_speed_2,motor_speed_3,motor_speed_4,control_throttle,control_roll,control_pitch,control_yaw,estimated_position_x,estimated_position_y,estimated_position_z,estimated_velocity_x,estimated_velocity_y,estimated_velocity_z,estimated_attitude_roll,estimated_attitude_pitch,estimated_attitude_yaw,sensor_accel_x,sensor_accel_y,sensor_accel_z,sensor_gyro_x,sensor_gyro_y,sensor_gyro_z,sensor_gps_x,sensor_gps_y,sensor_gps_z,sensor_gps_vx,sensor_gps_vy,sensor_gps_vz,sensor_baro_altitude,sensor_mag_x,sensor_mag_y,sensor_mag_z,flight_mode,battery_level,gps_fix,waypoint_index,mission_complete,setpoint_altitude,setpoint_position_x,setpoint_position_y,setpoint_position_z,position_error,attitude_error
1760882341.3649108,0.10598325729370117,-8.449107322225168e-14,-2.7918072039929866e-14,0.05502773182672718,-3.2169577224289534e-12,-9.198788141257421e-13,1.0371551534741132,-1.0412154937509594e-06,4.369829228612527e-06,4.1648617268152094e-08,,,,,,,,,,,0.0,0.0012244156435027099,1.0,-0.2805432430041608,-5.4758633550370694e-05,-4.815700908637979e-05,-1.2163831553390896,-0.0014264724229105523,-0.0007855261053821922,0.8355673399344907,-8.968642980209372e-05,0.0030212555315448815,0.123822865803475,,,,,,,,,,,,,,,,,auto,85.0,True,0,False,-10.0,15.0,0.0,-10.0,17.38256504771764,0.12385975183419332
1760882341.473073,0.21414542198181152,-1.4430104525265795e-12,-2.7375229755264165e-13,0.22275686676108225,-2.6491541298624856e-11,-3.2761206588322104e-12,2.075142057725921,-3.948130628975744e-07,1.7983153623544496e-05,1.5792513470345075e-08,,,,,,,,,,,0.0,0.15535462160512736,1.0,0.20617449696647938,0.47521626851577464,0.45867661688221545,0.004923880743088679,-0.05762633307170789,-0.015680592746116707,1.9187165924298326,0.00048322869620565876,0.004941216633799822,-0.10534179846895567,,,,,,,,,,,,,,,,,auto,85.0,True,0,False,-10.0,15.0,0.0,-10.0,17.643078771708943,0.1054587295413189
1760882341.5809503,0.3220226764678955,-7.338343119463115e-12,-5.712584486983898e-13,0.5029932169506035,-9.151319179166298e-11,-8.988324351400059e-13,3.089507252834009,2.9463184508284337e-06,4.0850712383073596e-05,-1.1785268829206372e-07,,,,,,,,,,,0.0,0.14543839102364484,1.0,-0.17029210258524075,0.4689671598566815,0.4569236311946797,0.22037004950141084,-0.057526163629963774,-0.016610204532242403,2.9386317450995585,-0.002313674155844753,0.006025681268029121,0.08940199491966391,,,,,,,,,,,,,,,,,auto,85.0,True,0,False,-10.0,15.0,0.0,-10.0,17.771203069989753,0.08963469539446717
1760882341.6894321,0.43050456047058105,-2.351488925826815e-11,-5.323985491670014e-14,0.8912704314326574,-2.248008991018566e-10,1.3172778948524823e-11,4.06049581837454,8.09539741362798e-06,7.316301998669068e-05,-3.23815571883069e-07,,,,,,,,,,,0.0,-0.33077187308437395,1.0,0.20450373138845301,0.8817482058115648,-0.7334350314872883,0.6730857163510475,-0.02985793265605968,0.05668263633957109,3.971154100103285,0.001392406677275161,0.007073051855681274,-0.09707360113965527,,,,,,,,,,,,,,,,,auto,85.0,True,0,False,-10.0,15.0,0.0,-10.0,17.713772025689348,0.09734090043311165
1760882341.796435,0.5375075340270996,-5.947761120364055e-11,2.498402394223058e-12,1.3746214436836195,-4.5248248477771323e-10,3.2589266766404697e-11,4.964148106240216,6.3568357578080346e-06,0.00011550228182535675,-2.54272737257296e-07,,,,,,,,,,,0.0,-0.23953957308940363,1.0,0.1981974110685289,0.824734201209344,-0.7724405403431086,1.2633954990990777,0.008658238641547595,0.08651542912442302,4.866559225086212,-0.0035693526520703812,0.0072114340542135235,-0.11536190442470332,,,,,,,,,,,,,,,,,auto,85.0,True,0,False,-10.0,15.0,0.0,-10.0,18.12177979735586,0.11564218111038677
1760882341.9034305,0.6445028781890869,-1.2256923835602664e-10,6.458775264345934e-12,1.951380711697405,-7.469357071496429e-10,3.9150442431944686e-11,5.806080332751104,2.6924149090765515e-07,0.00016724485272837886,-1.0768925126022337e-08,,,,,,,,,,,0.0,-0.1975875930446342,1.0,-0.02687364111225387,0.8255893802842402,-0.7632494369628371,2.1184776902726616,0.0073996247193133195,0.08484613180650942,5.714630650029757,-0.005991255996496191,0.007916482262868941,0.0013611837259421972,,,,,,,,,,,,,,,,,auto,85.0,True,0,False,-10.0,15.0,0.0,-10.0,18.66424302373314,0.010020911184599931
1760882342.0107439,0.7518162727355957,-2.229135231033597e-10,1.0261554576264205e-11,2.616776392746259,-1.14304375426439e-09,2.8431506325770763e-11,6.583410212553184,-8.44731168876196e-06,0.0002281756504182799,3.3789254294289513e-07,,,,,,,,,,,0.0,0.1741318117677976,1.0,-0.057142042606913725,0.3940901601396929,0.16435364441033873,2.8936703539894446,0.027323087372191183,0.024997067815638395,6.559481947291753,-0.007412304837953972,0.0043513519864578475,0.022534115964231043,,,,,,,,,,,,,,,,,auto,85.0,True,0,False,-10.0,15.0,0.0,-10.0,19.48348915281617,0.024117688724465677
1760882342.1204276,0.8615000247955322,-3.762738433759623e-10,1.1928315255146381e-11,3.3791584387830205,-1.676463871157396e-09,-1.04870205523644e-12,7.305813393457756,-1.6783400426434945e-05,0.0002997434984506057,6.713345228719004e-07,,,,,,,,,,,0.0,-0.14472972818753005,1.0,-0.08513300050102066,-0.022711212612380103,-0.3896429277229764,3.395937114953087,0.019536255510413283,0.02282921814624502,7.286427787584307,0.003091031642241781,0.009254798060122997,0.033897151216145976,,,,,,,,,,,,,,,,,auto,85.0,True,0,False,-10.0,15.0,0.0,-10.0,20.13168659045863,0.03527354000263176
1760882342.2271843,0.9682567119598389,-5.881496585140954e-10,9.512117269686288e-12,4.193498486064405,-2.3257790822392754e-09,-4.8179993657046296e-11,7.93873756857699,-2.6839453193393537e-05,0.00037841920674600656,1.073574023659146e-06,,,,,,,,,,,0.0,-0.24786264303659478,1.0,0.06762692900806634,-0.2149029086939232,-0.7687953425212292,4.182451248927061,-0.036898133298924204,-0.0013201527168774413,7.897075007207063,-0.0036069880537446765,0.012273735898485783,-0.03333926616176332,,,,,,,,,,,,,,,,,auto,85.0,True,0,False,-10.0,15.0,0.0,-10.0,20.814087542524124,0.03570940525870646
1760882342.3350906,1.0761630535125732,-8.831344747441525e-10,5.304691084854541e-13,5.081560093549274,-3.1408016175686936e-09,-1.211458338042204e-10,8.509855273027682,-4.1222921699099685e-05,0.0004673529712329125,1.6489084737556986e-06,,,,,,,,,,,0.0,-0.19186668007794497,1.0,-0.1508704034576197,-0.21903699948594255,-0.7691580029803139,4.999272688924556,-0.04022677382104723,-0.0054303854648237275,8.474061335477899,-0.00921181531745438,0.012803914365704905,0.07116028128328447,,,,,,,,,,,,,,,,,auto,85.0,True,0,False,-10.0,15.0,0.0,-10.0,21.38197540972276,0.07288747078094669
1760882342.4437294,1.1848018169403076,-1.2743248799469728e-09,-1.7896843501442727e-11,6.034271677363276,-4.08564084229265e-09,-2.2350533309314984e-10,9.018453892265217,-5.8919501028859395e-05,0.0005661229279749709,2.3567649115595846e-06,,,,,,,,,,,0.0,-0.20329276945071786,1.0,-0.10149709982090221,-0.22380029962488932,-0.7700685278553924,5.808842160813112,-0.04666044650172141,-0.01126809986600553,8.988558832506216,-0.005599727601623234,0.01352359491261689,0.04755213986903248,,,,,,,,,,,,,,,,,auto,85.0,True,0,False,-10.0,15.0,0.0,-10.0,21.960796696976967,0.04975390009533893
1760882342.5530918,1.2941641807556152,-1.7764386899020902e-09,-4.927458569299861e-11,7.040855923984385,-5.159789509870159e-09,-3.5829315127113324e-10,9.465664108360903,-7.924981306130092e-05,0.000674314625661095,3.169967441869955e-06,,,,,,,,,,,0.0,0.0041501486264010415,1.0,0.18188250308413603,1.6885406338181794,-0.26382327488540386,6.974911269697354,0.015615463027989504,0.0256256529634268,9.4190833889846,-0.005841180831528859,0.013535350205529742,-0.08043693486168656,,,,,,,,,,,,,,,,,auto,85.0,True,0,False,-10.0,15.0,0.0,-10.0,21.57341340149906,0.08177668120336115
1760882342.6609209,1.4019932746887207,-2.399722838911943e-09,-9.684467250289614e-11,8.087850336860004,-6.40090527610971e-09,-5.290456864191664e-10,9.853795861661053,-0.00010050578015476661,0.0007909913730977094,4.020192512702808e-06,,,,,,,,,,,0.0,-0.007262647481986167,1.0,0.24988109053805097,1.6897858488796225,-0.2612456450286535,7.728121350434561,0.007556096535444629,0.02076323658886446,9.812920315658866,-0.012228747888251932,0.009871765469525912,-0.14674102855128984,,,,,,,,,,,,,,,,,auto,85.0,True,0,False,-10.0,15.0,0.0,-10.0,22.17016771816274,0.14758022729583464
1760882342.7704425,1.5115149021148682,-3.174854058931265e-09,-1.6560141897584222e-10,9.186132422409296,-7.785048661984874e-09,-7.329792830964605e-10,10.193892782222585,-0.00012396854802708393,0.0009181896713251842,4.958685051976948e-06,,,,,,,,,,,0.0,-0.04917075577919817,1.0,0.0055827688781783825,1.6900595460063357,-0.25941866929435026,8.99934243483605,-0.002873899767163557,0.013216336613053386,10.15833950402271,-0.006746276423951779,0.01575884046161703,-0.017736496568949142,,,,,,,,,,,,,,,,,auto,85.0,True,0,False,-10.0,15.0,0.0,-10.0,23.199069504852936,0.02466650783599921
1760882342.8769205,1.617992877960205,-4.090982245212658e-09,-2.5687140201007804e-10,10.287130723815155,-9.487619982784279e-09,-9.925651662871818e-10,10.479425257762326,-0.0001487261728584471,0.0010509655808651267,5.9489675064720995e-06,,,,,,,,,,,0.0,-0.3022806750461097,1.0,0.0747692620957276,1.3237394750709897,-0.9098834066976172,10.391977902904488,0.03905965566847392,-0.04705371119075196,10.483038598243542,-0.005205829741162417,0.016285518374724715,-0.0577047064433376,,,,,,,,,,,,,,,,,auto,85.0,True,0,False,-10.0,15.0,0.0,-10.0,24.570322597639212,0.0601843162106145
1760882342.9848952,1.7259676456451416,-5.2094845291010406e-09,-3.791189560049426e-10,11.43244484940473,-1.1301286589546517e-08,-1.2852315736424477e-09,10.728710128126007,-0.00017860768714373943,0.0011951016580976778,7.144199099256271e-06,,,,,,,,,,,0.0,-0.26074327287254817,1.0,-0.00511670881563985,1.3271957421947784,-0.9152592158644267,11.708165046634496,0.024077010995770417,-0.05153156730187704,10.736777552826048,-0.005182077797726415,0.023795456870846186,-0.007680929401857453,,,,,,,,,,,,,,,,,auto,85.0,True,0,False,-10.0,15.0,0.0,-10.0,25.67153492482296,0.025535746992604472
1760882343.0938532,1.834925651550293,-6.544837214290526e-09,-5.368091076284492e-10,12.613467514450958,-1.324870238390098e-08,-1.6188087797231088e-09,10.944131422059188,-0.00021279225968521135,0.0013500293924557623,8.511545025325829e-06,,,,,,,,,,,0.0,-0.14532994684845055,1.0,-0.07525835344956075,-0.18103392913773464,-0.656583665611186,12.49285126413628,0.013271658300432056,0.0032194263796441105,10.936021309227797,-0.001909208376009734,0.019135981236142123,0.039883971841081264,,,,,,,,,,,,,,,,,auto,85.0,True,0,False,-10.0,15.0,0.0,-10.0,27.144488414006545,0.04427823465669304
1760882343.2040594,1.945131778717041,-8.100526224658005e-09,-7.331600091248317e-10,13.81888223517286,-1.5283235909092114e-08,-1.9868249479326373e-09,11.12827538839615,-0.0002489383378137899,0.0015145371323635809,9.957342048618331e-06,,,,,,,,,,,0.0,-0.16516526263549583,1.0,-0.022320054853897264,-0.1805160225292397,-0.6564662024892725,13.635960296848282,-0.005866972141557979,-0.0004986497431936625,11.122102985400034,-0.0019114246064402289,0.02297895285250076,0.02922808533568155,,,,,,,,,,,,,,,,,auto,85.0,True,0,False,-10.0,15.0,0.0,-10.0,28.098712314614453,0.037228574920528994
1760882343.3124588,2.0535311698913574,-9.907255354687323e-09,-9.753844206760167e-10,15.045200665075928,-1.7675211695136986e-08,-2.433092548002614e-09,11.285158333380007,-0.00028858791208304573,0.0016888564970694083,1.1543268582640387e-05,,,,,,,,,,,0.0,-0.1826489246730263,1.0,-0.13332836495566114,-0.18220882340187514,-0.6565652545756862,14.918525743594655,-0.026017147985827542,-0.0012233774656974286,11.280993266615376,0.00040989578299816714,0.025932113155678675,0.07428074642808657,,,,,,,,,,,,,,,,,auto,85.0,True,0,False,-10,15.0,0.0,-10.0,29.18670018904308,0.07867828033952916
1760882343.4225633,2.163635730743408,-1.198700173660971e-08,-1.2691315229088847e-09,16.295321906652994,-2.0156855016489524e-08,-2.9149037895622383e-09,11.419016901368147,-0.0003295905590553669,0.0018736663166493486,1.3183305963533224e-05,,,,,,,,,,,0.0,0.15864793339404795,1.0,-0.06274797563596718,0.9923947126801711,0.22631631333410146,16.124812079853086,-0.03907258757589484,-0.06167464397711023,11.44209196823949,0.0029879225407064124,0.025990740585327445,0.04567191881264655,,,,,,,,,,,,,,,,,auto,85.0,True,0,False,-10,15.0,0.0,-10.0,29.64405557892964,0.0526343086333622
1760882343.531493,2.2725653648376465,-1.432225355707382e-08,-1.6142338270248907e-09,17.545465977770352,-2.2775774462661743e-08,-3.4326881605824536e-09,11.531111502644787,-0.0003689711034182741,0.0020657268617703204,1.4758447888177037e-05,,,,,,,,,,,0.0,0.0826949811702922,1.0,0.015829617703182454,0.9869819312603236,0.21977490144285572,17.64580535439001,-0.05948642112440275,-0.05759285977369098,11.555913103252301,0.0035687957563344847,0.022046135384447524,-7.305360014578377e-05,,,,,,,,,,,,,,,,,auto,85.0,True,0,False,-10,15.0,0.0,-10.0,30.995217858485013,0.022333242607564058
1760882343.6410408,2.382113218307495,-1.6972687851948182e-08,-2.0210203095948234e-09,18.81404191590695,-2.580371070755298e-08,-4.028389038082504e-09,11.626418350238062,-0.0004073144864122389,0.002268151505493963,1.629209059037208e-05,,,,,,,,,,,0.0,0.20079351068265405,1.0,0.04766143210108179,-0.1859525186889342,0.5249934649972676,18.828151519839047,-0.047270610488366824,-0.040395114351628736,11.709372724227238,0.002172345541593868,0.0203781787455575,-0.008506301323860876,,,,,,,,,,,,,,,,,auto,85.0,True,0,False,-10,15.0,0.0,-10.0,32.587591075269174,0.022188880466357277
1760882343.7498062,2.4908785820007324,-1.9937208384605502e-08,-2.4904515485298956e-09,20.07713861176027,-2.8927464666128376e-08,-4.63573295251469e-09,11.705974443780699,-0.0004418734509355816,0.0024777969491716146,1.7674345688398663e-05,,,,,,,,,,,0.0,0.013405604511591219,1.0,-0.024486186568056876,-0.2765920718501724,0.19521814594707237,20.164428407356226,-0.07047261794409798,-0.04111122464834039,11.787841123054188,0.0024808553111780327,0.021095325274890175,0.013758383494922921,,,,,,,,,,,,,,,,,auto,85.0,True,0,False,-10,15.0,0.0,-10.0,33.81279516095559,0.025307321231647334
1760882343.8567522,2.5978245735168457,-2.3205867829682506e-08,-3.0193002607699497e-09,21.338653564420735,-3.197501667452244e-08,-5.2166938199103065e-09,11.772704150184392,-0.0004756865989248188,0.002694781140840976,1.902675732724688e-05,,,,,,,,,,,0.0,-0.0774002298001927,1.0,-0.2658341649623185,0.05135191940966824,-0.03003951872239635,21.49813578365274,-0.06906204306724262,0.008647535937878089,11.83819344936643,0.005088713795098164,0.024392745701126997,0.13898775709131675,,,,,,,,,,,,,,,,,auto,85.0,True,0,False,-10,15.0,0.0,-10.0,34.8653917180841,0.1412037452484995
1760882343.965075,2.7061474323272705,-2.6857054629022103e-08,-3.6191981549468076e-09,22.617069867981012,-3.5477140595066777e-08,-5.8639138031453975e-09,11.829497164820854,-0.0005106012639287555,0.002922558159854285,2.0423216541780547e-05,,,,,,,,,,,0.0,-0.22013724276183197,1.0,-0.05386888334721457,-0.2877325054516903,-0.4567279305444868,22.323816387516416,-0.0857065139271351,0.01182201049016271,11.895481333181626,0.011939918916705917,0.02434212190051387,0.044930867936334225,,,,,,,,,,,,,,,,,auto,85.0,True,0,False,-10,15.0,0.0,-10.0,35.759648647807744,0.052477456644442054
1760882344.0723937,2.8134660720825195,-3.0832491451412976e-08,-4.279329614482326e-09,23.883075393740196,-3.904961409641796e-08,-6.50970564553879e-09,11.876754515367137,-0.0005456619420352851,0.0031560783365866775,2.1825505099161073e-05,,,,,,,,,,,0.0,0.11634958158938474,1.0,0.19125196936186886,-0.44825963370658944,0.4178890236996749,23.957236434221663,-0.04484463797253103,-0.004490258424999844,11.926836227766605,0.015982326918825607,0.026979727039988643,-0.0691790104635708,,,,,,,,,,,,,,,,,auto,85.0,True,0,False,-10,15.0,0.0,-10.0,37.308407406322885,0.0759544332716093
1760882344.177998,2.9190704822540283,-3.5168974953092815e-08,-5.0042069993679665e-09,25.145616065613314,-4.2701482482336534e-08,-7.152900889986885e-09,11.916425970328792,-0.0005796884358129421,0.0033968504632750337,2.3186414193419066e-05,,,,,,,,,,,0.0,-0.029496754018152247,1.0,0.12106057999258871,0.09520865779944748,0.06647400615969513,25.03912607389358,-0.07123134374676761,-0.02786991909759331,11.96437094996194,0.012698579367400743,0.025990573158045045,-0.05014805367925987,,,,,,,,,,,,,,,,,auto,85.0,True,0,False,-10,15.0,0.0,-10.0,38.07752066206833,0.05789292788287527
1760882344.2871046,3.02817702293396,-4.003965076222219e-08,-5.821069979352468e-09,26.447705852079647,-4.668796564663385e-08,-7.835763975997618e-09,11.950805744386743,-0.0006150570511834855,0.0036533396229202954,2.4600989878701128e-05,,,,,,,,,,,0.0,-0.04539273477377756,1.0,-0.2334568627926708,0.08615925803415116,0.0642325400938139,26.2462296286688,-0.09513705548174492,-0.013465448791689514,11.999531942196608,0.01633217174287495,0.02348522869872827,0.13530850053505203,,,,,,,,,,,,,,,,,auto,85.0,True,0,False,-10,15.0,0.0,-10.0,39.19459061898868,0.1382992628972205
1760882344.394632,3.135704517364502,-4.528419651481557e-08,-6.701141286510951e-09,27.73432268478831,-5.107115941922608e-08,-8.565487323760306e-09,11.979316182985386,-0.0006501222250129086,0.003915120496329503,2.6003415984922095e-05,,,,,,,,,,,0.0,-0.040710427447999534,1.0,0.09454177139327619,0.07479057750674381,0.0637594658037909,27.555453321216014,-0.11378626260472684,0.0053182634021498275,12.028992543989814,0.01677077718778142,0.01603487304168922,-0.062302623535978985,,,,,,,,,,,,,,,,,auto,85.0,True,0,False,-10,15.0,0.0,-10.0,40.41259724067232,0.06648302806289154
1760882344.5044422,3.2455146312713623,-5.114344067524326e-08,-7.682686537196869e-09,29.0511560238011,-5.559388889245184e-08,-9.300012496342222e-09,12.003794034851326,-0.0006869120749441821,0.004191937682799508,2.7474809507187372e-05,,,,,,,,,,,0.0,-0.09690505007629077,1.0,-0.26778907332547885,0.5973765875569937,-0.05638872980193676,29.135065251722292,-0.07267084225228894,0.015746130191423256,11.988384671572806,0.021446809610331585,0.017503897819749592,0.15432503437018677,,,,,,,,,,,,,,,,,auto,85.0,True,0,False,-10,15.0,0.0,-10.0,41.70122388019399,0.15678829138269662
1760882344.6134324,3.3545048236846924,-5.745311803308114e-08,-8.736097988902301e-09,30.360595460770174,-6.023108981336337e-08,-1.0033918782377921e-08,12.024186599213756,-0.0007239931355329332,0.004475855744288776,2.8957836549474133e-05,,,,,,,,,,,0.0,-0.16163764613013015,1.0,-0.02798969914517788,-1.0257247015697577,-0.20867048089865725,29.96526568662049,-0.03412747506658302,0.027238381308876486,12.042424580745825,0.022894584732015763,0.02341084167526735,0.027628523243071114,,,,,,,,,,,,,,,,,auto,85.0,True,0,False,-10,15.0,0.0,-10.0,43.05914370934781,0.04284349209143443
1760882344.722332,3.463404417037964,-6.42600978825251e-08,-9.867090799078027e-09,31.664905645494294,-6.530120860758046e-08,-1.0821570149075236e-08,12.041224258945253,-0.0007636814044691911,0.004767446382305679,3.0545135523803205e-05,,,,,,,,,,,0.0,-0.12183456425254631,1.0,-0.034799636368404344,-1.0305331149718866,-0.20449912141151486,31.55455382158744,-0.05408294732197294,0.048662141112211524,12.060286570964411,0.01894234821855318,0.024191198262199325,0.017359184671799796,,,,,,,,,,,,,,,,,auto,85.0,True,0,False,-10,15.0,0.0,-10.0,44.53987825704147,0.03528977078224807
1760882344.829765,3.5708374977111816,-7.15932837473744e-08,-1.1078900942629953e-08,32.965400943285395,-7.055145254961757e-08,-1.162675647508549e-08,12.055485371879485,-0.0008063287085669439,0.005066990548534194,3.225077745296516e-05,,,,,,,,,,,0.0,-0.1242937659056748,1.0,0.07288004614541942,-1.0373420094718473,-0.19794090646582474,32.906225899760315,-0.07169786593996609,0.07329923012391788,12.075200219692844,0.02078289714411152,0.022439097388796153,-0.050497556934605975,,,,,,,,,,,,,,,,,auto,85.0,True,0,False,-10,15.0,0.0,-10.0,45.80589198228199,0.059037658843236404
1760882344.9385443,3.679616689682007,-7.951223301358588e-08,-1.2380382550295265e-08,34.27136330227384,-7.576055891447475e-08,-1.2418641687695253e-08,12.067509221711209,-0.0008518984120456388,0.005376544741980275,3.4073293001836454e-05,,,,,,,,,,,0.0,-0.10629325652774647,1.0,-0.07443427265619826,-1.046011471968853,-0.1887993074703978,34.18645413922152,-0.08902675489244187,0.09446995428899155,12.087688560682514,0.01828825062774455,0.02564596894601513,0.024083600954249135,,,,,,,,,,,,,,,,,auto,85.0,True,0,False,-10,15.0,0.0,-10.0,47.01013570215027,0.03965092267686442
1760882345.0455186,3.786591053009033,-8.794294724461483e-08,-1.3758792713349745e-08,35.56893165717916,-8.127844818509755e-08,-1.3255657342291607e-08,12.077542856920415,-0.000899167941292876,0.0056927304971821375,3.5963780454665685e-05,,,,,,,,,,,0.0,-0.18823345722508208,1.0,-0.05225570375731026,0.17712536682091673,-0.43792944474757683,35.337809136683404,-0.07546986651626313,0.14114529306237975,12.054145704160884,0.015373195953873502,0.03130872736438797,0.020857939832775778,,,,,,,,,,,,,,,,,auto,85.0,True,0,False,-10,15.0,0.0,-10.0,47.701429034189886,0.040640192138835456
1760882345.1537042,3.8947765827178955,-9.704071839589465e-08,-1.5239005558091804e-08,36.87601959650806,-8.694141963308697e-08,-1.4113214769662595e-08,12.086032633069603,-0.0009482905845575109,0.006020049321507917,3.792836552363596e-05,,,,,,,,,,,0.0,0.11562218178188013,1.0,0.1285853848918429,0.7400344181891955,0.2618956224538968,36.483148300471576,-0.02456762837445748,0.1249587063476043,12.04661744498676,0.017314377691543398,0.03187448858990626,-0.04418572832503904,,,,,,,,,,,,,,,,,auto,85.0,True,0,False,-10,15.0,0.0,-10.0,48.62199382620094,0.05716772940503793
1760882345.2641382,4.005210638046265,-1.0687245429816789e-07,-1.6831389293129878e-08,38.19896346281534,-9.294404987589408e-08,-1.5019877055213772e-08,12.093239003707074,-0.0009980594489852911,0.006360239715194728,3.9918769252427944e-05,,,,,,,,,,,0.0,-0.22438745515042377,1.0,0.009447855056429678,0.5265243549749903,-0.46035813802708603,37.876429952893616,-0.09038087626614674,0.0867753521310517,12.080678163072774,0.014868094358868395,0.03489297055101092,0.0053029606955207025,,,,,,,,,,,,,,,,,auto,85.0,True,0,False,-10,15.0,0.0,-10.0,50.01845631261234,0.03829753276486838
1760882345.3725958,4.113668203353882,-1.1733626493078983e-07,-1.8518644630096918e-08,39.51638201487239,-9.921040578249523e-08,-1.5963605359394663e-08,12.099253647594269,-0.0010489770583935198,0.006708075540796597,4.195509672224691e-05,,,,,,,,,,,0.0,-0.21032852655859818,1.0,-0.004652614249501516,-0.2614072963099612,-0.37868578681638815,39.31306112332904,-0.11753731267607295,0.0962333869447407,12.035586529979723,0.01804086758757266,0.04191548196539904,0.018297825902890322,,,,,,,,,,,,,,,,,auto,85.0,True,0,False,-10,15.0,0.0,-10.0,51.62201035355157,0.04916493633145991
1760882345.4828582,4.223930597305298,-1.286753351608053e-07,-2.0339143960470237e-08,40.85134440684046,-1.06203250987219e-07,-1.701624334577777e-08,12.10435836184439,-0.001103099693434452,0.007069933652716366,4.4119590598118935e-05,,,,,,,,,,,0.0,-0.16866610024628714,1.0,-0.10185520256001418,-0.27638249564607537,-0.36710643423414785,40.62752540468529,-0.15322685666679714,0.11225336984650928,12.042340863067185,0.01604571929185035,0.03925507832324946,0.05375498252386972,,,,,,,,,,,,,,,,,auto,85.0,True,0,False,-10,15.0,0.0,-10.0,52.88335236999818,0.06846914946089842
1760882345.5909448,4.332017183303833,-1.4056650201394032e-07,-2.2240806694705525e-08,42.16602529434434,-1.1274781050326044e-07,-1.7999248144308266e-08,12.108569804272635,-0.0011587796692951362,0.007435429708727458,4.634635267948524e-05,,,,,,,,,,,0.0,0.17511902499588192,1.0,0.07260038521806564,0.6852662304361411,0.44552618498092433,42.072210058937216,-0.12964273036648064,0.03917271269519533,12.086708496468809,0.017588047673063923,0.03779087057510832,-0.030734324230296532,,,,,,,,,,,,,,,,,auto,85.0,True,0,False,-10,15.0,0.0,-10.0,54.00578817957459,0.05178887916983287
1760882345.7010949,4.442167282104492,-1.5330789422939992e-07,-2.427132436209636e-08,43.493641196821436,-1.197443210160238e-07,-1.9050532112343968e-08,12.112134724738652,-0.001213908027677743,0.007813613613726672,4.855101264992664e-05,,,,,,,,,,,0.0,-0.0077381257753340316,1.0,0.14935985457282258,0.9247466906163875,0.15963126236000227,43.20977250706306,-0.15240800130993742,0.037166341553285354,12.089827273868506,0.01710073393388103,0.03870199719727097,-0.07525485281920731,,,,,,,,,,,,,,,,,auto,85.0,True,0,False,-10,15.0,0.0,-10.0,55.04015014620364,0.08633407531777655
1760882345.8071597,4.548232078552246,-1.664285321006268e-07,-2.6355299984051e-08,44.784819166683796,-1.2649052534681564e-07,-2.005826842861455e-08,12.115045441315843,-0.001267949821674638,0.008190181627372551,5.071219072409507e-05,,,,,,,,,,,0.0,-0.02135864808093225,1.0,-0.1743329837543472,0.9069735073640468,0.16471022516219075,44.68367066421017,-0.18070790776141032,0.057524067566437395,12.092355553674471,0.01979821170930247,0.034575879589149455,0.09261466462961242,,,,,,,,,,,,,,,,,auto,85.0,True,0,False,-10,15.0,0.0,-10.0,56.47073899367894,0.10082131094518314
1760882345.9152787,4.656351089477539,-1.8047798722698526e-07,-2.857942505109949e-08,46.094824006951214,-1.3344572680723577e-07,-2.1089551127985277e-08,12.117527981787056,-0.001321998799122743,0.008580974128987612,5.2873615700267083e-05,,,,,,,,,,,0.0,-0.04802901278024201,1.0,-0.005253939972832882,0.8860315189562276,0.17214112810004722,45.952188922906885,-0.2056189645978099,0.08181140150454677,12.094382718769355,0.02669132713672594,0.03183835855972651,0.009435545689852855,,,,,,,,,,,,,,,,,auto,85.0,True,0,False,-10,15.0,0.0,-10.0,57.705122685222186,0.042604431020290996
1760882346.0247028,4.765775203704834,-1.9553741871439648e-07,-3.095486178626937e-08,47.420892476421635,-1.4187502539081815e-07,-2.2337131089659677e-08,12.119635507696927,-0.0013784768444630312,0.00898576296238201,5.513216179763697e-05,,,,,,,,,,,0.0,-0.23527305926421088,1.0,-0.24728015668957237,0.9524035959644904,-0.3652286705429309,47.039582370033116,-0.18797036759121197,0.19008021277945183,12.08752498244556,0.022972077103169213,0.03981701197293047,0.11673456386958003,,,,,,,,,,,,,,,,,auto,85.0,True,0,False,-10,15.0,0.0,-10.0,58.74506203639801,0.12545943237041804
1760882346.1327856,4.8738579750061035,-2.1134942712165475e-07,-3.343969662008067e-08,48.730913376964246,-1.5077874360634663e-07,-2.365242076729154e-08,12.121381611959544,-0.0014384503068082402,0.009395126949199424,5.7530493983876095e-05,,,,,,,,,,,0.0,-0.3309547132842647,1.0,-0.1849603358681424,0.6621393952684397,-0.7848112018306797,48.75580408791313,-0.15928054994192833,0.10675492158602316,12.096670907390644,0.020903274390321944,0.040369112830957087,0.103392836496653,,,,,,,,,,,,,,,,,auto,85.0,True,0,False,-10,15.0,0.0,-10.0,60.48499557212897,0.11294552133581594
1760882346.2425876,4.983659982681274,-2.2837638321364457e-07,-3.610602832324984e-08,50.05571796959496,-1.613447514550791e-07,-2.5223713209041626e-08,12.12286267022793,-0.001504258938450149,0.009818974908877702,6.016218412030005e-05,,,,,,,,,,,0.0,-0.2422637084297194,1.0,0.04716938837058388,0.8185217754544316,-0.5809708489968791,50.26553421817599,-0.17110766115807463,0.04624766173635609,12.124150530386972,0.024315607172768636,0.04135648403782995,-0.03704891105694015,,,,,,,,,,,,,,,,,auto,85.0,True,0,False,-10,15.0,0.0,-10.0,61.914347823124054,0.06061542159101711
1760882346.3500028,5.09107518196106,-2.4615883819286474e-07,-3.88825745090032e-08,51.35806926784929,-1.7021829255083645e-07,-2.654744234544879e-08,12.124084676189941,-0.001574275161623352,0.010245374685063851,6.29621431214129e-05,,,,,,,,,,,0.0,-0.24130774137279945,1.0,-0.09155003898231336,0.7982936451820665,-0.5743514444816888,51.22080103113129,-0.2036249592136124,0.07676343992075754,12.126358902610024,0.025904327328290202,0.041782614608512576,0.033981485375281784,,,,,,,,,,,,,,,,,auto,85.0,True,0,False,-10,15.0,0.0,-10.0,62.84906381055823,0.05976255019797248
1760882346.45751,5.198582410812378,-2.6502051600118504e-07,-4.182173177316038e-08,52.66768147772563,-1.7909086589908205e-07,-2.7887364593176068e-08,12.125117057904529,-0.0016489274760188367,0.010683556984212644,6.594749180889513e-05,,,,,,,,,,,0.0,0.11559887797918952,1.0,-0.12272735978065993,0.2852153449297478,0.28733141770534404,52.612371657294794,-0.15324497502435913,0.07532149204592281,12.135470914940948,0.02670078278885262,0.040210516620818496,0.04856917168829217,,,,,,,,,,,,,,,,,auto,85.0,True,0,False,-10,15.0,0.0,-10.0,64.31886606074383,0.0684746806267646
1760882346.5655482,5.3066205978393555,-2.848889163744252e-07,-4.491405180140635e-08,53.97770534540835,-1.8839703616574112e-07,-2.9310447855490756e-08,12.125984196694,-0.0017219615879145531,0.01113129380929657,6.886805939463153e-05,,,,,,,,,,,0.0,0.11257688841489974,1.0,0.16309516534729135,0.051543362436451204,0.5647173668105376,54.06263594332526,-0.10401649910841586,0.11972105597211752,12.131926502712982,0.028264525158991267,0.04028873396122563,-0.07647978729601713,,,,,,,,,,,,,,,,,auto,85.0,True,0,False,-10,15.0,0.0,-10.0,65.7859908001432,0.09094626617682383
1760882346.6750004,5.416072845458984,-3.0598725064858587e-07,-4.8195397577426417e-08,55.304963089552146,-1.969190427584546e-07,-3.06164141321081e-08,12.126721166730324,-0.0017928583536580057,0.011594268818470962,7.170307010561249e-05,,,,,,,,,,,0.0,-0.0033537281480491375,1.0,0.07339743115465838,-0.24229099583610042,0.3535447073666857,55.13532099707783,-0.11400885087924292,0.10486059223502602,12.084874483212593,0.026209906223837894,0.03561099416112144,-0.0271520538972713,,,,,,,,,,,,,,,,,auto,85.0,True,0,False,-10,15.0,0.0,-10.0,66.89590772277644,0.051887726104023174
1760882346.7831106,5.524183034896851,-3.2774783797146605e-07,-5.157751427369265e-08,56.616019173807345,-2.0582690739422844e-07,-3.1978788048417664e-08,12.127331656324047,-0.0018616568175577608,0.012060602959652106,7.445410776614883e-05,,,,,,,,,,,0.0,-0.003814477471461019,1.0,0.2796316142076959,-0.25613867379092903,0.36635197125479363,56.458866876484535,-0.14482876306597095,0.13289453835667903,12.087184254473387,0.029403400200882366,0.0446568513139063,-0.12344261202182369,,,,,,,,,,,,,,,,,auto,85.0,True,0,False,-10,15.0,0.0,-10.0,68.1884518632523,0.13452461773004998
1760882346.8923156,5.633388042449951,-3.505861937768952e-07,-5.512435623572664e-08,57.93429806815654,-2.1452564562750721e-07,-3.330101979435059e-08,12.127846834764838,-0.001930222720113644,0.01253856063502187,7.719578603808462e-05,,,,,,,,,,,0.0,-0.10712329458452538,1.0,0.15598056877657124,-0.34119299181016655,0.21544100389634002,57.58230750574286,-0.07184389821215081,0.12499218633645372,12.145188932738272,0.028260360218408054,0.0474518077917784,-0.09003555313651934,,,,,,,,,,,,,,,,,auto,85.0,True,0,False,-10,15.0,0.0,-10.0,69.30199784305582,0.10562538923469612
1760882346.9992695,5.740341901779175,-3.740011392929113e-07,-5.875712666261668e-08,59.231424167924686,-2.234956946343993e-07,-3.4654926425347055e-08,12.128272594141004,-0.0019980848622291694,0.01301763599311598,7.990927770029171e-05,,,,,,,,,,,0.0,-0.1510127602468328,1.0,0.10455441345347863,-0.15166548529608473,-0.05052847819792745,58.976356684347074,-0.04004507360236763,0.11352429176531406,12.135322702179847,0.02762856272443279,0.0527141429553041,-0.04707007442789997,,,,,,,,,,,,,,,,,auto,85.0,True,0,False,-10,15.0,0.0,-10.0,70.62091263607186,0.07587957730758782
1760882347.105718,5.846790313720703,-3.9843735280889226e-07,-6.254370913430925e-08,60.52861232179185,-2.3339202505661985e-07,-3.6142475813702806e-08,12.128630691192297,-0.002068836559225556,0.01350561468412404,8.273829806493685e-05,,,,,,,,,,,0.0,-0.1645537858737872,1.0,-0.04702559081281982,-0.5805898296554156,-0.1264708625379293,60.553720714948234,-0.06297771860061858,0.10373396749000417,12.081640531749184,0.03043766273068701,0.05611219553101238,0.01479256000046604,,,,,,,,,,,,,,,,,auto,85.0,True,0,False,-10,15.0,0.0,-10.0,72.25370773214306,0.06552747233935555
1760882347.214695,5.955767393112183,-4.241499540692959e-07,-6.652288194568671e-08,61.83816612696375,-2.4275014806462775e-07,-3.754299035791704e-08,12.128934593173243,-0.002142878699324894,0.014007211893641682,8.569886847374074e-05,,,,,,,,,,,0.0,-0.135851573503029,1.0,-0.17706870422823665,-0.5898706332215518,-0.11337238332015066,61.826767714850014,-0.10958741148205184,0.13826366553860425,12.084534885015747,0.030317799238277262,0.05734956131030534,0.09640800498389461,,,,,,,,,,,,,,,,,auto,85.0,True,0,False,-10,15.0,0.0,-10.0,73.49926176514226,0.11620088019508117
1760882347.3209252,6.061997652053833,-4.506904081723365e-07,-7.062489717412918e-08,63.1388461144268,-2.523698427903733e-07,-3.898043881938348e-08,12.129188212763106,-0.0022170323711694414,0.014514147354452231,8.866384805131652e-05,,,,,,,,,,,0.0,0.12867807838838768,1.0,0.2192386286064308,0.26371376231434535,0.6610326296480437,63.025995832958536,-0.059653881186532615,0.08932025905911006,12.08223912096066,0.031930173607601454,0.05915009322720993,-0.1254264457700399,,,,,,,,,,,,,,,,,auto,85.0,True,0,False,-10,15.0,0.0,-10.0,74.50094740076625,0.14230271541296727
1760882347.4287086,6.169780969619751,-4.784413787764045e-07,-7.49083179436868e-08,64.44618213893189,-2.62458602452844e-07,-4.0483183279974023e-08,12.129402436760481,-0.002290845521011726,0.015032556221793373,9.161513997818033e-05,,,,,,,,,,,0.0,-0.03146021911700753,0.9982084655337415,-0.03163268276156251,0.05513457646154117,0.3182840373000079,64.689032288428,-0.08071830866111607,0.09082617112079364,12.084087685145223,0.03201315165137671,0.06402344223119913,0.0035960101276129863,,,,,,,,,,,,,,,,,auto,85.0,True,0,False,-10,15.0,0.0,-10.0,76.17021630163535,0.0716712935743707
1760882347.5363367,6.277409076690674,-5.072831518749474e-07,-7.93536900191584e-08,65.7516567123118,-2.762942357706008e-07,-4.254797321318262e-08,12.12958193092451,-0.0023660764417087815,0.015559175316011729,9.462308254869419e-05,,,,,,,,,,,0.0,-0.6436361201916931,1.0,0.06630825031809372,-0.21510457720782433,-1.1661775537509171,65.63876617024525,-0.06266135760671532,0.08705863389996316,12.133195371209776,0.03674772857058394,0.06013818601191123,-0.028240762558681846,,,,,,,,,,,,,,,,,auto,85.0,True,0,False,-10,15.0,0.0,-10.0,77.16270034893336,0.07592455229895263
1760882347.6443164,6.3853888511657715,-5.380482770653137e-07,-8.408732957811253e-08,67.06141462760732,-2.9241299437901433e-07,-4.49583178271602e-08,12.129733076720738,-0.0024486234798680984,0.01609818372794496,9.79235985341356e-05,,,,,,,,,,,0.0,-0.35817971457742415,1.0,0.09320640644735946,0.22236460838250235,-0.8208189026964495,66.99642868698947,-0.07993508737739857,0.07694555599880384,12.117400583190467,0.03204194472958181,0.06030637291127864,-0.03962947680769757,,,,,,,,,,,,,,,,,auto,85.0,True,0,False,-10,15.0,0.0,-10.0,78.40600922116407,0.07895593877486111
1760882347.7521787,6.493251085281372,-5.704981919419371e-07,-8.907325422170096e-08,68.36976177115197,-3.073748623575406e-07,-4.720461678079303e-08,12.129859944776383,-0.002538355672018878,0.016647034486926695,0.00010151144715974048,,,,,,,,,,,0.0,-0.3272976899919334,1.0,-0.09551740619401985,0.2113953252318086,-0.8104499631109326,68.48788146679215,-0.12446451877231474,0.11472070433841877,12.116782292771312,0.030860771676591132,0.06141586208756953,0.045070491876406764,,,,,,,,,,,,,,,,,auto,85.0,True,0,False,-10,15.0,0.0,-10.0,79.87306926940079,0.08219272828185775
1760882347.8613267,6.602399110794067,-6.045625705834627e-07,-9.430293983771e-08,69.68686403025484,-3.193920661208121e-07,-4.9023346913121237e-08,12.129967330438687,-0.0026337941922357027,0.0172092850264855,0.0001053274566046508,,,,,,,,,,,0.0,-0.15830398158508266,0.9934776090175278,-0.08130474044040534,0.9656360879560637,-0.39443618408503556,69.64691593149878,-0.18642328556349957,0.15764063546169732,12.108287903071613,0.029118269237683146,0.06633350617267392,0.0325009434120322,,,,,,,,,,,,,,,,,auto,85.0,True,0,False,-10,15.0,0.0,-10.0,80.87490443715053,0.07939974160682446
1760882347.968426,6.709498405456543,-6.39488317416858e-07,-9.966343753941473e-08,70.9928339964205,-3.296114989066991e-07,-5.059115688730079e-08,12.13005682854902,-0.002730651205571864,0.017775834314251317,0.00010920013190874474,,,,,,,,,,,0.0,0.1432794328469378,1.0,0.21081279063365727,0.9279067201451936,0.43741663376823364,70.88196270324688,-0.1639982995538825,0.1369510417690021,12.144521079087387,0.02995719030911059,0.06110055479879218,-0.09730201415821699,,,,,,,,,,,,,,,,,auto,85.0,True,0,False,-10,15.0,0.0,-10.0,82.0981548715795,0.11873665401712453
1760882348.0751905,6.81626296043396,-6.753610380972914e-07,-1.0517035264911994e-07,72.28789820671597,-3.4324299502433e-07,-5.270426488194352e-08,12.130131279935712,-0.0028280449913873256,0.018346698858917217,0.0001130942040353995,,,,,,,,,,,0.0,-0.3307498422291122,1.0,-0.01912441150144907,1.7469062455889084,-0.5936733558415621,72.10376626661494,-0.16396474553781504,0.14854835817777665,12.162776805246134,0.03563732708506487,0.06031218667299422,0.006441569724199937,,,,,,,,,,,,,,,,,auto,85.0,True,0,False,-10,15.0,0.0,-10.0,83.16865621903231,0.07034964650627415
1760882348.182592,6.923664331436157,-7.129350925743671e-07,-1.1094190934854928e-07,73.59069441881196,-3.556755228725096e-07,-5.465692390873754e-08,12.130194343411894,-0.002931187875187872,0.018930535128631583,0.00011721813703909062,,,,,,,,,,,0.0,-0.23462136268659814,1.0,-0.0533021437903449,0.8502911339520022,-0.3827279356394759,73.54896086130144,-0.0873060735235868,0.18939488228055829,12.101575298649982,0.03650114139892508,0.061943250614174585,0.019941072557452193,,,,,,,,,,,,,,,,,auto,85.0,True,0,False,-10,15.0,0.0,-10.0,84.73953978320814,0.07461196951439049
1760882348.2908044,7.031876802444458,-7.52253788293668e-07,-1.1698791493105167e-07,74.90333568734904,-3.7337546627927813e-07,-5.745822488678292e-08,12.13024746844919,-0.0030395243168558593,0.019528321683769456,0.00012154969889068291,,,,,,,,,,,0.0,-0.5588905619091848,1.0,0.026666814895296456,-0.4068432003728917,-1.292807037635488,74.78729642503959,-0.08373922640465768,0.12252055867935684,12.120407979507803,0.03338976335380139,0.062335401619422845,-0.004272284636232648,,,,,,,,,,,,,,,,,auto,85.0,True,0,False,-10,15.0,0.0,-10.0,86.18542685689366,0.07084370831549258
1760882348.4011827,7.142255067825317,-7.945355378486388e-07,-1.2350099662668476e-07,76.24225393887376,-3.9228434813768405e-07,-6.049170039876567e-08,12.130292842022067,-0.0031584141773568267,0.020149240332665703,0.00012630324780089206,,,,,,,,,,,0.0,-0.21006604089614794,1.0,0.24587835112515866,0.42427529938803904,-0.5651720540869108,76.08318367480382,-0.07311064841207983,0.07508001761800177,12.120774926532865,0.03684793063959741,0.061387164959975093,-0.12006324298268088,,,,,,,,,,,,,,,,,auto,85.0,True,0,False,-10,15.0,0.0,-10.0,87.3102839394579,0.13979032988644832
1760882348.509983,7.251055479049683,-8.37650447468622e-07,-1.301570438581368e-07,77.55580443631436,-4.044070169988698e-07,-6.250998794963131e-08,12.130330438571034,-0.003280582410957681,0.020768412294111124,0.0001311878516197202,,,,,,,,,,,0.0,-0.15419171444054508,1.0,0.08891437908061867,0.5846457784814438,-0.2992971833324962,77.35683032621654,-0.04669981167239214,0.062407095246085426,12.175034042386843,0.03676055816615456,0.06013331500996598,-0.05667478347011941,,,,,,,,,,,,,,,,,auto,85.0,True,0,False,-10,15.0,0.0,-10.0,88.5387362727704,0.09043995406986866
1760882348.617172,7.3582444190979,-8.818019832336983e-07,-1.369912197379351e-07,78.86227590892264,-4.158425353378169e-07,-6.44640239958893e-08,12.130361883402832,-0.0034030716778131694,0.021393402472253773,0.00013608518635959096,,,,,,,,,,,0.0,0.28143164903560386,0.993665474370987,0.0986883220814952,0.6074764571148091,0.9056239488616508,78.43220235209509,-0.09673000919937205,-0.012878005285881908,12.142670603643989,0.035169219526304994,0.06591008494688234,-0.05089147038793544,,,,,,,,,,,,,,,,,auto,85.0,True,0,False,-10,15.0,0.0,-10.0,89.60033092300021,0.09039333525233367
1760882348.726002,7.467074394226074,-9.278105127795654e-07,-1.4413557685805442e-07,80.18242438011133,-4.297572272452642e-07,-6.684826703854223e-08,12.130388468084494,-0.003522518119138921,0.022034326367145616,0.00014086066134904178,,,,,,,,,,,0.0,0.11992103378537204,0.9928722935812683,-0.30888159161395845,0.7845976850471708,0.7989123868354704,79.71640585040292,-0.080817485076811,0.001479227819120926,12.162412013192093,0.03670927330436431,0.06828420762924597,0.15881535133315386,,,,,,,,,,,,,,,,,auto,85.0,True,0,False,-10,15.0,0.0,-10.0,90.83914025733631,0.17672752920006998
1760882348.8560402,7.597112655639648,-9.840924861643141e-07,-1.5290716801771253e-07,81.74770256937514,-4.4208574863329667e-07,-6.902907503085817e-08,12.130414679887412,-0.0036591560587268994,0.022806269310560155,0.00014632319726065168,,,,,,,,,,,0.0,0.05112628286319341,0.9916097483201199,0.0010553033450539234,-0.08932406955546746,0.6559315130429155,81.25681072637391,-0.08877665060321363,0.03023905867610047,12.134810813335243,0.03482155893416511,0.06982387864091348,0.016747054155810293,,,,,,,,,,,,,,,,,auto,85.0,True,0,False,-10,15.0,0.0,-10.0,92.49823485329384,0.07980212289133787
1760882348.9630303,7.7041027545928955,-1.032272656984977e-06,-1.6044243161925777e-07,83.05154186256476,-4.538582015358458e-07,-7.109197187350318e-08,12.130432661983795,-0.0037705830798038234,0.02345890039608482,0.0001507776660609206,,,,,,,,,,,0.0,0.07766608301839839,1.0,0.23179230042174143,-0.10178232646956979,0.6610967055528174,83.17090499349091,-0.14133353928097092,0.06652292161089009,12.134056619590202,0.030459753494262064,0.06797000037486936,-0.09860108890376344,,,,,,,,,,,,,,,,,auto,85.0,True,0,False,-10,15.0,0.0,-10.0,94.38918590387499,0.12357140553905994
1760882349.0710006,7.812072992324829,-1.082219276804382e-06,-1.6827821957335705e-07,84.36740259709802,-4.672374041765722e-07,-7.341239964059908e-08,12.130447857200936,-0.0038817254479395313,0.024126536581408512,0.00015522060654408343,,,,,,,,,,,0.0,0.06887359380516249,1.0,-0.00012252824138183488,-0.11956535853547781,0.6703725035868742,84.44425028862351,-0.18690270940013187,0.10362307480078234,12.135004268503039,0.0333274930557092,0.06617566451943963,0.025039267429784684,,,,,,,,,,,,,,,,,auto,85.0,True,0,False,-10,15.0,0.0,-10.0,95.64918749526706,0.07821064685442795
1760882349.1789784,7.920050859451294,-1.133318619363531e-06,-1.7631799980650774e-07,85.67722319284795,-4.797317261985343e-07,-7.558008816168542e-08,12.13046059847238,-0.003990943514785856,0.024800116403892354,0.0001595864701262033,,,,,,,,,,,0.0,-0.08041056434595098,1.0,0.11859101489991544,0.05155391154782565,0.23816037675960422,85.63356090290851,-0.1839835233283273,0.11650963782133587,12.154943241718401,0.0326661970062967,0.0640439298016434,-0.04306484538510127,,,,,,,,,,,,,,,,,auto,85.0,True,0,False,-10,15.0,0.0,-10.0,96.79509663094889,0.08380504924725415
1760882349.2867415,8.027813911437988,-1.1857394301416964e-06,-1.8458713852169586e-07,86.98443923981414,-4.926621718511569e-07,-7.780722263635711e-08,12.13047127670229,-0.004101750102952908,0.025481328924218522,0.00016401576119951016,,,,,,,,,,,0.0,-0.05805870534859333,1.0,-0.05147970068474151,0.029569403792605725,0.25287020847620106,86.89165458085729,-0.22324280685005815,0.15640746685893905,12.156549047284763,0.03415659349832754,0.06061432489774421,0.032244054454317356,,,,,,,,,,,,,,,,,auto,85.0,True,0,False,-10,15.0,0.0,-10.0,98.041677173508,0.07668408120250426
1760882349.394873,8.135945320129395,-1.2398382729256125e-06,-1.931411163297068e-07,88.29612468359548,-5.074165002162406e-07,-8.031995681546548e-08,12.130480222663829,-0.0042151402841967365,0.026173925775451207,0.00016854826271151674,,,,,,,,,,,0.0,-0.2176744074316091,1.0,-0.11748234296210731,0.11196590240022655,-0.231991430541385,88.18366189721952,-0.15358487378062383,0.1666138844100304,12.176167152223549,0.030984593376554747,0.05945207376174264,0.06281788868803949,,,,,,,,,,,,,,,,,auto,85.0,True,0,False,-10,15.0,0.0,-10.0,99.30628803284641,0.09187318020241296
1760882349.5040443,8.245116710662842,-1.2961992819582168e-06,-2.0207258823179173e-07,89.62042649788344,-5.264400781202728e-07,-8.351779536354619e-08,12.130487658434804,-0.0043334481602786065,0.02688265684629545,0.00017327731202060732,,,,,,,,,,,0.0,-0.2504958650431573,1.0,0.12491978910601212,0.4158976229927644,-0.48874223173043585,89.48314447708263,-0.19010938352001863,0.16972488419646037,12.232832949526689,0.024315011930457254,0.06219899679378028,-0.07186155271428663,,,,,,,,,,,,,,,,,auto,85.0,True,0,False,-10,15.0,0.0,-10.0,100.54765510025682,0.09810207829520821
1760882349.6125708,8.35364317893982,-1.3542042465049098e-06,-2.1128425363198623e-07,90.93690583381265,-5.414320788052581e-07,-8.606716307225602e-08,12.130493999314778,-0.004456066842729,0.027596969896327123,0.000178178675894527,,,,,,,,,,,0.0,-0.14790773951762654,1.0,-0.11795343153322041,-0.7615672249150379,-0.26459553707216515,90.55112236787987,-0.11131991141088665,0.15574596414190103,12.164511535250254,0.02218391470425113,0.06577264869312661,0.044956313892045914,,,,,,,,,,,,,,,,,auto,85.0,True,0,False,-10,15.0,0.0,-10.0,101.77929662570924,0.08269968286804431
1760882349.7225852,8.46365761756897,-1.4142455033607091e-06,-2.2083778879034668e-07,92.26531297690339,-5.556662986970061e-07,-8.850119967255743e-08,12.130499402899712,-0.004580964941409533,0.028326911597812806,0.00018317104189907355,,,,,,,,,,,0.0,0.2998009729966503,0.9916154370210741,0.1189271146132721,-0.1350388602472241,0.8420354128389778,92.2471055040391,-0.11440048937574347,0.0574786238273202,12.177107394087782,0.022891824742556157,0.06933910287899225,-0.059723988366052444,,,,,,,,,,,,,,,,,auto,85.0,True,0,False,-10,15.0,0.0,-10.0,103.36464099919165,0.09433398970920157
1760882349.8324957,8.573568105697632,-1.4765238045763296e-06,-2.3076725454127109e-07,93.59846664516276,-5.763451324303988e-07,-9.197844971228634e-08,12.130503745344575,-0.004702090547374392,0.029069321295249168,0.00018801234987501588,,,,,,,,,,,0.0,0.30211806485700665,1.0,0.16665178158444802,0.8064531417783409,1.0790858352233956,93.45246395878286,-0.11107460305769074,0.06514023447374766,12.12120993259975,0.019986391362283328,0.06751879499677835,-0.07803600042971487,,,,,,,,,,,,,,,,,auto,85.0,True,0,False,-10,15.0,0.0,-10.0,104.42716838926344,0.10510880496214288
1760882349.9404163,8.681488752365112,-1.539952122820385e-06,-2.408981395341869e-07,94.91383700033713,-5.939293902480712e-07,-9.493713092037824e-08,12.130507426617507,-0.004816592786510325,0.029811500760944933,0.00019258863396040958,,,,,,,,,,,0.0,0.2402100434456692,0.9848560046016748,0.018514243957953033,0.7921231722467771,1.0875902239420014,94.78249633360213,-0.15561279705677253,0.09062244825626604,12.1222148016586,0.022737359475459972,0.07281053715730973,2.2709036574058983e-05,,,,,,,,,,,,,,,,,auto,85.0,True,0,False,-10,15.0,0.0,-10.0,105.7469534045741,0.07627819054456268
1760882350.0477688,8.788841247558594,-1.6046616750311425e-06,-2.512483467417469e-07,96.21607740940229,-6.107677255101477e-07,-9.774535867632027e-08,12.13051051294685,-0.004924483742428098,0.030555680674831272,0.00019690037332751188,,,,,,,,,,,0.0,0.2325717158942525,0.9897211879920579,0.11110195527402694,0.7729609209684681,1.0986630823400532,96.038404643271,-0.20143210553694252,0.11466575809116607,12.123682520342696,0.021282959049677405,0.07288928402382638,-0.040081168048943794,,,,,,,,,,,,,,,,,auto,85.0,True,0,False,-10,15.0,0.0,-10.0,106.99420059430727,0.085862169222446
1760882350.156142,8.897214412689209,-1.6716292784241243e-06,-2.6196989272477066e-07,97.53069937912208,-6.261775180641155e-07,-1.0028463776611017e-07,12.130513184921542,-0.005030658066781209,0.03131603639439877,0.00020114328133054074,,,,,,,,,,,0.0,0.08034162330487211,0.9891306024749265,0.21788565688334696,0.032413240731832216,0.6824554381828261,97.23074074315737,-0.18927499232969475,0.02583628608607575,12.10848279206183,0.022604164954997032,0.07338091074281367,-0.08663698731553655,,,,,,,,,,,,,,,,,auto,85.0,True,0,False,-10,15.0,0.0,-10.0,108.2724626077543,0.11576559897426326
1760882350.2646275,9.005699872970581,-1.740283794399349e-06,-2.729670553589047e-07,98.8466838147902,-6.389987192929448e-07,-1.0236513737241478e-07,12.13051552034826,-0.005134307854812507,0.03208624734129068,0.0002052850753220808,,,,,,,,,,,0.0,0.1768184660344851,0.9806660612710788,-0.005348432984741388,0.02287402737862717,0.9070564320223887,98.4959664913435,-0.10452057458054871,-0.01673041576279754,12.123755639694808,0.02403145461359677,0.0762341806977887,0.005075706146128199,,,,,,,,,,,,,,,,,auto,85.0,True,0,False,-10,15.0,0.0,-10.0,109.52858895585834,0.08009322012748835
1760882350.3730612,9.114133596420288,-1.810311231525327e-06,-2.8418456369628144e-07,100.16204088870582,-6.533162936594428e-07,-1.0463867129828621e-07,12.130517449017404,-0.00523553424237309,0.032864841852194134,0.00020932980844255518,,,,,,,,,,,0.0,0.1502609088332034,0.9708690679391319,-0.2849426289825259,0.00892456705217417,0.9069359815207999,100.32083007888326,-0.1540706706960698,0.015094830938420447,12.125866992193227,0.028111781127205575,0.07985073612784316,0.1492992425978309,,,,,,,,,,,,,,,,,auto,85.0,True,0,False,-10,15.0,0.0,-10.0,111.33840498590207,0.17162947339716542
1760882350.4826288,9.223701238632202,-1.8823036991505255e-06,-2.9571190223776396e-07,101.48496399640587,-6.675684014221079e-07,-1.0684959210899594e-07,12.130519093014826,-0.005333546407090422,0.033656843387660576,0.00021324582237356094,,,,,,,,,,,0.0,-0.2858723580932549,0.9686733071761965,0.10502552462307481,0.6160561568949214,-0.07672134160491517,101.23999868100323,-0.10712428647906365,0.03434885291551258,12.139457313324149,0.026861063189985677,0.08147378787229666,-0.03412275106065384,,,,,,,,,,,,,,,,,auto,85.0,True,0,False,-10,15.0,0.0,-10.0,112.16613139979223,0.09232473647892935
1760882350.5901883,9.331260681152344,-1.955305542850153e-06,-3.07390083804295e-07,102.79590512343309,-6.848354122181159e-07,-1.0948493963336748e-07,12.130520383407417,-0.0054322903301003206,0.034450580061051464,0.00021719102392716755,,,,,,,,,,,0.0,-0.18299133977413568,0.9790490608205028,0.18138110184780123,-0.2814002208913418,-0.09443425435584829,102.57291043115555,-0.09669029311827974,0.028273227275109176,12.108580100795056,0.027639953608410723,0.08034495292024166,-0.09803125060442118,,,,,,,,,,,,,,,,,auto,85.0,True,0,False,-10,15.0,0.0,-10.0,113.60541480704353,0.12972819504756003
1760882350.698974,9.440046310424805,-2.03079229391992e-06,-3.194491338143731e-07,104.11553147701474,-7.036544314121864e-07,-1.1231906156206164e-07,12.130521442103179,-0.005536256027938315,0.03525886006049733,0.00022134493606838912,,,,,,,,,,,0.0,-0.4095529944145732,0.9889880046980598,-0.13926311043159087,-0.16527637154296734,-0.7740962265139164,103.90450611045203,-0.0991488852092875,0.0466627006047889,12.091969632053274,0.028751823843637177,0.07808339411032537,0.07444646764888294,,,,,,,,,,,,,,,,,auto,85.0,True,0,False,-10,15.0,0.0,-10.0,114.9122332245753,0.11165106517861847
1760882350.808149,9.549221515655518,-2.1092574327197023e-06,-3.319614800306507e-07,105.4398836786303,-7.321567186108326e-07,-1.1663932390975217e-07,12.130522082059136,-0.005647268068401278,0.036080135178105516,0.0002257805451751184,,,,,,,,,,,0.0,-0.3392413085228357,0.9743123437593882,0.062381756240558674,-0.1787362188029269,-0.7667245381020704,105.25659634258511,-0.14819606698113794,0.08896077758399043,12.094406089431901,0.029257157846085034,0.08211034475779369,-0.04741180764008035,,,,,,,,,,,,,,,,,auto,85.0,True,0,False,-10,15.0,0.0,-10.0,116.25431131874177,0.0992268587892132
1760882350.9166095,9.657681941986084,-2.189803130283181e-06,-3.447812285263593e-07,106.75556531519327,-7.526289484199056e-07,-1.1967999710952982e-07,12.130522810554195,-0.005764673862070433,0.03690598924402157,0.00023047178621960165,,,,,,,,,,,0.0,-0.3288507897672583,0.9687760087066949,-0.02123878488141543,-0.19748217427046336,-0.755075271495933,106.42583352800827,-0.19733143164846795,0.12682359423401357,12.09587100081871,0.032258900499812074,0.08405269103235463,-0.009125489068941561,,,,,,,,,,,,,,,,,auto,85.0,True,0,False,-10,15.0,0.0,-10.0,117.41596278102219,0.09049180118654185
1760882351.0235918,9.76466417312622,-2.2710442825429514e-06,-3.5768909908952374e-07,108.05331575304977,-7.667312124578309e-07,-1.2171926706891272e-07,12.130523573502394,-0.005885215678701811,0.037729530996680895,0.0002352883801963455,,,,,,,,,,,0.0,-0.32999294390339634,0.9630825206981266,-0.12154476911195566,-0.22143061621574955,-0.7395231243853289,108.03994279344742,-0.25021777413453605,0.16447825045838163,12.097568565765028,0.03619942694878985,0.08611051212907561,0.06396493726542395,,,,,,,,,,,,,,,,,auto,85.0,True,0,False,-10,15.0,0.0,-10.0,119.01960737263467,0.11321188987876703
1760882351.1321728,9.873245239257812,-2.3551236928967153e-06,-3.7102567550640324e-07,109.37046097110081,-7.841977257605647e-07,-1.2428250459762092e-07,12.130524157109457,-0.006012060906000617,0.038574206528914065,0.00024035686870583586,,,,,,,,,,,0.0,-0.32396974874836487,0.956190942985721,0.01555213250255342,-0.251575147377561,-0.7192027309179029,109.03791545710844,-0.30458592676256213,0.21146422744076715,12.099658407593514,0.038899381595476,0.08839479506562284,0.0005363124746158993,,,,,,,,,,,,,,,,,auto,85.0,True,0,False,-10,15.0,0.0,-10.0,120.01313725346056,0.09657685703249172
1760882351.242312,9.983384370803833,-2.4420070521434567e-06,-3.8478439010543736e-07,110.70013789897901,-8.0088351945315e-07,-1.2673110093857576e-07,12.130524685022396,-0.00614570850929314,0.03943623508812672,0.00024569722313133065,,,,,,,,,,,0.0,-0.31135079435851337,0.9739181239467343,0.05048275172287929,-0.287928572707512,-0.6935233874697037,110.50563568913675,-0.35915793911604943,0.25644252770514225,12.100724842963702,0.037939168631404264,0.08585172297903244,-0.014803779948204837,,,,,,,,,,,,,,,,,auto,85.0,True,0,False,-10,15.0,0.0,-10.0,121.473494917929,0.09502131737492134
1760882351.3487222,10.089794635772705,-2.5288426582759716e-06,-3.9851518523430546e-07,111.9973187589646,-8.218723983910434e-07,-1.298714865464494e-07,12.130525014955461,-0.006281391451774823,0.040286311892241376,0.0002511189448174986,,,,,,,,,,,0.0,-0.30422513426422615,0.9597425820446579,0.08123724230063026,-0.3289974736899278,-0.6635347752069864,111.7468881067198,-0.40912166795852223,0.30385613687721447,12.101329102101307,0.03859460788179124,0.08872497947826063,-0.03944910177844418,,,,,,,,,,,,,,,,,auto,85.0,True,0,False,-10,15.0,0.0,-10.0,122.70991486272187,0.10448874280080625
1760882351.457863,10.198935508728027,-2.6241584107340272e-06,-4.135605966906401e-07,113.32125475809185,-9.207568779857785e-07,-1.4521638478635319e-07,12.130523481956144,-0.006431667274651163,0.041167539771207275,0.00025712384959090116,,,,,,,,,,,0.0,-0.9533625048634682,0.961592278846592,-0.03628364748820448,-0.024273569287643588,-2.5631278635251453,113.36043179636283,-0.29010180506475525,0.18194086896243705,12.080241169778018,0.03934273598146695,0.08929963363639283,0.008762855554001789,,,,,,,,,,,,,,,,,auto,85.0,True,0,False,-10,15.0,0.0,-10.0,124.29840929679936,0.09797480839257454
1760882351.5670109,10.308083295822144,-2.7279144749704236e-06,-4.2991648379878804e-07,114.63907086878238,-9.895948118363037e-07,-1.5594544927803277e-07,12.13052277339073,-0.006597237135275503,0.04206075832681914,0.00026373897849575807,,,,,,,,,,,0.0,-0.8353313613409643,0.954594508153079,0.2227913058202723,-0.058626139395623084,-2.5409594358900374,114.9139110879897,-0.3422372740596966,0.22534077065418914,12.08270288226515,0.033323592963904455,0.09148623220734471,-0.10960607418512963,,,,,,,,,,,,,,,,,auto,85.0,True,0,False,-10,15.0,0.0,-10.0,125.84396640029718,0.14660724412455312
1760882351.675772,10.416844367980957,-2.837202189681217e-06,-4.471375046957828e-07,115.9646032001475,-9.998831135324468e-07,-1.5756157891438077e-07,12.130523451701016,-0.006773812668211814,0.04297204092819733,0.0002707934964675737,,,,,,,,,,,0.0,-0.015560571890802982,0.9472342729488378,0.020499051630061972,0.03625531066602509,-0.28670630840123834,115.75758500854495,-0.2766921673540305,0.17565928121209473,12.047199196515027,0.034143587406144045,0.0940020186157638,-0.030819640148682916,,,,,,,,,,,,,,,,,auto,85.0,True,0,False,-10,15.0,0.0,-10.0,126.64503955077063,0.10465187185948328
1760882351.784985,10.526057481765747,-2.9462222083308633e-06,-4.643197466952347e-07,117.28941548748342,-9.965851827654715e-07,-1.5710416314877012e-07,12.130524336984355,-0.006951258284198611,0.04389106994680283,0.0002778825634280834,,,,,,,,,,,0.0,-0.12747896077882093,0.9323350261997507,0.03773317057694375,0.002963545313397325,-0.2650974426772642,117.20816421806546,-0.33372482886855215,0.22018642523449775,12.050567796395537,0.035032277386131384,0.09861621618129209,-0.024955928740341304,,,,,,,,,,,,,,,,,auto,85.0,True,0,False,-10,15.0,0.0,-10.0,128.08941573294658,0.10758818212084068
1760882351.8949146,10.635987043380737,-3.0556136555131716e-06,-4.815711169800708e-07,118.61678740054609,-1.0075811022158494e-06,-1.5897450895477948e-07,12.130524811727792,-0.0071272705927204255,0.04482025549063277,0.00028491401915504446,,,,,,,,,,,0.0,0.45273886932807417,0.9133732197824489,0.0691472576599855,1.0453496655251318,1.4961468207298925,118.37678406983306,-0.1677286271390564,0.15961539890228088,12.121292017345937,0.03552449711879317,0.10422319566511824,-0.04905635787860996,,,,,,,,,,,,,,,,,auto,85.0,True,0,False,-10,15.0,0.0,-10.0,129.14166411108067,0.12054455880920932
1760882352.0026827,10.743755102157593,-3.1658053181482924e-06,-4.98966938041896e-07,119.93020186582307,-1.019710731637424e-06,-1.6106230821760684e-07,12.130525210485978,-0.00729383447905057,0.045749348741158276,0.00029156738005462157,,,,,,,,,,,0.0,-0.10643528453290367,0.9121313480657658,0.12410966342332294,0.0006619009128988446,0.43488359991698544,119.83851626608306,-0.23639936112836335,0.15117481531044705,12.092069446931085,0.037198714883053235,0.1070300735569517,-0.048441445839859223,,,,,,,,,,,,,,,,,auto,85.0,True,0,False,-10,15.0,0.0,-10.0,130.70275273816583,0.1232304942358554
1760882352.1120365,10.853108882904053,-3.2767806544295592e-06,-5.16504666684255e-07,121.25058356731061,-1.0187055272586702e-06,-1.6107569539407878e-07,12.130525835522286,-0.0074610566521852465,0.04669152716301631,0.0002982467744616598,,,,,,,,,,,0.0,0.03214338886940747,0.9167214165150741,-0.04002998549759156,0.9701333824602463,0.6525875711853276,120.98533707704985,-0.20820399743856519,0.1598862679609991,12.107925544379448,0.040203519881744816,0.10674556359258695,0.012935970848949034,,,,,,,,,,,,,,,,,auto,85.0,True,0,False,-10,15.0,0.0,-10.0,131.73618165497433,0.11479667982736146
1760882352.2174695,10.958541870117188,-3.3846920013262975e-06,-5.33577091366685e-07,122.5356782980324,-1.0209821060273271e-06,-1.6162653558750322e-07,12.130526314265186,-0.007624693112642168,0.04761597872316128,0.00030478275077350925,,,,,,,,,,,0.0,-0.2112496310878727,0.9105382239785573,0.09979053931211733,1.0237064503489202,0.009675543995705381,122.25248521477575,-0.16343977937423018,0.19820972276568946,12.088296763999436,0.040203891261664244,0.10893164048684582,-0.061258667737402,,,,,,,,,,,,,,,,,auto,85.0,True,0,False,-10,15.0,0.0,-10.0,132.9889345791094,0.1312824418751288
1760882352.3258893,11.066961765289307,-3.495413922940768e-06,-5.511170470063048e-07,123.84471422523112,-1.0285982473385248e-06,-1.630547122318856e-07,12.130526652998956,-0.007795540619494905,0.04856579530011272,0.00031160673969653614,,,,,,,,,,,0.0,-0.3744536388395265,0.9412117197671269,-0.17696421934554307,-0.2539647878736977,-0.4457763309026761,123.6014653921381,-0.17547727689627007,0.20155670692738917,12.035849224552763,0.0422359175506444,0.10278897570649732,0.07452040584838143,,,,,,,,,,,,,,,,,auto,85.0,True,0,False,-10,15.0,0.0,-10.0,134.47019637530673,0.13380111040624146
