timestamp,simulation_time,position_x,position_y,position_z,velocity_x,velocity_y,velocity_z,attitude_roll,attitude_pitch,attitude_yaw,control_throttle,control_roll,control_pitch,control_yaw,estimated_position_x,estimated_position_y,estimated_position_z,flight_mode,battery_level,setpoint_altitude,setpoint_position_x,setpoint_position_y,setpoint_position_z,position_error,attitude_error,waypoint_index,mission_complete
1761121300.1697993,6.194139003753662,0.0,0.0,-0.0,0.0,0.0,-0.0,0.0,0.0,0.0,0.0,0.0,0.0,0.0,0.0,0.0,-0.0,manual,85.0,0.0,0.0,0.0,0.0,0.0,0.0,0,0
1761121300.2731817,6.297521352767944,0.0,0.0,-0.0,0.0,0.0,-0.0,0.0,0.0,0.0,0.0,0.0,0.0,0.0,0.0,0.0,-0.0,manual,85.0,0.0,0.0,0.0,0.0,0.0,0.0,0,0
1761121300.374948,6.399287700653076,0.0,0.0,-0.0,0.0,0.0,-0.0,0.0,0.0,0.0,0.0,0.0,0.0,0.0,0.0,0.0,-0.0,manual,85.0,0.0,0.0,0.0,0.0,0.0,0.0,0,0
1761121300.478984,6.503323793411255,0.0,0.0,-0.0,0.0,0.0,-0.0,0.0,0.0,0.0,0.0,0.0,0.0,0.0,0.0,0.0,-0.0,manual,85.0,0.0,0.0,0.0,0.0,0.0,0.0,0,0
1761121300.580998,6.605337619781494,0.0,0.0,-0.0,0.0,0.0,-0.0,0.0,0.0,0.0,0.0,0.0,0.0,0.0,0.0,0.0,-0.0,manual,85.0,0.0,0.0,0.0,0.0,0.0,0.0,0,0
1761121300.6835933,6.707932949066162,0.0,0.0,-0.0,0.0,0.0,-0.0,0.0,0.0,0.0,0.0,0.0,0.0,0.0,0.0,0.0,-0.0,manual,85.0,0.0,0.0,0.0,0.0,0.0,0.0,0,0
1761121300.7881002,6.812439918518066,0.0,0.0,-0.0,0.0,0.0,-0.0,0.0,0.0,0.0,0.0,0.0,0.0,0.0,0.0,0.0,-0.0,manual,85.0,0.0,0.0,0.0,0.0,0.0,0.0,0,0
1761121300.8897789,6.914118528366089,0.0,0.0,-0.0,0.0,0.0,-0.0,0.0,0.0,0.0,0.0,0.0,0.0,0.0,0.0,0.0,-0.0,manual,85.0,0.0,0.0,0.0,0.0,0.0,0.0,0,0
1761121300.9938958,7.018235445022583,0.0,0.0,-0.0,0.0,0.0,-0.0,0.0,0.0,0.0,0.0,0.0,0.0,0.0,0.0,0.0,-0.0,manual,85.0,0.0,0.0,0.0,0.0,0.0,0.0,0,0
1761121301.0977573,7.122097015380859,0.0,0.0,-0.0,0.0,0.0,-0.0,0.0,0.0,0.0,0.0,0.0,0.0,0.0,0.0,0.0,-0.0,manual,85.0,0.0,0.0,0.0,0.0,0.0,0.0,0,0
1761121301.2029243,7.227263927459717,0.0,0.0,-0.0,0.0,0.0,-0.0,0.0,0.0,0.0,0.0,0.0,0.0,0.0,0.0,0.0,-0.0,manual,85.0,0.0,0.0,0.0,0.0,0.0,0.0,0,0
1761121301.3085883,7.332927942276001,0.0,0.0,-0.0,0.0,0.0,-0.0,0.0,0.0,0.0,0.0,0.0,0.0,0.0,0.0,0.0,-0.0,manual,85.0,0.0,0.0,0.0,0.0,0.0,0.0,0,0
1761121301.4123104,7.436650037765503,0.0,0.0,0.0013120609285195112,0.0,0.0,0.12619586376849334,0.0,0.0,0.0,0.8520004098643098,0.0,0.0,0.0,0.0,0.0,0.0013120609285195112,stabilize,85.0,2.0,0.0,0.0,-2.0,1.9986879390714805,0.0,0,0
1761121301.5153399,7.539679527282715,0.0,0.0,0.045801606830937515,0.0,0.0,0.6203383298816312,0.0,0.0,0.0,0.15200040986430985,0.0,0.0,0.0,0.0,0.0,0.045801606830937515,stabilize,85.0,2.0,0.0,0.0,-2.0,1.9541983931690625,0.0,0,0
1761121301.6198983,7.644237995147705,0.0,0.0,0.11650136014295132,0.0,0.0,0.6596024637877389,0.0,0.0,0.0,0.15200040986430985,0.0,0.0,0.0,0.0,0.0,0.11650136014295132,stabilize,85.0,2.0,0.0,0.0,-2.0,1.8834986398570486,0.0,0,0
1761121301.7282271,7.752566814422607,0.0,0.0,0.19258399026999254,0.0,0.0,0.7021934841507088,0.0,0.0,0.0,0.15200040986430985,0.0,0.0,0.0,0.0,0.0,0.19258399026999254,stabilize,85.0,2.0,0.0,0.0,-2.0,1.8074160097300074,0.0,0,0
1761121301.8303087,7.8546483516693115,0.0,0.0,0.267217428568258,0.0,0.0,0.6984169993731905,0.0,0.0,0.0,0.15200040986430985,0.0,0.0,0.0,0.0,0.0,0.267217428568258,stabilize,85.0,2.0,0.0,0.0,-2.0,1.732782571431742,0.0,0,0
1761121301.9331005,7.957440137863159,0.0,0.0,0.3423788440444427,0.0,0.0,0.696338507392774,0.0,0.0,0.0,0.15200040986430985,0.0,0.0,0.0,0.0,0.0,0.3423788440444427,stabilize,85.0,2.0,0.0,0.0,-2.0,1.6576211559555574,0.0,0,0
1761121302.0376008,8.061940431594849,0.0,0.0,0.41861229427406554,0.0,0.0,0.694061392526336,0.0,0.0,0.0,0.15200040986430985,0.0,0.0,0.0,0.0,0.0,0.41861229427406554,stabilize,85.0,2.0,0.0,0.0,-2.0,1.5813877057259345,0.0,0,0
1761121302.1483548,8.172694444656372,0.0,0.0,0.4993019363487034,0.0,0.0,0.7094534698321792,0.0,0.0,0.0,0.15200040986430985,0.0,0.0,0.0,0.0,0.0,0.4993019363487034,stabilize,85.0,2.0,0.0,0.0,-2.0,1.5006980636512965,0.0,0,0
1761121302.2518752,8.276214838027954,0.0,0.0,0.5755486422466708,0.0,0.0,0.703569001741305,0.0,0.0,0.0,0.15200040986430985,0.0,0.0,0.0,0.0,0.0,0.5755486422466708,stabilize,85.0,2.0,0.0,0.0,-2.0,1.424451357753329,0.0,0,0
1761121302.3545513,8.378890991210938,0.0,0.0,0.6502835097250728,0.0,0.0,0.6921982998302665,0.0,0.0,0.0,0.15200040986430985,0.0,0.0,0.0,0.0,0.0,0.6502835097250728,stabilize,85.0,2.0,0.0,0.0,-2.0,1.3497164902749272,0.0,0,0
1761121302.4579504,8.482290029525757,0.0,0.0,0.7245184408579375,0.0,0.0,0.6781420782830506,0.0,0.0,0.0,0.15200040986430985,0.0,0.0,0.0,0.0,0.0,0.7245184408579375,stabilize,85.0,2.0,0.0,0.0,-2.0,1.2754815591420625,0.0,0,0
1761121302.5609188,8.585258483886719,0.0,0.0,0.7971882282671597,0.0,0.0,0.6716531225118567,0.0,0.0,0.0,0.15200040986430985,0.0,0.0,0.0,0.0,0.0,0.7971882282671597,stabilize,85.0,2.0,0.0,0.0,-2.0,1.2028117717328404,0.0,0,0
1761121302.6654243,8.689764022827148,0.0,0.0,0.8703665710389836,0.0,0.0,0.6649901413048962,0.0,0.0,0.0,0.15200040986430985,0.0,0.0,0.0,0.0,0.0,0.8703665710389836,stabilize,85.0,2.0,0.0,0.0,-2.0,1.1296334289610164,0.0,0,0
1761121302.769185,8.793524742126465,0.0,0.0,0.94183653316883,0.0,0.0,0.6519845782472686,0.0,0.0,0.0,0.15200040986430985,0.0,0.0,0.0,0.0,0.0,0.94183653316883,stabilize,85.0,2.0,0.0,0.0,-2.0,1.0581634668311701,0.0,0,0
1761121302.8749003,8.899240016937256,0.0,0.0,1.013530407646456,0.0,0.0,0.6367483477489642,0.0,0.0,0.0,0.15200040986430985,0.0,0.0,0.0,0.0,0.0,1.013530407646456,stabilize,85.0,2.0,0.0,0.0,-2.0,0.986469592353544,0.0,0,0
1761121302.9794612,9.003800868988037,0.0,0.0,1.0818347900508192,0.0,0.0,0.6051656177301206,0.0,0.0,0.0,0.15200040986430985,0.0,0.0,0.0,0.0,0.0,1.0818347900508192,stabilize,85.0,2.0,0.0,0.0,-2.0,0.9181652099491808,0.0,0,0
1761121303.082721,9.107060670852661,0.0,0.0,1.147243601619347,0.0,0.0,0.6015129782727993,0.0,0.0,0.0,0.15200040986430985,0.0,0.0,0.0,0.0,0.0,1.147243601619347,stabilize,85.0,2.0,0.0,0.0,-2.0,0.852756398380653,0.0,0,0
1761121303.1896288,9.213968515396118,0.0,0.0,1.211418583172967,0.0,0.0,0.5435494251136737,0.0,0.0,0.0,0.22347660418915283,0.0,0.0,0.0,0.0,0.0,1.211418583172967,stabilize,85.0,2.0,0.0,0.0,-2.0,0.7885814168270331,0.0,0,0
1761121303.2940452,9.318384885787964,0.0,0.0,1.271540849612111,0.0,0.0,0.5311774822067391,0.0,0.0,0.0,0.15200040986430985,0.0,0.0,0.0,0.0,0.0,1.271540849612111,stabilize,85.0,2.0,0.0,0.0,-2.0,0.728459150387889,0.0,0,0
1761121303.3997962,9.42413592338562,0.0,0.0,1.3305955558981908,0.0,0.0,0.5214171865925318,0.0,0.0,0.0,0.15200040986430985,0.0,0.0,0.0,0.0,0.0,1.3305955558981908,stabilize,85.0,2.0,0.0,0.0,-2.0,0.6694044441018092,0.0,0,0
1761121303.5031145,9.527454137802124,0.0,0.0,1.3868080353649372,0.0,0.0,0.5057583260075709,0.0,0.0,0.0,0.15200040986430985,0.0,0.0,0.0,0.0,0.0,1.3868080353649372,stabilize,85.0,2.0,0.0,0.0,-2.0,0.6131919646350628,0.0,0,0
1761121303.6066153,9.63095498085022,0.0,0.0,1.438426092532752,0.0,0.0,0.38583018364114696,0.0,0.0,0.0,0.23592938118343493,0.0,0.0,0.0,0.0,0.0,1.438426092532752,stabilize,85.0,2.0,0.0,0.0,-2.0,0.5615739074672479,0.0,0,0
1761121303.7110615,9.735401153564453,0.0,0.0,1.485155105027591,0.0,0.0,0.412530129701376,0.0,0.0,0.0,0.15200040986430985,0.0,0.0,0.0,0.0,0.0,1.485155105027591,stabilize,85.0,2.0,0.0,0.0,-2.0,0.5148448949724089,0.0,0,0
1761121303.8159947,9.840334415435791,0.0,0.0,1.5221472769659474,0.0,0.0,0.2540091587123168,0.0,0.0,0.0,0.15200040986430985,0.0,0.0,0.0,0.0,0.0,1.5221472769659474,stabilize,85.0,2.0,0.0,0.0,-2.0,0.4778527230340526,0.0,0,0
1761121303.9194968,9.943836450576782,0.0,0.0,1.5516446500724905,0.0,0.0,0.2510562213541288,0.0,0.0,0.0,0.15200040986430985,0.0,0.0,0.0,0.0,0.0,1.5516446500724905,stabilize,85.0,2.0,0.0,0.0,-2.0,0.4483553499275095,0.0,0,0
1761121304.0224288,10.046768426895142,0.0,0.0,1.580529219238693,0.0,0.0,0.24649432846889147,0.0,0.0,0.0,0.15200040986430985,0.0,0.0,0.0,0.0,0.0,1.580529219238693,stabilize,85.0,2.0,0.0,0.0,-2.0,0.41947078076130695,0.0,0,0
1761121304.1281326,10.152472257614136,0.0,0.0,1.6097921836492814,0.0,0.0,0.2379082309088506,0.0,0.0,0.0,0.15200040986430985,0.0,0.0,0.0,0.0,0.0,1.6097921836492814,stabilize,85.0,2.0,0.0,0.0,-2.0,0.39020781635071855,0.0,0,0
1761121304.232281,10.256620645523071,0.0,0.0,1.6379545254227605,0.0,0.0,0.23618213503964597,0.0,0.0,0.0,0.15200040986430985,0.0,0.0,0.0,0.0,0.0,1.6379545254227605,stabilize,85.0,2.0,0.0,0.0,-2.0,0.36204547457723946,0.0,0,0
1761121304.3360157,10.360355377197266,0.0,0.0,1.6653934572921383,0.0,0.0,0.23047832864524376,0.0,0.0,0.0,0.15200040986430985,0.0,0.0,0.0,0.0,0.0,1.6653934572921383,stabilize,85.0,2.0,0.0,0.0,-2.0,0.3346065427078617,0.0,0,0
1761121304.4465177,10.470857381820679,0.0,0.0,1.6924279770915092,0.0,0.0,0.20149585367986528,0.0,0.0,0.0,0.15200040986430985,0.0,0.0,0.0,0.0,0.0,1.6924279770915092,stabilize,85.0,2.0,0.0,0.0,-2.0,0.30757202290849084,0.0,0,0
1761121304.5499883,10.574327945709229,0.0,0.0,1.7169588497376767,0.0,0.0,0.202658809118628,0.0,0.0,0.0,0.15200040986430985,0.0,0.0,0.0,0.0,0.0,1.7169588497376767,stabilize,85.0,2.0,0.0,0.0,-2.0,0.28304115026232335,0.0,0,0
1761121304.654027,10.678366661071777,0.0,0.0,1.7409098229058826,0.0,0.0,0.19313848078807752,0.0,0.0,0.0,0.15200040986430985,0.0,0.0,0.0,0.0,0.0,1.7409098229058826,stabilize,85.0,2.0,0.0,0.0,-2.0,0.2590901770941174,0.0,0,0
1761121304.7593234,10.783663034439087,0.0,0.0,1.7647304823493914,0.0,0.0,0.19151456765598568,0.0,0.0,0.0,0.15200040986430985,0.0,0.0,0.0,0.0,0.0,1.7647304823493914,stabilize,85.0,2.0,0.0,0.0,-2.0,0.23526951765060855,0.0,0,0
1761121304.8622663,10.886605978012085,0.0,0.0,1.787484466431602,0.0,0.0,0.18770871938963704,0.0,0.0,0.0,0.15200040986430985,0.0,0.0,0.0,0.0,0.0,1.787484466431602,stabilize,85.0,2.0,0.0,0.0,-2.0,0.21251553356839792,0.0,0,0
1761121304.9648557,10.989195346832275,0.0,0.0,1.8101009659652665,0.0,0.0,0.18893361652978685,0.0,0.0,0.0,0.15200040986430985,0.0,0.0,0.0,0.0,0.0,1.8101009659652665,stabilize,85.0,2.0,0.0,0.0,-2.0,0.18989903403473352,0.0,0,0
1761121305.070158,11.094497680664062,0.0,0.0,1.83159274741167,0.0,0.0,0.16615260550175537,0.0,0.0,0.0,0.15200040986430985,0.0,0.0,0.0,0.0,0.0,1.83159274741167,stabilize,85.0,2.0,0.0,0.0,-2.0,0.16840725258833,0.0,0,0
1761121305.1743662,11.198705911636353,0.0,0.0,1.852319737648952,0.0,0.0,0.16476362660953986,0.0,0.0,0.0,0.15200040986430985,0.0,0.0,0.0,0.0,0.0,1.852319737648952,stabilize,85.0,2.0,0.0,0.0,-2.0,0.14768026235104803,0.0,0,0
1761121305.2792475,11.303587198257446,0.0,0.0,1.8729520684427252,0.0,0.0,0.16652691731575903,0.0,0.0,0.0,0.15200040986430985,0.0,0.0,0.0,0.0,0.0,1.8729520684427252,stabilize,85.0,2.0,0.0,0.0,-2.0,0.12704793155727478,0.0,0,0
1761121305.3832378,11.407577514648438,0.0,0.0,1.8932427289419707,0.0,0.0,0.16120979355337822,0.0,0.0,0.0,0.15200040986430985,0.0,0.0,0.0,0.0,0.0,1.8932427289419707,stabilize,85.0,2.0,0.0,0.0,-2.0,0.10675727105802935,0.0,0,0
1761121305.4876359,11.511975526809692,0.0,0.0,1.9133457599529908,0.0,0.0,0.15201860723788946,0.0,0.0,0.0,0.15200040986430985,0.0,0.0,0.0,0.0,0.0,1.9133457599529908,stabilize,85.0,2.0,0.0,0.0,-2.0,0.08665424004700917,0.0,0,0
1761121305.5933554,11.617695093154907,0.0,0.0,1.9328443926618033,0.0,0.0,0.14870081513860814,0.0,0.0,0.0,0.15200040986430985,0.0,0.0,0.0,0.0,0.0,1.9328443926618033,stabilize,85.0,2.0,0.0,0.0,-2.0,0.0671556073381967,0.0,0,0
1761121305.698075,11.72241473197937,0.0,0.0,1.9516207713286893,0.0,0.0,0.14263212500688716,0.0,0.0,0.0,0.15200040986430985,0.0,0.0,0.0,0.0,0.0,1.9516207713286893,stabilize,85.0,2.0,0.0,0.0,-2.0,0.048379228671310726,0.0,0,0
1761121305.802375,11.826714754104614,0.0,0.0,1.9697031112390213,0.0,0.0,0.13962066552837588,0.0,0.0,0.0,0.15200040986430985,0.0,0.0,0.0,0.0,0.0,1.9697031112390213,stabilize,85.0,2.0,0.0,0.0,-2.0,0.03029688876097869,0.0,0,0
1761121305.9064786,11.930818319320679,0.0,0.0,1.9874756090842705,0.0,0.0,0.14250867046381205,0.0,0.0,0.0,0.15200040986430985,0.0,0.0,0.0,0.0,0.0,1.9874756090842705,stabilize,85.0,2.0,0.0,0.0,-2.0,0.012524390915729544,0.0,0,0
1761121306.009926,12.034265756607056,0.0,0.0,2.00277382732038,0.0,0.0,0.11148306878684909,0.0,0.0,0.0,0.15200040986430985,0.0,0.0,0.0,0.0,0.0,2.00277382732038,stabilize,85.0,2.0,0.0,0.0,-2.0,0.002773827320380118,0.0,0,0
1761121306.1129832,12.137322902679443,0.0,0.0,2.0172940117822544,0.0,0.0,0.10904739603610766,0.0,0.0,0.0,0.15200040986430985,0.0,0.0,0.0,0.0,0.0,2.0172940117822544,stabilize,85.0,2.0,0.0,0.0,-2.0,0.017294011782254426,0.0,0,0
1761121306.2214587,12.245798349380493,0.0,0.0,2.0311168193469,0.0,0.0,0.1556830678206032,0.0,0.0,0.0,0.8520004098643098,0.0,0.0,0.0,0.0,0.0,2.0311168193469,stabilize,85.0,2.0,0.0,0.0,-2.0,0.031116819346900026,0.0,0,0
1761121306.3242574,12.348597049713135,0.0,0.0,2.043811302293539,0.0,0.0,0.15494847072173862,0.0,0.0,0.0,0.8520004098643098,0.0,0.0,0.0,0.0,0.0,2.043811302293539,stabilize,85.0,2.0,0.0,0.0,-2.0,0.04381130229353891,0.0,0,0
1761121306.4261453,12.450484991073608,0.0,0.0,2.0564113017275285,0.0,0.0,0.1549466239486363,0.0,0.0,0.0,0.8520004098643098,0.0,0.0,0.0,0.0,0.0,2.0564113017275285,stabilize,85.0,2.0,0.0,0.0,-2.0,0.05641130172752851,0.0,0,0
1761121306.529225,12.55356478691101,0.0,0.0,2.0689918359127786,0.0,0.0,0.15119626218417437,0.0,0.0,0.0,0.8520004098643098,0.0,0.0,0.0,0.0,0.0,2.0689918359127786,stabilize,85.0,2.0,0.0,0.0,-2.0,0.06899183591277858,0.0,0,0
1761121306.6323583,12.656697988510132,0.0,0.0,2.0807910087244297,0.0,0.0,0.13637573870051456,0.0,0.0,0.0,0.8520004098643098,0.0,0.0,0.0,0.0,0.0,2.0807910087244297,stabilize,85.0,2.0,0.0,0.0,-2.0,0.08079100872442968,0.0,0,0
1761121306.7346613,12.759001016616821,0.0,0.0,2.0914737836750894,0.0,0.0,0.13561094074067676,0.0,0.0,0.0,0.8520004098643098,0.0,0.0,0.0,0.0,0.0,2.0914737836750894,stabilize,85.0,2.0,0.0,0.0,-2.0,0.0914737836750894,0.0,0,0
1761121306.839051,12.863390684127808,0.0,0.0,2.101968866631918,0.0,0.0,0.12995011808826723,0.0,0.0,0.0,0.8520004098643098,0.0,0.0,0.0,0.0,0.0,2.101968866631918,stabilize,85.0,2.0,0.0,0.0,-2.0,0.10196886663191806,0.0,0,0
1761121306.941218,12.96555757522583,0.0,0.0,2.1120164199264164,0.0,0.0,0.1285529983676708,0.0,0.0,0.0,0.8520004098643098,0.0,0.0,0.0,0.0,0.0,2.1120164199264164,stabilize,85.0,2.0,0.0,0.0,-2.0,0.11201641992641642,0.0,0,0
1761121307.044818,13.069157600402832,0.0,0.0,2.1215445485025133,0.0,0.0,0.12195573281952174,0.0,0.0,0.0,0.8520004098643098,0.0,0.0,0.0,0.0,0.0,2.1215445485025133,stabilize,85.0,2.0,0.0,0.0,-2.0,0.12154454850251328,0.0,0,0
1761121307.1500423,13.174381971359253,0.0,0.0,2.1307417745436625,0.0,0.0,0.11136851715506714,0.0,0.0,0.0,0.8520004098643098,0.0,0.0,0.0,0.0,0.0,2.1307417745436625,stabilize,85.0,2.0,0.0,0.0,-2.0,0.13074177454366254,0.0,0,0
1761121307.2535326,13.277872323989868,0.0,0.0,2.13861405338284,0.0,0.0,0.10572313506515674,0.0,0.0,0.0,0.8520004098643098,0.0,0.0,0.0,0.0,0.0,2.13861405338284,stabilize,85.0,2.0,0.0,0.0,-2.0,0.13861405338283994,0.0,0,0
1761121307.357725,13.382064580917358,0.0,0.0,2.146311943390423,0.0,0.0,0.10254953959189353,0.0,0.0,0.0,0.8520004098643098,0.0,0.0,0.0,0.0,0.0,2.146311943390423,stabilize,85.0,2.0,0.0,0.0,-2.0,0.14631194339042297,0.0,0,0
1761121307.4584165,13.4827561378479,0.0,0.0,2.151124618499939,0.0,0.0,0.07163718679378417,0.0,0.0,0.0,0.8520004098643098,0.0,0.0,0.0,0.0,0.0,2.151124618499939,stabilize,85.0,2.0,0.0,0.0,-2.0,0.15112461849993908,0.0,0,0
1761121307.5602086,13.584548234939575,0.0,0.0,2.1551874568455776,0.0,0.0,0.07025837833114493,0.0,0.0,0.0,0.8520004098643098,0.0,0.0,0.0,0.0,0.0,2.1551874568455776,stabilize,85.0,2.0,0.0,0.0,-2.0,0.15518745684557755,0.0,0,0
1761121307.6681063,13.692445993423462,0.0,0.0,2.158848025805651,0.0,0.0,0.013103603672525084,0.0,0.0,0.0,0.5859694014199521,0.0,0.0,0.0,0.0,0.0,2.158848025805651,stabilize,85.0,2.0,0.0,0.0,-2.0,0.15884802580565083,0.0,0,0
1761121307.7733006,13.797640323638916,0.0,0.0,2.159681341454581,0.0,0.0,0.04158061303046147,0.0,0.0,0.0,0.8520004098643098,0.0,0.0,0.0,0.0,0.0,2.159681341454581,stabilize,85.0,2.0,0.0,0.0,-2.0,0.15968134145458102,0.0,0,0
1761121307.8756638,13.900003433227539,0.0,0.0,2.1602846861604066,0.0,0.0,0.03543360495342984,0.0,0.0,0.0,0.8520004098643098,0.0,0.0,0.0,0.0,0.0,2.1602846861604066,stabilize,85.0,2.0,0.0,0.0,-2.0,0.1602846861604066,0.0,0,0
1761121307.9795606,14.003900289535522,0.0,0.0,2.159680762096442,0.0,0.0,0.019009252877995028,0.0,0.0,0.0,0.8520004098643098,0.0,0.0,0.0,0.0,0.0,2.159680762096442,stabilize,85.0,2.0,0.0,0.0,-2.0,0.15968076209644222,0.0,0,0
1761121308.08213,14.106469631195068,0.0,0.0,2.1582840657511273,0.0,0.0,0.014145228297148413,0.0,0.0,0.0,0.8520004098643098,0.0,0.0,0.0,0.0,0.0,2.1582840657511273,stabilize,85.0,2.0,0.0,0.0,-2.0,0.1582840657511273,0.0,0,0
1761121308.1883378,14.212677478790283,0.0,0.0,2.1568457871614943,0.0,0.0,0.025223223808652925,0.0,0.0,0.0,0.8520004098643098,0.0,0.0,0.0,0.0,0.0,2.1568457871614943,stabilize,85.0,2.0,0.0,0.0,-2.0,0.15684578716149433,0.0,0,0
1761121308.2930033,14.31734299659729,0.0,0.0,2.155987056152524,0.0,0.0,0.02608569075456446,0.0,0.0,0.0,0.8520004098643098,0.0,0.0,0.0,0.0,0.0,2.155987056152524,stabilize,85.0,2.0,0.0,0.0,-2.0,0.15598705615252406,0.0,0,0
1761121308.3982232,14.422562837600708,0.0,0.0,2.1552297697395906,0.0,0.0,0.028865713043893924,0.0,0.0,0.0,0.8520004098643098,0.0,0.0,0.0,0.0,0.0,2.1552297697395906,stabilize,85.0,2.0,0.0,0.0,-2.0,0.15522976973959057,0.0,0,0
1761121308.502763,14.527102708816528,0.0,0.0,2.1545380008354256,0.0,0.0,0.023838402665324318,0.0,0.0,0.0,0.8520004098643098,0.0,0.0,0.0,0.0,0.0,2.1545380008354256,stabilize,85.0,2.0,0.0,0.0,-2.0,0.15453800083542557,0.0,0,0
1761121308.6084557,14.632795333862305,0.0,0.0,2.1528722153833577,0.0,0.0,0.011909256811640588,0.0,0.0,0.0,0.8520004098643098,0.0,0.0,0.0,0.0,0.0,2.1528722153833577,stabilize,85.0,2.0,0.0,0.0,-2.0,0.1528722153833577,0.0,0,0
1761121308.7113662,14.735705852508545,0.0,0.0,2.150305756401709,0.0,0.0,0.0024689608637382607,0.0,0.0,0.0,0.8520004098643098,0.0,0.0,0.0,0.0,0.0,2.150305756401709,stabilize,85.0,2.0,0.0,0.0,-2.0,0.15030575640170918,0.0,0,0
1761121308.8142376,14.838577270507812,0.0,0.0,2.147452862126316,0.0,0.0,0.005965320529367636,0.0,0.0,0.0,0.8520004098643098,0.0,0.0,0.0,0.0,0.0,2.147452862126316,stabilize,85.0,2.0,0.0,0.0,-2.0,0.14745286212631603,0.0,0,0
1761121308.9213705,14.945710182189941,0.0,0.0,2.144212968947149,0.0,0.0,-0.0027554505852753625,0.0,0.0,0.0,0.8520004098643098,0.0,0.0,0.0,0.0,0.0,2.144212968947149,stabilize,85.0,2.0,0.0,0.0,-2.0,0.1442129689471492,0.0,0,0
1761121309.024618,15.048957586288452,0.0,0.0,2.1402427481810773,0.0,0.0,-0.0063396270430540885,0.0,0.0,0.0,0.8520004098643098,0.0,0.0,0.0,0.0,0.0,2.1402427481810773,stabilize,85.0,2.0,0.0,0.0,-2.0,0.1402427481810773,0.0,0,0
1761121309.1298153,15.154155015945435,0.0,0.0,2.1365105946746215,0.0,0.0,-0.003038992159887857,0.0,0.0,0.0,0.8520004098643098,0.0,0.0,0.0,0.0,0.0,2.1365105946746215,stabilize,85.0,2.0,0.0,0.0,-2.0,0.13651059467462145,0.0,0,0
1761121309.2388098,15.263149499893188,0.0,0.0,2.1329682787742534,0.0,0.0,0.0005354656565390928,0.0,0.0,0.0,0.8520004098643098,0.0,0.0,0.0,0.0,0.0,2.1329682787742534,stabilize,85.0,2.0,0.0,0.0,-2.0,0.13296827877425343,0.0,0,0
1761121309.3429747,15.367314338684082,0.0,0.0,2.1291685898774566,0.0,0.0,-0.008827045743165854,0.0,0.0,0.0,0.8520004098643098,0.0,0.0,0.0,0.0,0.0,2.1291685898774566,stabilize,85.0,2.0,0.0,0.0,-2.0,0.1291685898774566,0.0,0,0
1761121309.4480722,15.472411870956421,0.0,0.0,2.1245369104334397,0.0,0.0,-0.00988576809147082,0.0,0.0,0.0,0.8520004098643098,0.0,0.0,0.0,0.0,0.0,2.1245369104334397,stabilize,85.0,2.0,0.0,0.0,-2.0,0.12453691043343973,0.0,0,0
1761121309.552192,15.576531648635864,0.0,0.0,2.1201664218861884,0.0,0.0,-0.014619563377224212,0.0,0.0,0.0,0.8520004098643098,0.0,0.0,0.0,0.0,0.0,2.1201664218861884,stabilize,85.0,2.0,0.0,0.0,-2.0,0.12016642188618842,0.0,0,0
1761121309.6535375,15.677877187728882,0.0,0.0,2.115439604123463,0.0,0.0,-0.03257958036627126,0.0,0.0,0.0,0.8520004098643098,0.0,0.0,0.0,0.0,0.0,2.115439604123463,stabilize,85.0,2.0,0.0,0.0,-2.0,0.1154396041234631,0.0,0,0
1761121309.758024,15.782363653182983,0.0,0.0,2.108247417322123,0.0,0.0,-0.04561403145297203,0.0,0.0,0.0,0.8520004098643098,0.0,0.0,0.0,0.0,0.0,2.108247417322123,stabilize,85.0,2.0,0.0,0.0,-2.0,0.10824741732212306,0.0,0,0
1761121309.863935,15.888274669647217,0.0,0.0,2.10045723943161,0.0,0.0,-0.03763076880479006,0.0,0.0,0.0,0.8520004098643098,0.0,0.0,0.0,0.0,0.0,2.10045723943161,stabilize,85.0,2.0,0.0,0.0,-2.0,0.10045723943161011,0.0,0,0
1761121309.9686685,15.993008136749268,0.0,0.0,2.0931314705492645,0.0,0.0,-0.032590592994923714,0.0,0.0,0.0,0.8520004098643098,0.0,0.0,0.0,0.0,0.0,2.0931314705492645,stabilize,85.0,2.0,0.0,0.0,-2.0,0.09313147054926452,0.0,0,0
1761121310.0737147,16.0980544090271,0.0,0.0,2.0861756260825697,0.0,0.0,-0.035155655236317446,0.0,0.0,0.0,0.8520004098643098,0.0,0.0,0.0,0.0,0.0,2.0861756260825697,stabilize,85.0,2.0,0.0,0.0,-2.0,0.08617562608256968,0.0,0,0
1761121310.1786013,16.202940940856934,0.0,0.0,2.078838536691202,0.0,0.0,-0.03623644360229577,0.0,0.0,0.0,0.8520004098643098,0.0,0.0,0.0,0.0,0.0,2.078838536691202,stabilize,85.0,2.0,0.0,0.0,-2.0,0.07883853669120189,0.0,0,0
1761121310.2815928,16.30593252182007,0.0,0.0,2.071456701218739,0.0,0.0,-0.044968522196000935,0.0,0.0,0.0,0.8520004098643098,0.0,0.0,0.0,0.0,0.0,2.071456701218739,stabilize,85.0,2.0,0.0,0.0,-2.0,0.07145670121873904,0.0,0,0
1761121310.385236,16.409575700759888,0.0,0.0,2.0632563528854653,0.0,0.0,-0.049712132711970114,0.0,0.0,0.0,0.8520004098643098,0.0,0.0,0.0,0.0,0.0,2.0632563528854653,stabilize,85.0,2.0,0.0,0.0,-2.0,0.06325635288546527,0.0,0,0
1761121310.4864967,16.510836362838745,0.0,0.0,2.0563786253980454,0.0,0.0,-0.03857739772454791,0.0,0.0,0.0,0.8520004098643098,0.0,0.0,0.0,0.0,0.0,2.0563786253980454,stabilize,85.0,2.0,0.0,0.0,-2.0,0.05637862539804539,0.0,0,0
1761121310.5906518,16.614991426467896,0.0,0.0,2.0493224300883885,0.0,0.0,-0.04221088126036579,0.0,0.0,0.0,0.8520004098643098,0.0,0.0,0.0,0.0,0.0,2.0493224300883885,stabilize,85.0,2.0,0.0,0.0,-2.0,0.04932243008838855,0.0,0,0
1761121310.6968813,16.72122097015381,0.0,0.0,2.042263994135833,0.0,0.0,-0.022186681912056763,0.0,0.0,0.0,0.8520004098643098,0.0,0.0,0.0,0.0,0.0,2.042263994135833,stabilize,85.0,2.0,0.0,0.0,-2.0,0.04226399413583293,0.0,0,0
1761121310.8016114,16.825951099395752,0.0,0.0,2.0357716836485658,0.0,0.0,-0.030181809195452852,0.0,0.0,0.0,0.8520004098643098,0.0,0.0,0.0,0.0,0.0,2.0357716836485658,stabilize,85.0,2.0,0.0,0.0,-2.0,0.035771683648565755,0.0,0,0
1761121310.905796,16.93013572692871,0.0,0.0,2.0293876098948065,0.0,0.0,-0.025654015663681543,0.0,0.0,0.0,0.8520004098643098,0.0,0.0,0.0,0.0,0.0,2.0293876098948065,stabilize,85.0,2.0,0.0,0.0,-2.0,0.029387609894806488,0.0,0,0
1761121311.0104568,17.034796476364136,0.0,0.0,2.0230092379144655,0.0,0.0,-0.03824783983114864,0.0,0.0,0.0,0.8520004098643098,0.0,0.0,0.0,0.0,0.0,2.0230092379144655,stabilize,85.0,2.0,0.0,0.0,-2.0,0.02300923791446552,0.0,0,0
1761121311.1135597,17.13789939880371,0.0,0.0,2.0156804753698894,0.0,0.0,-0.043109247505843155,0.0,0.0,0.0,0.8520004098643098,0.0,0.0,0.0,0.0,0.0,2.0156804753698894,stabilize,85.0,2.0,0.0,0.0,-2.0,0.01568047536988937,0.0,0,0
1761121311.2187304,17.243070125579834,0.0,0.0,2.007336008910894,0.0,0.0,-0.05196640993210015,0.0,0.0,0.0,0.8520004098643098,0.0,0.0,0.0,0.0,0.0,2.007336008910894,stabilize,85.0,2.0,0.0,0.0,-2.0,0.00733600891089381,0.0,0,0
1761121339.0042458,45.02858543395996,0.003328655659910968,0.0,1.9277048482841237,0.14236865338782062,0.0,0.35580687991386906,0.0,-0.3584282376961417,0.0,0.8520004098643098,0.0,0.5,0.0,0.003328655659910968,0.0,1.9277048482841237,auto,85.0,5,10.0,0.0,-5.0,10.45812772278132,0.3584282376961417,0,0
1761121339.107917,45.132256746292114,0.06091239322728723,0.0,1.9632038273414663,1.126204279717354,0.0,0.11426957943867322,0.0,-1.601404641151038,0.0,0.8520004098643098,0.0,0.5,0.0,0.06091239322728723,0.0,1.9632038273414663,auto,85.0,5,10.0,0.0,-5.0,10.392670178995216,1.601404641151038,0,0
1761121339.2120287,45.23636841773987,0.2269819568302864,0.0,1.8841787411051505,1.692154580096429,0.0,-1.840762221279474,0.0,2.57296661657883,0.0,0.8520004098643098,0.0,-0.5,0.0,0.2269819568302864,0.0,1.8841787411051505,auto,85.0,5,10.0,0.0,-5.0,10.257690957983764,2.57296661657883,0,0
1761121339.3183153,45.34265494346619,0.34363946469353146,0.0,1.6136860216726674,0.48827978747167156,0.0,-2.863826126581607,0.0,0.7527350014900197,0.0,0.8520004098643098,0.0,-0.5,0.0,0.34363946469353146,0.0,1.6136860216726674,auto,85.0,5,10.0,0.0,-5.0,10.232908733475506,0.7527350014900197,0,0
1761121339.4230764,45.44741606712341,0.37896502341738714,0.0,1.3251210860193972,0.5562724298225349,0.0,-2.6812392895438615,0.0,-1.0347626089306954,0.0,0.8520004098643098,0.0,0.5,0.0,0.37896502341738714,0.0,1.3251210860193972,auto,85.0,5,10.0,0.0,-5.0,10.298982913523318,1.0347626089306954,0,0
1761121339.5271676,45.551507234573364,0.49237163445498217,0.0,0.9805190518483291,1.278017202401378,0.0,-4.295088660129469,0.0,2.5817203875322146,0.0,0.8520004098643098,0.0,-0.5,0.0,0.49237163445498217,0.0,0.9805190518483291,auto,85.0,5,10.0,0.0,-5.0,10.32236524396761,2.5817203875322146,0,0
1761121339.6357005,45.66004014015198,0.5683899169907365,0.0,0.45658464315648023,0.29597397598689557,0.0,-4.8755593225092895,0.0,-0.04063105702002637,0.0,0.8520004098643098,0.0,0.5,0.0,0.5683899169907365,0.0,0.45658464315648023,auto,85.0,5,10.0,0.0,-5.0,10.468901177426577,0.04063105702002637,0,0
1761121339.740326,45.764665603637695,0.6427506183584454,0.0,-0.06540134241089518,1.2034023216936276,0.0,-5.610159597831317,0.0,-2.8797124193359416,0.0,0.8520004098643098,0.0,0.5,0.0,0.6427506183584454,0.0,-0.06540134241089518,auto,85.0,5,10.0,0.0,-5.0,10.64031986126025,2.8797124193359416,0,0
1761121339.8451684,45.869508028030396,0.7297796462495022,0.0,-0.7371076544945842,0.3117637326322689,0.0,-6.6770382797522005,0.0,0.3826589644357016,0.0,0.8520004098643098,0.0,0.5,0.0,0.7297796462495022,0.0,-0.7371076544945842,auto,85.0,5,10.0,0.0,-5.0,10.901898442305832,0.3826589644357016,0,0
1761121339.947513,45.97185277938843,0.7878445232923572,0.0,-1.4177771440708067,1.0478642633326174,0.0,-7.1025884527623075,0.0,-2.7291620001689174,0.0,0.8520004098643098,0.0,0.5,0.0,0.7878445232923572,0.0,-1.4177771440708067,auto,85.0,5,10.0,0.0,-5.0,11.227273578121817,2.7291620001689174,0,0
1761121340.051179,46.07551860809326,0.8625925493824925,0.0,-2.2293542423138453,0.2709074272665174,0.0,-7.965704825343469,0.0,0.08726459551843124,0.0,0.8520004098643098,0.0,0.17097218545465287,0.0,0.8625925493824925,0.0,-2.2293542423138453,auto,85.0,5,10.0,0.0,-5.0,11.65142813905066,0.08726459551843124,0,0
1761121340.1536202,46.17795991897583,0.928877920227971,0.0,-3.0562702782387823,0.9682551067907065,0.0,-8.73143783854558,0.0,2.782773432627338,0.0,0.8520004098643098,0.0,0.5,0.0,0.928877920227971,0.0,-3.0562702782387823,auto,85.0,5,10.0,0.0,-5.0,12.132136933869532,2.782773432627338,0,0
1761121340.2583172,46.28265690803528,0.9820731516514108,0.0,-4.005407835241087,0.4183411036918424,0.0,-8.949807006017183,0.0,-0.9568657800866172,0.0,0.8520004098643098,0.0,0.5,0.0,0.9820731516514108,0.0,-4.005407835241087,auto,85.0,5,10.0,0.0,-5.0,12.744425248758294,0.9568657800866172,0,0
1761121340.362285,46.386624574661255,1.0603732428023196,0.0,-4.994428631686246,0.5073202821283137,0.0,-10.16305262136167,0.0,1.295090907662145,0.0,0.8520004098643098,0.0,-0.5,0.0,1.0603732428023196,0.0,-4.994428631686246,auto,85.0,5,10.0,0.0,-5.0,13.40915844607239,1.295090907662145,0,0
1761121340.4721525,46.49649214744568,1.1120000588705374,0.0,-6.096833889030496,0.8828485890490761,0.0,-10.32216167833235,0.0,-2.8399692036750794,0.0,0.8520004098643098,0.0,0.5,0.0,1.1120000588705374,0.0,-6.096833889030496,auto,85.0,5,10.0,0.0,-5.0,14.217463392400665,2.8399692036750794,0,0
1761121340.5754294,46.599769115448,1.1660958620834208,0.0,-7.2128063450874205,0.2768875895915511,0.0,-10.713736597654384,0.0,-0.6016724960248573,0.0,0.8520004098643098,0.0,0.5,0.0,1.1660958620834208,0.0,-7.2128063450874205,auto,85.0,5,10.0,0.0,-5.0,15.072839849892496,0.6016724960248573,0,0
1761121340.6806421,46.70498180389404,1.2334644763801363,0.0,-8.380089907088408,0.45028891131053306,0.0,-11.675483015218528,0.0,1.3098618848726908,0.0,0.8520004098643098,0.0,-0.5,0.0,1.2334644763801363,0.0,-8.380089907088408,auto,85.0,5,10.0,0.0,-5.0,15.996216771745065,1.3098618848726908,0,0
1761121340.7842307,46.80857038497925,1.2775631165637429,0.0,-9.571579888690172,0.8024695559906286,0.0,-11.747265554994485,0.0,-2.959752803680826,0.0,0.8520004098643098,0.0,0.5,0.0,1.2775631165637429,0.0,-9.571579888690172,auto,85.0,5,10.0,0.0,-5.0,16.982692532045945,2.959752803680826,0,0
1761121340.886591,46.91093063354492,1.322768896456174,0.0,-10.808595804820625,0.3429835607564708,0.0,-11.909434342521926,0.0,-1.0635422202993143,0.0,0.8520004098643098,0.0,0.5,0.0,1.322768896456174,0.0,-10.808595804820625,auto,85.0,5,10.0,0.0,-5.0,18.03347001950819,1.0635422202993143,0,0
1761121340.9900808,47.01442050933838,1.3802998257808528,0.0,-12.088998587129659,0.21379616078344565,0.0,-12.671245796918983,0.0,0.55349960774149,0.0,0.8520004098643098,0.0,-0.5,0.0,1.3802998257808528,0.0,-12.088998587129659,auto,85.0,5,10.0,0.0,-5.0,19.139830297167034,0.55349960774149,0,0
1761121341.0929222,47.11726188659668,1.4272772824919169,0.0,-13.383913327412122,0.5983395357460035,0.0,-13.0648967142049,0.0,2.1615729414262965,0.0,0.8520004098643098,0.0,-0.5,0.0,1.4272772824919169,0.0,-13.383913327412122,auto,85.0,5,10.0,0.0,-5.0,20.28447297863763,2.1615729414262965,0,0
1761121341.1999888,47.22432851791382,1.4661782265002794,0.0,-14.763056033560762,0.6852089301067164,0.0,-13.003054860309396,0.0,-2.7349601825089005,0.0,0.8520004098643098,0.0,0.5,0.0,1.4661782265002794,0.0,-14.763056033560762,auto,85.0,5,10.0,0.0,-5.0,21.526832043928813,2.7349601825089005,0,0
1761121341.3029163,47.327255964279175,1.5055707948396444,0.0,-16.13974691974224,0.3304287526709284,0.0,-13.09735368361219,0.0,-1.2678201357729857,0.0,0.8520004098643098,0.0,0.5,0.0,1.5055707948396444,0.0,-16.13974691974224,auto,85.0,5,10.0,0.0,-5.0,22.782542161756943,1.2678201357729857,0,0
1761121341.4049585,47.42929816246033,1.5517741846554618,0.0,-17.519275142810848,0.11408029433738344,0.0,-13.6206992380395,0.0,0.13159072674140038,0.0,0.8520004098643098,0.0,-0.5,0.0,1.5517741846554618,0.0,-17.519275142810848,auto,85.0,5,10.0,0.0,-5.0,24.051824720479576,0.13159072674140038,0,0
1761121341.5064192,47.53075885772705,1.5939914663955121,0.0,-18.9032857894784,0.34743255350713415,0.0,-14.060155732510305,0.0,1.5016557777997006,0.0,0.8520004098643098,0.0,-0.5,0.0,1.5939914663955121,0.0,-18.9032857894784,auto,85.0,5,10.0,0.0,-5.0,25.338272454934877,1.5016557777997006,0,0
1761121341.6090903,47.63343000411987,1.6257200603402433,0.0,-20.322827472561894,0.5873320900521174,0.0,-14.055111128134719,0.0,2.8095891555105896,0.0,0.8520004098643098,0.0,0.5,0.0,1.6257200603402433,0.0,-20.322827472561894,auto,85.0,5,10.0,0.0,-5.0,26.671598296932324,2.8095891555105896,0,0
1761121341.7113893,47.73572897911072,1.6540258040841387,0.0,-21.7619539478086,0.4930088314162471,0.0,-13.950333189313449,0.0,-2.291779619299467,0.0,0.8520004098643098,0.0,0.5,0.0,1.6540258040841387,0.0,-21.7619539478086,auto,85.0,5,10.0,0.0,-5.0,28.03314938396187,2.291779619299467,0,0
1761121341.8146899,47.83902955055237,1.685163119710404,0.0,-23.234465116197192,0.25077476017039396,0.0,-14.044889782070713,0.0,-1.3315669798866738,0.0,0.8520004098643098,0.0,0.5,0.0,1.685163119710404,0.0,-23.234465116197192,auto,85.0,5,10.0,0.0,-5.0,29.433340495831935,1.3315669798866738,0,0
1761121341.922771,47.947110652923584,1.7183725939030248,0.0,-24.78851116083159,0.1220038872351399,0.0,-14.252791573156182,0.0,-0.7756714693443522,0.0,0.8520004098643098,0.0,0.5,0.0,1.7183725939030248,0.0,-24.78851116083159,auto,85.0,5,10.0,0.0,-5.0,30.918291506362454,0.7756714693443522,0,0
1761121342.0272658,48.051605463027954,1.751069944170524,0.0,-26.30395075332197,0.04490308620526551,0.0,-14.523398087898261,0.0,-0.10357358491413465,0.0,0.8520004098643098,0.0,-0.5,0.0,1.751069944170524,0.0,-26.30395075332197,auto,85.0,5,10.0,0.0,-5.0,32.37255287789911,0.10357358491413465,0,0
1761121342.1316721,48.15601181983948,1.7823105118040032,0.0,-27.827675911745505,0.06299015327259891,0.0,-14.772611683741458,0.0,0.4957922165085743,0.0,0.8520004098643098,0.0,-0.5,0.0,1.7823105118040032,0.0,-27.827675911745505,auto,85.0,5,10.0,0.0,-5.0,33.84060765250829,0.4957922165085743,0,0
1761121342.2368083,48.26114797592163,1.811403765519958,0.0,-29.373586487827264,0.13239021263501544,0.0,-14.952277102788655,0.0,0.9807233577022229,0.0,0.8520004098643098,0.0,-0.5,0.0,1.811403765519958,0.0,-29.373586487827264,auto,85.0,5,10.0,0.0,-5.0,35.335485794417515,0.9807233577022229,0,0
1761121342.3413358,48.36567544937134,1.8384178119156018,0.0,-30.919165554906016,0.2180678465123098,0.0,-15.072421012328602,0.0,1.4170757667620573,0.0,0.8520004098643098,0.0,-0.5,0.0,1.8384178119156018,0.0,-30.919165554906016,auto,85.0,5,10.0,0.0,-5.0,36.83473738162936,1.4170757667620573,0,0
1761121342.4443293,48.468668937683105,1.862999225446961,0.0,-32.451111453682074,0.2804851916572991,0.0,-15.142516631613853,0.0,1.7706472516082064,0.0,0.8520004098643098,0.0,-0.5,0.0,1.862999225446961,0.0,-32.451111453682074,auto,85.0,5,10.0,0.0,-5.0,38.32488135299565,1.7706472516082064,0,0
1761121342.5460153,48.57035493850708,1.8854786317646548,0.0,-33.97081452372281,0.3427587702181666,0.0,-15.176686319695971,0.0,2.135692971213624,0.0,0.8520004098643098,0.0,-0.5,0.0,1.8854786317646548,0.0,-33.97081452372281,auto,85.0,5,10.0,0.0,-5.0,39.80665574596731,2.135692971213624,0,0
1761121342.6510224,48.67536211013794,1.9082760454459973,0.0,-35.54786212079578,0.3523008529412854,0.0,-15.22572611508095,0.0,2.2376675008022846,0.0,0.8520004098643098,0.0,-0.5,0.0,1.9082760454459973,0.0,-35.54786212079578,auto,85.0,5,10.0,0.0,-5.0,41.347371368973,2.2376675008022846,0,0
1761121342.7528012,48.777140855789185,1.9289726260437003,0.0,-37.08191394130095,0.3838914271518302,0.0,-15.236206329789026,0.0,2.5161427752106924,0.0,0.8520004098643098,0.0,-0.5,0.0,1.9289726260437003,0.0,-37.08191394130095,auto,85.0,5,10.0,0.0,-5.0,42.848908548925856,2.5161427752106924,0,0
1761121342.8542366,48.87857627868652,1.948039096784494,0.0,-38.6161478712756,0.39870234076076977,0.0,-15.225437783204159,0.0,2.809841763603415,0.0,0.8520004098643098,0.0,0.5,0.0,1.948039096784494,0.0,-38.6161478712756,auto,85.0,5,10.0,0.0,-5.0,44.353155801091425,2.809841763603415,0,0
1761121342.9558265,48.98016619682312,1.9666001003755076,0.0,-40.157785272993046,0.3873049067460625,0.0,-15.242985413609777,0.0,2.9263516938070704,0.0,0.8520004098643098,0.0,0.5,0.0,1.9666001003755076,0.0,-40.157785272993046,auto,85.0,5,10.0,0.0,-5.0,45.86677539035238,2.9263516938070704,0,0
1761121343.0590694,49.08340907096863,1.984927424960253,0.0,-41.72701808776687,0.3687429592541363,0.0,-15.272054110446998,0.0,2.8299590107696844,0.0,0.8520004098643098,0.0,0.5,0.0,1.984927424960253,0.0,-41.72701808776687,auto,85.0,5,10.0,0.0,-5.0,47.409446397924185,2.8299590107696844,0,0
1761121343.162311,49.18665075302124,2.002538586083056,0.0,-43.29927713751045,0.3364439196348058,0.0,-15.348354041505216,0.0,2.608263310029513,0.0,0.8520004098643098,0.0,0.5,0.0,2.002538586083056,0.0,-43.29927713751045,auto,85.0,5,10.0,0.0,-5.0,48.9569153549642,2.608263310029513,0,0
1761121343.2655644,49.28990411758423,2.0197437753832466,0.0,-44.87585703115696,0.27658835694869477,0.0,-15.437699907592227,0.0,2.2205511100370217,0.0,0.8520004098643098,0.0,-0.5,0.0,2.0197437753832466,0.0,-44.87585703115696,auto,85.0,5,10.0,0.0,-5.0,50.51025246425664,2.2205511100370217,0,0
1761121343.3677871,49.39212679862976,2.0354503634792915,0.0,-46.44038766101244,0.19117466857635704,0.0,-15.497802666467294,0.0,1.7891344110095404,0.0,0.8520004098643098,0.0,-0.5,0.0,2.0354503634792915,0.0,-46.44038766101244,auto,85.0,5,10.0,0.0,-5.0,52.0533143385495,1.7891344110095404,0,0
1761121343.4773874,49.50172710418701,2.050537684584496,0.0,-48.12258595915266,0.001751582169513724,0.0,-15.466730052753968,0.0,0.738330093055586,0.0,0.8520004098643098,0.0,-0.5,0.0,2.050537684584496,0.0,-48.12258595915266,auto,85.0,5,10.0,0.0,-5.0,53.714086514542664,0.738330093055586,0,0
1761121343.5810869,49.6054265499115,2.063010862994531,0.0,-49.71510076289976,-0.05207981746565023,0.0,-15.360543384860335,0.0,0.00287726608192429,0.0,0.8520004098643098,0.0,-0.5,0.0,2.063010862994531,0.0,-49.71510076289976,auto,85.0,5,10.0,0.0,-5.0,55.28777485172664,0.00287726608192429,0,0
1761121343.6889093,49.71324896812439,2.074892310298533,0.0,-51.37113670364466,0.05048033295109293,0.0,-15.215287794863258,0.0,-1.1017096170366196,0.0,0.8520004098643098,0.0,0.5,0.0,2.074892310298533,0.0,-51.37113670364466,auto,85.0,5,10.0,0.0,-5.0,56.9254985498973,1.1017096170366196,0,0
1761121343.7925775,49.816917181015015,2.088175243515848,0.0,-52.96501549080074,0.19386116780980847,0.0,-15.231863502915397,0.0,-1.9295557918679713,0.0,0.8520004098643098,0.0,0.5,0.0,2.088175243515848,0.0,-52.96501549080074,auto,85.0,5,10.0,0.0,-5.0,58.50247851011173,1.9295557918679713,0,0
1761121343.896035,49.920374631881714,2.1024740699438356,0.0,-54.55812387333395,0.296922246442056,0.0,-15.370918234562888,0.0,-2.840769566852795,0.0,0.8520004098643098,0.0,0.5,0.0,2.1024740699438356,0.0,-54.55812387333395,auto,85.0,5,10.0,0.0,-5.0,60.07945601557408,2.840769566852795,0,0
1761121344.0018163,50.026155948638916,2.1176416335160395,0.0,-56.19113770558311,0.2352966238971213,0.0,-15.579388844624077,0.0,2.27646254300356,0.0,0.8520004098643098,0.0,-0.5,0.0,2.1176416335160395,0.0,-56.19113770558311,auto,85.0,5,10.0,0.0,-5.0,61.69673335859294,2.27646254300356,0,0
1761121344.111899,50.13623857498169,2.1297304810381874,0.0,-57.879196343031424,-0.009508875978415626,0.0,-15.587321221915465,0.0,0.8489451265267239,0.0,0.8520004098643098,0.0,-0.5,0.0,2.1297304810381874,0.0,-57.879196343031424,auto,85.0,5,10.0,0.0,-5.0,63.36982306308418,0.8489451265267239,0,0
1761121344.214849,50.23918867111206,2.1387603441282597,0.0,-59.486990068446566,-0.06921658539900277,0.0,-15.427828635011105,0.0,-0.19003095184680308,0.0,0.8520004098643098,0.0,-0.5,0.0,2.1387603441282597,0.0,-59.486990068446566,auto,85.0,5,10.0,0.0,-5.0,64.96438237230441,0.19003095184680308,0,0
1761121344.3181438,50.34248352050781,2.148086681580144,0.0,-61.083161785329274,0.056622779239130755,0.0,-15.30388149179902,0.0,-1.2542524289178087,0.0,0.8520004098643098,0.0,0.5,0.0,2.148086681580144,0.0,-61.083161785329274,auto,85.0,5,10.0,0.0,-5.0,66.5480038341195,1.2542524289178087,0,0
1761121344.4219072,50.4462468624115,2.1600824284134132,0.0,-62.687038000468725,0.24169906003714126,0.0,-15.36842010771553,0.0,-2.395139838611528,0.0,0.8520004098643098,0.0,0.5,0.0,2.1600824284134132,0.0,-62.687038000468725,auto,85.0,5,10.0,0.0,-5.0,68.13955841364229,2.395139838611528,0,0
1761121344.5274596,50.551799297332764,2.173919274845775,0.0,-64.32202201703171,0.2529837300455174,0.0,-15.591999306065258,0.0,2.5831686482723235,0.0,0.8520004098643098,0.0,0.5,0.0,2.173919274845775,0.0,-64.32202201703171,auto,85.0,5,10.0,0.0,-5.0,69.76238439192326,2.5831686482723235,0,0
1761121344.631721,50.65606069564819,2.1855337135857917,0.0,-65.94071351974026,0.05353570331496624,0.0,-15.675287660914044,0.0,1.3003857805763466,0.0,0.8520004098643098,0.0,-0.5,0.0,2.1855337135857917,0.0,-65.94071351974026,auto,85.0,5,10.0,0.0,-5.0,71.369816575576,1.3003857805763466,0,0
1761121344.733972,50.75831174850464,2.193656923628862,0.0,-67.5279739199105,-0.07368482931795103,0.0,-15.533279006763125,0.0,0.1372000283876328,0.0,0.8520004098643098,0.0,-0.5,0.0,2.193656923628862,0.0,-67.5279739199105,auto,85.0,5,10.0,0.0,-5.0,72.9468710305879,0.1372000283876328,0,0
1761121344.8387353,50.86307501792908,2.201576878786567,0.0,-69.15165948764866,0.04559764392122729,0.0,-15.350829737592129,0.0,-1.2346121461023591,0.0,0.8520004098643098,0.0,0.5,0.0,2.201576878786567,0.0,-69.15165948764866,auto,85.0,5,10.0,0.0,-5.0,74.56060627402162,1.2346121461023591,0,0
