timestamp,simulation_time,position_x,position_y,position_z,velocity_x,velocity_y,velocity_z,attitude_roll,attitude_pitch,attitude_yaw,control_throttle,control_roll,control_pitch,control_yaw,estimated_position_x,estimated_position_y,estimated_position_z,flight_mode,battery_level,setpoint_altitude,setpoint_position_x,setpoint_position_y,setpoint_position_z,position_error,attitude_error,waypoint_index,mission_complete
1761126613.0887187,0.10773444175720215,0.0,0.0,-0.0,0.0,0.0,-0.0,0.0,0.0,0.0,0.0,0.0,0.0,0.0,0.0,0.0,-0.0,manual,85.0,0.0,0.0,0.0,0.0,0.0,0.0,0,0
1761126613.1909325,0.20994830131530762,0.0,0.0,-0.0,0.0,0.0,-0.0,0.0,0.0,0.0,0.0,0.0,0.0,0.0,0.0,0.0,-0.0,manual,85.0,0.0,0.0,0.0,0.0,0.0,0.0,0,0
1761126613.2936285,0.31264424324035645,0.0,0.0,-0.0,0.0,0.0,-0.0,0.0,0.0,0.0,0.0,0.0,0.0,0.0,0.0,0.0,-0.0,manual,85.0,0.0,0.0,0.0,0.0,0.0,0.0,0,0
1761126613.3969257,0.4159414768218994,0.0,0.0,-0.0,0.0,0.0,-0.0,0.0,0.0,0.0,0.0,0.0,0.0,0.0,0.0,0.0,-0.0,manual,85.0,0.0,0.0,0.0,0.0,0.0,0.0,0,0
1761126613.498599,0.5176148414611816,0.0,0.0,-0.0,0.0,0.0,-0.0,0.0,0.0,0.0,0.0,0.0,0.0,0.0,0.0,0.0,-0.0,manual,85.0,0.0,0.0,0.0,0.0,0.0,0.0,0,0
1761126613.6001294,0.6191451549530029,0.0,0.0,-0.0,0.0,0.0,-0.0,0.0,0.0,0.0,0.0,0.0,0.0,0.0,0.0,0.0,-0.0,manual,85.0,0.0,0.0,0.0,0.0,0.0,0.0,0,0
1761126613.7026312,0.7216470241546631,0.0,0.0,-0.0,0.0,0.0,-0.0,0.0,0.0,0.0,0.0,0.0,0.0,0.0,0.0,0.0,-0.0,manual,85.0,0.0,0.0,0.0,0.0,0.0,0.0,0,0
1761126613.809047,0.8280627727508545,0.0,0.0,-0.0,0.0,0.0,-0.0,0.0,0.0,0.0,0.0,0.0,0.0,0.0,0.0,0.0,-0.0,manual,85.0,0.0,0.0,0.0,0.0,0.0,0.0,0,0
1761126613.9131546,0.9321703910827637,0.0,0.0,-0.0,0.0,0.0,-0.0,0.0,0.0,0.0,0.0,0.0,0.0,0.0,0.0,0.0,-0.0,manual,85.0,0.0,0.0,0.0,0.0,0.0,0.0,0,0
1761126614.0150218,1.0340375900268555,0.0,0.0,-0.0,0.0,0.0,-0.0,0.0,0.0,0.0,0.0,0.0,0.0,0.0,0.0,0.0,-0.0,manual,85.0,0.0,0.0,0.0,0.0,0.0,0.0,0,0
1761126614.1164587,1.135474443435669,0.0,0.0,-0.0,0.0,0.0,-0.0,0.0,0.0,0.0,0.0,0.0,0.0,0.0,0.0,0.0,-0.0,manual,85.0,0.0,0.0,0.0,0.0,0.0,0.0,0,0
1761126614.2223923,1.241408109664917,0.0,0.0,-0.0,0.0,0.0,-0.0,0.0,0.0,0.0,0.0,0.0,0.0,0.0,0.0,0.0,-0.0,manual,85.0,0.0,0.0,0.0,0.0,0.0,0.0,0,0
1761126614.3256707,1.344686508178711,0.0,0.0,-0.0,0.0,0.0,-0.0,0.0,0.0,0.0,0.0,0.0,0.0,0.0,0.0,0.0,-0.0,manual,85.0,0.0,0.0,0.0,0.0,0.0,0.0,0,0
1761126614.430272,1.4492878913879395,0.0,0.0,-0.0,0.0,0.0,-0.0,0.0,0.0,0.0,0.0,0.0,0.0,0.0,0.0,0.0,-0.0,manual,85.0,0.0,0.0,0.0,0.0,0.0,0.0,0,0
1761126614.5318248,1.5508406162261963,0.0,0.0,-0.0,0.0,0.0,-0.0,0.0,0.0,0.0,0.0,0.0,0.0,0.0,0.0,0.0,-0.0,manual,85.0,0.0,0.0,0.0,0.0,0.0,0.0,0,0
1761126614.6340363,1.6530520915985107,0.0,0.0,-0.0,0.0,0.0,-0.0,0.0,0.0,0.0,0.0,0.0,0.0,0.0,0.0,0.0,-0.0,manual,85.0,0.0,0.0,0.0,0.0,0.0,0.0,0,0
1761126614.76463,1.7836458683013916,0.0,0.0,-0.0,0.0,0.0,-0.0,0.0,0.0,0.0,0.0,0.0,0.0,0.0,0.0,0.0,-0.0,manual,85.0,0.0,0.0,0.0,0.0,0.0,0.0,0,0
1761126614.8672686,1.886284351348877,0.0,0.0,-0.0,0.0,0.0,-0.0,0.0,0.0,0.0,0.0,0.0,0.0,0.0,0.0,0.0,-0.0,manual,85.0,0.0,0.0,0.0,0.0,0.0,0.0,0,0
1761126614.9695232,1.9885389804840088,0.0,0.0,-0.0,0.0,0.0,-0.0,0.0,0.0,0.0,0.0,0.0,0.0,0.0,0.0,0.0,-0.0,manual,85.0,0.0,0.0,0.0,0.0,0.0,0.0,0,0
1761126615.0710363,2.0900521278381348,0.0,0.0,-0.0,0.0,0.0,-0.0,0.0,0.0,0.0,0.0,0.0,0.0,0.0,0.0,0.0,-0.0,manual,85.0,0.0,0.0,0.0,0.0,0.0,0.0,0,0
1761126615.1743832,2.193398952484131,0.0,0.0,-0.0,0.0,0.0,-0.0,0.0,0.0,0.0,0.0,0.0,0.0,0.0,0.0,0.0,-0.0,manual,85.0,0.0,0.0,0.0,0.0,0.0,0.0,0,0
1761126615.2788775,2.2978932857513428,0.0,0.0,-0.0,0.0,0.0,-0.0,0.0,0.0,0.0,0.0,0.0,0.0,0.0,0.0,0.0,-0.0,manual,85.0,0.0,0.0,0.0,0.0,0.0,0.0,0,0
1761126615.3842835,2.403299331665039,0.0,0.0,-0.0,0.0,0.0,-0.0,0.0,0.0,0.0,0.0,0.0,0.0,0.0,0.0,0.0,-0.0,manual,85.0,0.0,0.0,0.0,0.0,0.0,0.0,0,0
1761126615.4873855,2.506401300430298,0.0,0.0,-0.0,0.0,0.0,-0.0,0.0,0.0,0.0,0.0,0.0,0.0,0.0,0.0,0.0,-0.0,manual,85.0,0.0,0.0,0.0,0.0,0.0,0.0,0,0
1761126615.5913563,2.6103720664978027,0.0,0.0,-0.0,0.0,0.0,-0.0,0.0,0.0,0.0,0.0,0.0,0.0,0.0,0.0,0.0,-0.0,manual,85.0,0.0,0.0,0.0,0.0,0.0,0.0,0,0
1761126615.693335,2.712350845336914,0.0,0.0,-0.0,0.0,0.0,-0.0,0.0,0.0,0.0,0.0,0.0,0.0,0.0,0.0,0.0,-0.0,manual,85.0,0.0,0.0,0.0,0.0,0.0,0.0,0,0
1761126615.7971482,2.816164016723633,0.0,0.0,-0.0,0.0,0.0,-0.0,0.0,0.0,0.0,0.0,0.0,0.0,0.0,0.0,0.0,-0.0,manual,85.0,0.0,0.0,0.0,0.0,0.0,0.0,0,0
1761126615.8998706,2.918886423110962,0.0,0.0,-0.0,0.0,0.0,-0.0,0.0,0.0,0.0,0.0,0.0,0.0,0.0,0.0,0.0,-0.0,manual,85.0,0.0,0.0,0.0,0.0,0.0,0.0,0,0
1761126616.003063,3.0220787525177,0.0,0.0,-0.0,0.0,0.0,-0.0,0.0,0.0,0.0,0.0,0.0,0.0,0.0,0.0,0.0,-0.0,manual,85.0,0.0,0.0,0.0,0.0,0.0,0.0,0,0
1761126616.1081882,3.127203941345215,0.0,0.0,-0.0,0.0,0.0,-0.0,0.0,0.0,0.0,0.0,0.0,0.0,0.0,0.0,0.0,-0.0,manual,85.0,0.0,0.0,0.0,0.0,0.0,0.0,0,0
1761126616.2112687,3.2302844524383545,0.0,0.0,-0.0,0.0,0.0,-0.0,0.0,0.0,0.0,0.0,0.0,0.0,0.0,0.0,0.0,-0.0,manual,85.0,0.0,0.0,0.0,0.0,0.0,0.0,0,0
1761126616.31483,3.333845853805542,0.0,0.0,-0.0,0.0,0.0,-0.0,0.0,0.0,0.0,0.0,0.0,0.0,0.0,0.0,0.0,-0.0,manual,85.0,0.0,0.0,0.0,0.0,0.0,0.0,0,0
1761126616.4179525,3.4369683265686035,0.0,0.0,-0.0,0.0,0.0,-0.0,0.0,0.0,0.0,0.0,0.0,0.0,0.0,0.0,0.0,-0.0,manual,85.0,0.0,0.0,0.0,0.0,0.0,0.0,0,0
1761126616.520938,3.5399537086486816,0.0,0.0,-0.0,0.0,0.0,-0.0,0.0,0.0,0.0,0.0,0.0,0.0,0.0,0.0,0.0,-0.0,manual,85.0,0.0,0.0,0.0,0.0,0.0,0.0,0,0
1761126616.6274042,3.6464200019836426,0.0,0.0,-0.0,0.0,0.0,-0.0,0.0,0.0,0.0,0.0,0.0,0.0,0.0,0.0,0.0,-0.0,manual,85.0,0.0,0.0,0.0,0.0,0.0,0.0,0,0
1761126616.7321692,3.7511849403381348,0.0,0.0,0.021606490524519264,0.0,0.0,0.4586142120119385,0.0,0.0,0.0,0.8,0.0,0.0,0.0,0.0,0.0,0.021606490524519264,stabilize,85.0,2.0,0.0,0.0,-2.0,1.9783935094754808,0.0,0,0
1761126616.8374696,3.856485366821289,0.0,0.0,0.07879890173105887,0.0,0.0,0.5885578317761362,0.0,0.0,0.0,0.8,0.0,0.0,0.0,0.0,0.0,0.07879890173105887,stabilize,85.0,2.0,0.0,0.0,-2.0,1.9212010982689411,0.0,0,0
1761126616.941245,3.9602608680725098,0.0,0.0,0.14099363353315283,0.0,0.0,0.6432756981085385,0.0,0.0,0.0,0.8,0.0,0.0,0.0,0.0,0.0,0.14099363353315283,stabilize,85.0,2.0,0.0,0.0,-2.0,1.8590063664668472,0.0,0,0
1761126617.0482829,4.067298650741577,0.0,0.0,0.21076531536670734,0.0,0.0,0.6954453921867827,0.0,0.0,0.0,0.8,0.0,0.0,0.0,0.0,0.0,0.21076531536670734,stabilize,85.0,2.0,0.0,0.0,-2.0,1.7892346846332927,0.0,0,0
1761126617.1520467,4.171062469482422,0.0,0.0,0.28173839965400244,0.0,0.0,0.7183141375294477,0.0,0.0,0.0,0.8,0.0,0.0,0.0,0.0,0.0,0.28173839965400244,stabilize,85.0,2.0,0.0,0.0,-2.0,1.7182616003459976,0.0,0,0
1761126617.2543862,4.273401975631714,0.0,0.0,0.35445573330418206,0.0,0.0,0.7497805657041052,0.0,0.0,0.0,0.8,0.0,0.0,0.0,0.0,0.0,0.35445573330418206,stabilize,85.0,2.0,0.0,0.0,-2.0,1.645544266695818,0.0,0,0
1761126617.3633795,4.382395267486572,0.0,0.0,0.4315148684280011,0.0,0.0,0.6941763324281426,0.0,0.0,0.0,0.3,0.0,0.0,0.0,0.0,0.0,0.4315148684280011,stabilize,85.0,2.0,0.0,0.0,-2.0,1.568485131571999,0.0,0,0
1761126617.46747,4.486485719680786,0.0,0.0,0.5067907699922042,0.0,0.0,0.6972157245790785,0.0,0.0,0.0,0.3,0.0,0.0,0.0,0.0,0.0,0.5067907699922042,stabilize,85.0,2.0,0.0,0.0,-2.0,1.4932092300077957,0.0,0,0
1761126617.5710268,4.590042591094971,0.0,0.0,0.5816450420653444,0.0,0.0,0.6903196895656755,0.0,0.0,0.0,0.3,0.0,0.0,0.0,0.0,0.0,0.5816450420653444,stabilize,85.0,2.0,0.0,0.0,-2.0,1.4183549579346555,0.0,0,0
1761126617.6766531,4.695668935775757,0.0,0.0,0.6578408222387495,0.0,0.0,0.7240420194503435,0.0,0.0,0.0,0.6567952438733018,0.0,0.0,0.0,0.0,0.0,0.6578408222387495,stabilize,85.0,2.0,0.0,0.0,-2.0,1.3421591777612505,0.0,0,0
1761126617.7793255,4.798341274261475,0.0,0.0,0.7298039379210866,0.0,0.0,0.7186927308545812,0.0,0.0,0.0,0.8,0.0,0.0,0.0,0.0,0.0,0.7298039379210866,stabilize,85.0,2.0,0.0,0.0,-2.0,1.2701960620789134,0.0,0,0
1761126617.8836284,4.902644157409668,0.0,0.0,0.8014937931522939,0.0,0.0,0.6890769643365848,0.0,0.0,0.0,0.8,0.0,0.0,0.0,0.0,0.0,0.8014937931522939,stabilize,85.0,2.0,0.0,0.0,-2.0,1.1985062068477061,0.0,0,0
1761126617.9889538,5.007969617843628,0.0,0.0,0.871865493384412,0.0,0.0,0.647226197381555,0.0,0.0,0.0,0.3,0.0,0.0,0.0,0.0,0.0,0.871865493384412,stabilize,85.0,2.0,0.0,0.0,-2.0,1.128134506615588,0.0,0,0
1761126618.0963614,5.115377187728882,0.0,0.0,0.9412894976046108,0.0,0.0,0.6076693088339656,0.0,0.0,0.0,0.3,0.0,0.0,0.0,0.0,0.0,0.9412894976046108,stabilize,85.0,2.0,0.0,0.0,-2.0,1.0587105023953893,0.0,0,0
1761126618.20266,5.221675872802734,0.0,0.0,1.0086096017828559,0.0,0.0,0.6130196791048157,0.0,0.0,0.0,0.3,0.0,0.0,0.0,0.0,0.0,1.0086096017828559,stabilize,85.0,2.0,0.0,0.0,-2.0,0.9913903982171441,0.0,0,0
1761126618.308544,5.32755970954895,0.0,0.0,1.0727665442814056,0.0,0.0,0.6243168896728278,0.0,0.0,0.0,0.8,0.0,0.0,0.0,0.0,0.0,1.0727665442814056,stabilize,85.0,2.0,0.0,0.0,-2.0,0.9272334557185944,0.0,0,0
1761126618.4173038,5.436319589614868,0.0,0.0,1.136412748620557,0.0,0.0,0.5925312824287982,0.0,0.0,0.0,0.8,0.0,0.0,0.0,0.0,0.0,1.136412748620557,stabilize,85.0,2.0,0.0,0.0,-2.0,0.8635872513794429,0.0,0,0
1761126618.5207705,5.539786338806152,0.0,0.0,1.194237978619395,0.0,0.0,0.5732252980477627,0.0,0.0,0.0,0.8,0.0,0.0,0.0,0.0,0.0,1.194237978619395,stabilize,85.0,2.0,0.0,0.0,-2.0,0.8057620213806049,0.0,0,0
1761126618.623922,5.642937898635864,0.0,0.0,1.2498242362339442,0.0,0.0,0.5187593309304992,0.0,0.0,0.0,0.5748812850535778,0.0,0.0,0.0,0.0,0.0,1.2498242362339442,stabilize,85.0,2.0,0.0,0.0,-2.0,0.7501757637660558,0.0,0,0
1761126618.7285883,5.747604131698608,0.0,0.0,1.3028253993602492,0.0,0.0,0.5199582801996763,0.0,0.0,0.0,0.8,0.0,0.0,0.0,0.0,0.0,1.3028253993602492,stabilize,85.0,2.0,0.0,0.0,-2.0,0.6971746006397508,0.0,0,0
1761126618.8352199,5.854235649108887,0.0,0.0,1.3552798012709515,0.0,0.0,0.4450400169861466,0.0,0.0,0.0,0.38968525867348225,0.0,0.0,0.0,0.0,0.0,1.3552798012709515,stabilize,85.0,2.0,0.0,0.0,-2.0,0.6447201987290485,0.0,0,0
1761126618.9384494,5.957465171813965,0.0,0.0,1.4030346167308896,0.0,0.0,0.4431996856066321,0.0,0.0,0.0,0.5687888745478531,0.0,0.0,0.0,0.0,0.0,1.4030346167308896,stabilize,85.0,2.0,0.0,0.0,-2.0,0.5969653832691104,0.0,0,0
1761126619.0423808,6.061396598815918,0.0,0.0,1.447877807999175,0.0,0.0,0.45038132397537356,0.0,0.0,0.0,0.8,0.0,0.0,0.0,0.0,0.0,1.447877807999175,stabilize,85.0,2.0,0.0,0.0,-2.0,0.552122192000825,0.0,0,0
1761126619.1469905,6.166006326675415,0.0,0.0,1.4911148114942023,0.0,0.0,0.4362916906959961,0.0,0.0,0.0,0.8,0.0,0.0,0.0,0.0,0.0,1.4911148114942023,stabilize,85.0,2.0,0.0,0.0,-2.0,0.5088851885057977,0.0,0,0
1761126619.2504754,6.269491195678711,0.0,0.0,1.5312466025180247,0.0,0.0,0.39918601728957454,0.0,0.0,0.0,0.8,0.0,0.0,0.0,0.0,0.0,1.5312466025180247,stabilize,85.0,2.0,0.0,0.0,-2.0,0.4687533974819753,0.0,0,0
1761126619.353669,6.372684717178345,0.0,0.0,1.5692440159001282,0.0,0.0,0.38408558813984,0.0,0.0,0.0,0.8,0.0,0.0,0.0,0.0,0.0,1.5692440159001282,stabilize,85.0,2.0,0.0,0.0,-2.0,0.4307559840998718,0.0,0,0
1761126619.459278,6.4782938957214355,0.0,0.0,1.6065085925593965,0.0,0.0,0.3592829385317473,0.0,0.0,0.0,0.7006498313048402,0.0,0.0,0.0,0.0,0.0,1.6065085925593965,stabilize,85.0,2.0,0.0,0.0,-2.0,0.3934914074406035,0.0,0,0
1761126619.5637333,6.582749128341675,0.0,0.0,1.6419796147706502,0.0,0.0,0.3569019409799215,0.0,0.0,0.0,0.8,0.0,0.0,0.0,0.0,0.0,1.6419796147706502,stabilize,85.0,2.0,0.0,0.0,-2.0,0.35802038522934976,0.0,0,0
1761126619.6705027,6.689518451690674,0.0,0.0,1.677395667433512,0.0,0.0,0.34908269241719775,0.0,0.0,0.0,0.8,0.0,0.0,0.0,0.0,0.0,1.677395667433512,stabilize,85.0,2.0,0.0,0.0,-2.0,0.322604332566488,0.0,0,0
1761126619.7744067,6.79342246055603,0.0,0.0,1.7096396109342362,0.0,0.0,0.2875680890752624,0.0,0.0,0.0,0.5453239219470825,0.0,0.0,0.0,0.0,0.0,1.7096396109342362,stabilize,85.0,2.0,0.0,0.0,-2.0,0.2903603890657638,0.0,0,0
1761126619.8826935,6.901709318161011,0.0,0.0,1.7379488520556237,0.0,0.0,0.20554616218970084,0.0,0.0,0.0,0.3,0.0,0.0,0.0,0.0,0.0,1.7379488520556237,stabilize,85.0,2.0,0.0,0.0,-2.0,0.26205114794437634,0.0,0,0
1761126619.988364,7.007379770278931,0.0,0.0,1.7629386989511633,0.0,0.0,0.20775766284069447,0.0,0.0,0.0,0.3,0.0,0.0,0.0,0.0,0.0,1.7629386989511633,stabilize,85.0,2.0,0.0,0.0,-2.0,0.23706130104883671,0.0,0,0
1761126620.0911765,7.11019229888916,0.0,0.0,1.7859385254339373,0.0,0.0,0.19807874875437093,0.0,0.0,0.0,0.3,0.0,0.0,0.0,0.0,0.0,1.7859385254339373,stabilize,85.0,2.0,0.0,0.0,-2.0,0.21406147456606273,0.0,0,0
1761126620.194459,7.213474750518799,0.0,0.0,1.8074134919618932,0.0,0.0,0.21781707129241082,0.0,0.0,0.0,0.8,0.0,0.0,0.0,0.0,0.0,1.8074134919618932,stabilize,85.0,2.0,0.0,0.0,-2.0,0.19258650803810684,0.0,0,0
1761126620.2989748,7.31799054145813,0.0,0.0,1.8287174034980012,0.0,0.0,0.23375028262635245,0.0,0.0,0.0,0.8,0.0,0.0,0.0,0.0,0.0,1.8287174034980012,stabilize,85.0,2.0,0.0,0.0,-2.0,0.17128259650199884,0.0,0,0
1761126620.4036975,7.422713279724121,0.0,0.0,1.8486100784251918,0.0,0.0,0.21810785780262495,0.0,0.0,0.0,0.7826773314833855,0.0,0.0,0.0,0.0,0.0,1.8486100784251918,stabilize,85.0,2.0,0.0,0.0,-2.0,0.15138992157480824,0.0,0,0
1761126620.508811,7.52782678604126,0.0,0.0,1.8673668776142471,0.0,0.0,0.20301055308673863,0.0,0.0,0.0,0.8,0.0,0.0,0.0,0.0,0.0,1.8673668776142471,stabilize,85.0,2.0,0.0,0.0,-2.0,0.13263312238575287,0.0,0,0
1761126620.611823,7.630838871002197,0.0,0.0,1.8849552895307922,0.0,0.0,0.18915502703420786,0.0,0.0,0.0,0.7537711416279055,0.0,0.0,0.0,0.0,0.0,1.8849552895307922,stabilize,85.0,2.0,0.0,0.0,-2.0,0.11504471046920783,0.0,0,0
1761126620.7144325,7.733448266983032,0.0,0.0,1.9011584547783984,0.0,0.0,0.16692392879027526,0.0,0.0,0.0,0.7049106375196318,0.0,0.0,0.0,0.0,0.0,1.9011584547783984,stabilize,85.0,2.0,0.0,0.0,-2.0,0.0988415452216016,0.0,0,0
1761126620.818759,7.837774753570557,0.0,0.0,1.9165471654870283,0.0,0.0,0.11572998307879553,0.0,0.0,0.0,0.4403693539245134,0.0,0.0,0.0,0.0,0.0,1.9165471654870283,stabilize,85.0,2.0,0.0,0.0,-2.0,0.0834528345129717,0.0,0,0
1761126620.9229105,7.9419262409210205,0.0,0.0,1.9303929114009297,0.0,0.0,0.09791728970354255,0.0,0.0,0.0,0.3,0.0,0.0,0.0,0.0,0.0,1.9303929114009297,stabilize,85.0,2.0,0.0,0.0,-2.0,0.06960708859907028,0.0,0,0
1761126621.0276043,8.04662013053894,0.0,0.0,1.9438488313890179,0.0,0.0,0.10750040160366192,0.0,0.0,0.0,0.3,0.0,0.0,0.0,0.0,0.0,1.9438488313890179,stabilize,85.0,2.0,0.0,0.0,-2.0,0.05615116861098213,0.0,0,0
1761126621.137844,8.156859874725342,0.0,0.0,1.957230922039541,0.0,0.0,0.13520310884844172,0.0,0.0,0.0,0.8,0.0,0.0,0.0,0.0,0.0,1.957230922039541,stabilize,85.0,2.0,0.0,0.0,-2.0,0.042769077960459034,0.0,0,0
1761126621.2410948,8.26011061668396,0.0,0.0,1.9678382074080478,0.0,0.0,0.12815731235944264,0.0,0.0,0.0,0.8,0.0,0.0,0.0,0.0,0.0,1.9678382074080478,stabilize,85.0,2.0,0.0,0.0,-2.0,0.032161792591952176,0.0,0,0
1761126621.3498976,8.368913412094116,0.0,0.0,1.9774871665252391,0.0,0.0,0.03391861533644343,0.0,0.0,0.0,0.4144986424873595,0.0,0.0,0.0,0.0,0.0,1.9774871665252391,stabilize,85.0,2.0,0.0,0.0,-2.0,0.02251283347476085,0.0,0,0
1761126621.4521909,8.471206665039062,0.0,0.0,1.9844077530066344,0.0,0.0,0.03110870226415354,0.0,0.0,0.0,0.3,0.0,0.0,0.0,0.0,0.0,1.9844077530066344,stabilize,85.0,2.0,0.0,0.0,-2.0,0.015592246993365588,0.0,0,0
1761126621.5566769,8.575692653656006,0.0,0.0,1.9911333555722834,0.0,0.0,0.029795864936628357,0.0,0.0,0.0,0.3,0.0,0.0,0.0,0.0,0.0,1.9911333555722834,stabilize,85.0,2.0,0.0,0.0,-2.0,0.008866644427716563,0.0,0,0
1761126621.6587849,8.67780065536499,0.0,0.0,1.9977773678794135,0.0,0.0,0.046181276467343206,0.0,0.0,0.0,0.3,0.0,0.0,0.0,0.0,0.0,1.9977773678794135,stabilize,85.0,2.0,0.0,0.0,-2.0,0.0022226321205864874,0.0,0,0
1761126621.7618988,8.780914545059204,0.0,0.0,2.0047217226425986,0.0,0.0,0.04554488850387997,0.0,0.0,0.0,0.3,0.0,0.0,0.0,0.0,0.0,2.0047217226425986,stabilize,85.0,2.0,0.0,0.0,-2.0,0.004721722642598625,0.0,0,0
1761126621.8699782,8.888993978500366,0.0,0.0,2.012132162266805,0.0,0.0,0.052039030290566037,0.0,0.0,0.0,0.3,0.0,0.0,0.0,0.0,0.0,2.012132162266805,stabilize,85.0,2.0,0.0,0.0,-2.0,0.012132162266805135,0.0,0,0
1761126621.97643,8.995445728302002,0.0,0.0,2.0205357707516978,0.0,0.0,0.06290283483436745,0.0,0.0,0.0,0.3,0.0,0.0,0.0,0.0,0.0,2.0205357707516978,stabilize,85.0,2.0,0.0,0.0,-2.0,0.02053577075169777,0.0,0,0
1761126622.0788455,9.097861289978027,0.0,0.0,2.0294392964271015,0.0,0.0,0.05518953880170635,0.0,0.0,0.0,0.3,0.0,0.0,0.0,0.0,0.0,2.0294392964271015,stabilize,85.0,2.0,0.0,0.0,-2.0,0.029439296427101525,0.0,0,0
1761126622.182503,9.201518774032593,0.0,0.0,2.037492047301455,0.0,0.0,0.04279161780430631,0.0,0.0,0.0,0.3,0.0,0.0,0.0,0.0,0.0,2.037492047301455,stabilize,85.0,2.0,0.0,0.0,-2.0,0.037492047301455056,0.0,0,0
1761126622.2870889,9.30610466003418,0.0,0.0,2.045416582663053,0.0,0.0,0.058145534590451055,0.0,0.0,0.0,0.3,0.0,0.0,0.0,0.0,0.0,2.045416582663053,stabilize,85.0,2.0,0.0,0.0,-2.0,0.04541658266305282,0.0,0,0
1761126622.3895001,9.408515930175781,0.0,0.0,2.0523139842123466,0.0,0.0,0.049587536648065846,0.0,0.0,0.0,0.3,0.0,0.0,0.0,0.0,0.0,2.0523139842123466,stabilize,85.0,2.0,0.0,0.0,-2.0,0.052313984212346565,0.0,0,0
1761126622.491949,9.51096487045288,0.0,0.0,2.059096281989593,0.0,0.0,0.030173393251121707,0.0,0.0,0.0,0.3,0.0,0.0,0.0,0.0,0.0,2.059096281989593,stabilize,85.0,2.0,0.0,0.0,-2.0,0.059096281989592825,0.0,0,0
1761126622.5994413,9.618457078933716,0.0,0.0,2.065626690259823,0.0,0.0,0.08646331030450119,0.0,0.0,0.0,0.8,0.0,0.0,0.0,0.0,0.0,2.065626690259823,stabilize,85.0,2.0,0.0,0.0,-2.0,0.06562669025982304,0.0,0,0
1761126622.704927,9.723942756652832,0.0,0.0,2.0713398808839196,0.0,0.0,0.07978540380319929,0.0,0.0,0.0,0.7578680516515701,0.0,0.0,0.0,0.0,0.0,2.0713398808839196,stabilize,85.0,2.0,0.0,0.0,-2.0,0.07133988088391963,0.0,0,0
1761126622.8088248,9.827840566635132,0.0,0.0,2.076973258536264,0.0,0.0,0.08612320511469648,0.0,0.0,0.0,0.8,0.0,0.0,0.0,0.0,0.0,2.076973258536264,stabilize,85.0,2.0,0.0,0.0,-2.0,0.07697325853626413,0.0,0,0
1761126622.909382,9.92839789390564,0.0,0.0,2.0817108780758735,0.0,0.0,0.027122380305940358,0.0,0.0,0.0,0.3,0.0,0.0,0.0,0.0,0.0,2.0817108780758735,stabilize,85.0,2.0,0.0,0.0,-2.0,0.08171087807587352,0.0,0,0
1761126623.0131166,10.032132387161255,0.0,0.0,2.0861443336876624,0.0,0.0,0.02570584207346604,0.0,0.0,0.0,0.3,0.0,0.0,0.0,0.0,0.0,2.0861443336876624,stabilize,85.0,2.0,0.0,0.0,-2.0,0.08614433368766239,0.0,0,0
1761126623.1166213,10.135637044906616,0.0,0.0,2.0902901666136904,0.0,0.0,0.02142885332353403,0.0,0.0,0.0,0.3,0.0,0.0,0.0,0.0,0.0,2.0902901666136904,stabilize,85.0,2.0,0.0,0.0,-2.0,0.09029016661369038,0.0,0,0
1761126623.2188373,10.237853050231934,0.0,0.0,2.0951111408015146,0.0,0.0,0.029684474160244778,0.0,0.0,0.0,0.3,0.0,0.0,0.0,0.0,0.0,2.0951111408015146,stabilize,85.0,2.0,0.0,0.0,-2.0,0.09511114080151462,0.0,0,0
1761126623.3237002,10.342715978622437,0.0,0.0,2.0993297808748257,0.0,0.0,0.024955489217120007,0.0,0.0,0.0,0.3,0.0,0.0,0.0,0.0,0.0,2.0993297808748257,stabilize,85.0,2.0,0.0,0.0,-2.0,0.09932978087482569,0.0,0,0
1761126623.4286547,10.447670459747314,0.0,0.0,2.1031037646849966,0.0,0.0,-0.0025204700426014054,0.0,0.0,0.0,0.3,0.0,0.0,0.0,0.0,0.0,2.1031037646849966,stabilize,85.0,2.0,0.0,0.0,-2.0,0.1031037646849966,0.0,0,0
1761126623.533796,10.552811861038208,0.0,0.0,2.1058139391837067,0.0,0.0,-0.009373719705944139,0.0,0.0,0.0,0.3,0.0,0.0,0.0,0.0,0.0,2.1058139391837067,stabilize,85.0,2.0,0.0,0.0,-2.0,0.10581393918370674,0.0,0,0
1761126623.6387897,10.657805442810059,0.0,0.0,2.1073465968428176,0.0,0.0,-0.005801849091232089,0.0,0.0,0.0,0.3,0.0,0.0,0.0,0.0,0.0,2.1073465968428176,stabilize,85.0,2.0,0.0,0.0,-2.0,0.10734659684281755,0.0,0,0
1761126623.7416465,10.760662317276001,0.0,0.0,2.107721757934984,0.0,0.0,-0.015296692396097565,0.0,0.0,0.0,0.3,0.0,0.0,0.0,0.0,0.0,2.107721757934984,stabilize,85.0,2.0,0.0,0.0,-2.0,0.10772175793498384,0.0,0,0
1761126623.8449435,10.863959312438965,0.0,0.0,2.1085588620556472,0.0,0.0,-0.03482143031701806,0.0,0.0,0.0,0.34322491012630496,0.0,0.0,0.0,0.0,0.0,2.1085588620556472,stabilize,85.0,2.0,0.0,0.0,-2.0,0.10855886205564724,0.0,0,0
1761126623.9490306,10.968046426773071,0.0,0.0,2.1084924105845175,0.0,0.0,-0.009515537395550465,0.0,0.0,0.0,0.3,0.0,0.0,0.0,0.0,0.0,2.1084924105845175,stabilize,85.0,2.0,0.0,0.0,-2.0,0.10849241058451753,0.0,0,0
1761126624.0517573,11.070773124694824,0.0,0.0,2.1091959964757883,0.0,0.0,-0.012611504375630325,0.0,0.0,0.0,0.3,0.0,0.0,0.0,0.0,0.0,2.1091959964757883,stabilize,85.0,2.0,0.0,0.0,-2.0,0.10919599647578826,0.0,0,0
1761126624.1519644,11.170980215072632,0.0,0.0,2.1074537799785595,0.0,0.0,-0.03450206821130758,0.0,0.0,0.0,0.3,0.0,0.0,0.0,0.0,0.0,2.1074537799785595,stabilize,85.0,2.0,0.0,0.0,-2.0,0.10745377997855954,0.0,0,0
1761126624.2579234,11.276939153671265,0.0,0.0,2.1061821370343985,0.0,0.0,-0.025963318776507434,0.0,0.0,0.0,0.3,0.0,0.0,0.0,0.0,0.0,2.1061821370343985,stabilize,85.0,2.0,0.0,0.0,-2.0,0.1061821370343985,0.0,0,0
1761126624.3652658,11.384281635284424,0.0,0.0,2.106573971493322,0.0,0.0,-0.006259793323397031,0.0,0.0,0.0,0.3,0.0,0.0,0.0,0.0,0.0,2.106573971493322,stabilize,85.0,2.0,0.0,0.0,-2.0,0.10657397149332182,0.0,0,0
1761126624.4699342,11.48895001411438,0.0,0.0,2.1055405356314307,0.0,0.0,0.027516681150265183,0.0,0.0,0.0,0.8,0.0,0.0,0.0,0.0,0.0,2.1055405356314307,stabilize,85.0,2.0,0.0,0.0,-2.0,0.10554053563143073,0.0,0,0
1761126624.5717275,11.59074330329895,0.0,0.0,2.1056526090155674,0.0,0.0,0.008852382626601561,0.0,0.0,0.0,0.6615742195035488,0.0,0.0,0.0,0.0,0.0,2.1056526090155674,stabilize,85.0,2.0,0.0,0.0,-2.0,0.10565260901556739,0.0,0,0
1761126624.677064,11.696079730987549,0.0,0.0,2.10538412764483,0.0,0.0,0.023075223183345844,0.0,0.0,0.0,0.8,0.0,0.0,0.0,0.0,0.0,2.10538412764483,stabilize,85.0,2.0,0.0,0.0,-2.0,0.10538412764483018,0.0,0,0
1761126624.7813053,11.800321102142334,0.0,0.0,2.1055114587597914,0.0,0.0,-0.01627856381168464,0.0,0.0,0.0,0.5315560902212437,0.0,0.0,0.0,0.0,0.0,2.1055114587597914,stabilize,85.0,2.0,0.0,0.0,-2.0,0.1055114587597914,0.0,0,0
1761126624.8842206,11.903236389160156,0.0,0.0,2.1055188334175035,0.0,0.0,-0.019054843966654973,0.0,0.0,0.0,0.3,0.0,0.0,0.0,0.0,0.0,2.1055188334175035,stabilize,85.0,2.0,0.0,0.0,-2.0,0.10551883341750345,0.0,0,0
1761126624.9894924,12.008508205413818,0.0,0.0,2.1068799307947494,0.0,0.0,-0.005924746384731651,0.0,0.0,0.0,0.3,0.0,0.0,0.0,0.0,0.0,2.1068799307947494,stabilize,85.0,2.0,0.0,0.0,-2.0,0.10687993079474944,0.0,0,0
1761126625.0934792,12.112494945526123,0.0,0.0,2.108216296207442,0.0,0.0,0.0003681657680218789,0.0,0.0,0.0,0.3,0.0,0.0,0.0,0.0,0.0,2.108216296207442,stabilize,85.0,2.0,0.0,0.0,-2.0,0.10821629620744222,0.0,0,0
1761126625.19815,12.21716570854187,0.0,0.0,2.107672071394909,0.0,0.0,-0.02174536741409719,0.0,0.0,0.0,0.3,0.0,0.0,0.0,0.0,0.0,2.107672071394909,stabilize,85.0,2.0,0.0,0.0,-2.0,0.10767207139490909,0.0,0,0
1761126625.3022845,12.321300268173218,0.0,0.0,2.1078659298820206,0.0,0.0,-0.03807731586795861,0.0,0.0,0.0,0.3,0.0,0.0,0.0,0.0,0.0,2.1078659298820206,stabilize,85.0,2.0,0.0,0.0,-2.0,0.1078659298820206,0.0,0,0
1761126625.4069817,12.425997495651245,0.0,0.0,2.1080984343934195,0.0,0.0,-0.006414270997734381,0.0,0.0,0.0,0.3,0.0,0.0,0.0,0.0,0.0,2.1080984343934195,stabilize,85.0,2.0,0.0,0.0,-2.0,0.10809843439341948,0.0,0,0
1761126625.5106876,12.529703378677368,0.0,0.0,2.108379737587062,0.0,0.0,-0.005708004345285879,0.0,0.0,0.0,0.3,0.0,0.0,0.0,0.0,0.0,2.108379737587062,stabilize,85.0,2.0,0.0,0.0,-2.0,0.10837973758706188,0.0,0,0
1761126625.6162038,12.63521957397461,0.0,0.0,2.107908080310406,0.0,0.0,-0.016303020453603066,0.0,0.0,0.0,0.3,0.0,0.0,0.0,0.0,0.0,2.107908080310406,stabilize,85.0,2.0,0.0,0.0,-2.0,0.107908080310406,0.0,0,0
1761126625.7187088,12.737724542617798,0.0,0.0,2.109230222449611,0.0,0.0,-0.006056286093616414,0.0,0.0,0.0,0.3,0.0,0.0,0.0,0.0,0.0,2.109230222449611,stabilize,85.0,2.0,0.0,0.0,-2.0,0.10923022244961089,0.0,0,0
1761126625.8240154,12.843031167984009,0.0,0.0,2.1106607982967485,0.0,0.0,0.04030500600214851,0.0,0.0,0.0,0.8,0.0,0.0,0.0,0.0,0.0,2.1106607982967485,stabilize,85.0,2.0,0.0,0.0,-2.0,0.11066079829674846,0.0,0,0
1761126625.9280303,12.947046041488647,0.0,0.0,2.110630419389312,0.0,0.0,0.031328074425703435,0.0,0.0,0.0,0.8,0.0,0.0,0.0,0.0,0.0,2.110630419389312,stabilize,85.0,2.0,0.0,0.0,-2.0,0.11063041938931217,0.0,0,0
1761126626.0317311,13.05074691772461,0.0,0.0,2.1118849918836196,0.0,0.0,0.0443702653475311,0.0,0.0,0.0,0.8,0.0,0.0,0.0,0.0,0.0,2.1118849918836196,stabilize,85.0,2.0,0.0,0.0,-2.0,0.11188499188361956,0.0,0,0
1761126626.1365788,13.15559458732605,0.0,0.0,2.112932635858035,0.0,0.0,0.040756773129568616,0.0,0.0,0.0,0.8,0.0,0.0,0.0,0.0,0.0,2.112932635858035,stabilize,85.0,2.0,0.0,0.0,-2.0,0.11293263585803492,0.0,0,0
1761126626.2393737,13.258389472961426,0.0,0.0,2.114574495729436,0.0,0.0,0.02958822944216823,0.0,0.0,0.0,0.8,0.0,0.0,0.0,0.0,0.0,2.114574495729436,stabilize,85.0,2.0,0.0,0.0,-2.0,0.1145744957294359,0.0,0,0
1761126626.342457,13.361472845077515,0.0,0.0,2.115061888277096,0.0,0.0,0.023743731013321626,0.0,0.0,0.0,0.8,0.0,0.0,0.0,0.0,0.0,2.115061888277096,stabilize,85.0,2.0,0.0,0.0,-2.0,0.11506188827709618,0.0,0,0
1761126626.4472952,13.466310977935791,0.0,0.0,2.11612002490645,0.0,0.0,-0.003963611141042463,0.0,0.0,0.0,0.5328424522609663,0.0,0.0,0.0,0.0,0.0,2.11612002490645,stabilize,85.0,2.0,0.0,0.0,-2.0,0.11612002490644979,0.0,0,0
1761126626.5503392,13.569355010986328,0.0,0.0,2.117056441891845,0.0,0.0,-0.0028666825327040707,0.0,0.0,0.0,0.3,0.0,0.0,0.0,0.0,0.0,2.117056441891845,stabilize,85.0,2.0,0.0,0.0,-2.0,0.11705644189184516,0.0,0,0
1761126626.6574886,13.676504373550415,0.0,0.0,2.1175449720221304,0.0,0.0,-0.0030096089740224083,0.0,0.0,0.0,0.3,0.0,0.0,0.0,0.0,0.0,2.1175449720221304,stabilize,85.0,2.0,0.0,0.0,-2.0,0.11754497202213043,0.0,0,0
1761126626.7603672,13.779382944107056,0.0,0.0,2.1169542714602465,0.0,0.0,-0.01665297746568513,0.0,0.0,0.0,0.3,0.0,0.0,0.0,0.0,0.0,2.1169542714602465,stabilize,85.0,2.0,0.0,0.0,-2.0,0.1169542714602465,0.0,0,0
1761126626.868269,13.887284755706787,0.0,0.0,2.1169164907456492,0.0,0.0,0.011573043568836296,0.0,0.0,0.0,0.8,0.0,0.0,0.0,0.0,0.0,2.1169164907456492,stabilize,85.0,2.0,0.0,0.0,-2.0,0.11691649074564925,0.0,0,0
1761126626.973742,13.992757797241211,0.0,0.0,2.116985976373071,0.0,0.0,0.03300921039689508,0.0,0.0,0.0,0.7959382208790068,0.0,0.0,0.0,0.0,0.0,2.116985976373071,stabilize,85.0,2.0,0.0,0.0,-2.0,0.11698597637307095,0.0,0,0
1761126627.079405,14.098420858383179,0.0,0.0,2.1176966968525277,0.0,0.0,0.0174195377814715,0.0,0.0,0.0,0.7007081450099764,0.0,0.0,0.0,0.0,0.0,2.1176966968525277,stabilize,85.0,2.0,0.0,0.0,-2.0,0.1176966968525277,0.0,0,0
1761126627.1846702,14.203685998916626,0.0,0.0,2.117928495631031,0.0,0.0,-0.053760217298586856,0.0,0.0,0.0,0.3,0.0,0.0,0.0,0.0,0.0,2.117928495631031,auto,85.0,2.043430805206299,0.0,0.0,-15.0,12.88207150436897,0.0,0,0
1761126627.2901015,14.309117317199707,0.0,0.0,2.1205015375591283,0.0,0.0,0.09764402324380497,0.0,0.0,0.0,0.8,0.0,0.0,0.0,0.0,0.0,2.1205015375591283,auto,85.0,2.254293441772461,0.0,0.0,-15.0,12.879498462440871,0.0,0,0
1761126627.3939915,14.413007259368896,0.0,0.0,2.1336917789115306,0.0,0.0,0.19935145964790904,0.0,0.0,0.0,0.8,0.0,0.0,0.0,0.0,0.0,2.1336917789115306,auto,85.0,2.46207332611084,0.0,0.0,-15.0,12.86630822108847,0.0,0,0
1761126627.5006626,14.519678354263306,0.0,0.0,2.1587343715547145,0.0,0.0,0.25273822179768857,0.0,0.0,0.0,0.3,0.0,0.0,0.0,0.0,0.0,2.1587343715547145,auto,85.0,2.675415515899658,0.0,0.0,-15.0,12.841265628445285,0.0,0,0
1761126627.608254,14.627269744873047,0.0,0.0,2.196019412388613,0.0,0.0,0.41091589637589443,0.0,0.0,0.0,0.8,0.0,0.0,0.0,0.0,0.0,2.196019412388613,auto,85.0,2.8905982971191406,0.0,0.0,-15.0,12.803980587611386,0.0,0,0
1761126627.7129784,14.731994152069092,0.0,0.0,2.241335565667981,0.0,0.0,0.500630595754396,0.0,0.0,0.0,0.8,0.0,0.0,0.0,0.0,0.0,2.241335565667981,auto,85.0,3.1000471115112305,0.0,0.0,-15.0,12.758664434332019,0.0,0,0
1761126627.8183472,14.837363004684448,0.0,0.0,2.296461766628601,0.0,0.0,0.5880304330094172,0.0,0.0,0.0,0.8,0.0,0.0,0.0,0.0,0.0,2.296461766628601,auto,85.0,3.3107848167419434,0.0,0.0,-15.0,12.703538233371399,0.0,0,0
1761126627.9218643,14.940880060195923,0.0,0.0,2.3583111966339287,0.0,0.0,0.6578285359566122,0.0,0.0,0.0,0.8,0.0,0.0,0.0,0.0,0.0,2.3583111966339287,auto,85.0,3.5178189277648926,0.0,0.0,-15.0,12.64168880336607,0.0,0,0
1761126628.0265818,15.045597553253174,0.0,0.0,2.429321160566135,0.0,0.0,0.7405975475291274,0.0,0.0,0.0,0.8,0.0,0.0,0.0,0.0,0.0,2.429321160566135,auto,85.0,3.7272539138793945,0.0,0.0,-15.0,12.570678839433866,0.0,0,0
1761126628.1316662,15.150681972503662,0.0,0.0,2.5079698147974705,0.0,0.0,0.799074077462936,0.0,0.0,0.0,0.8,0.0,0.0,0.0,0.0,0.0,2.5079698147974705,auto,85.0,3.937422752380371,0.0,0.0,-15.0,12.49203018520253,0.0,0,0
1761126628.2367873,15.255803108215332,0.0,0.0,2.5949983309787323,0.0,0.0,0.8735818462934382,0.0,0.0,0.0,0.8,0.0,0.0,0.0,0.0,0.0,2.5949983309787323,auto,85.0,4.147665023803711,0.0,0.0,-15.0,12.405001669021267,0.0,0,0
1761126628.338965,15.357980728149414,0.0,0.0,2.685233995995889,0.0,0.0,0.943403947806755,0.0,0.0,0.0,0.8,0.0,0.0,0.0,0.0,0.0,2.685233995995889,auto,85.0,4.352020263671875,0.0,0.0,-15.0,12.314766004004111,0.0,0,0
1761126628.4415488,15.460564613342285,0.0,0.0,2.7823390815649103,0.0,0.0,0.9938667850313494,0.0,0.0,0.0,0.8,0.0,0.0,0.0,0.0,0.0,2.7823390815649103,auto,85.0,4.557188034057617,0.0,0.0,-15.0,12.21766091843509,0.0,0,0
1761126628.5452611,15.564276933670044,0.0,0.0,2.886840259341448,0.0,0.0,1.0660083695396767,0.0,0.0,0.0,0.8,0.0,0.0,0.0,0.0,0.0,2.886840259341448,auto,85.0,4.764612674713135,0.0,0.0,-15.0,12.113159740658553,0.0,0,0
1761126628.6518955,15.670911312103271,0.0,0.0,3.000239505138986,0.0,0.0,1.1048792394601161,0.0,0.0,0.0,0.8,0.0,0.0,0.0,0.0,0.0,3.000239505138986,auto,85.0,4.97788143157959,0.0,0.0,-15.0,11.999760494861015,0.0,0,0
1761126628.7577202,15.77673602104187,0.0,0.0,3.118562458262015,0.0,0.0,1.1608938791481664,0.0,0.0,0.0,0.8,0.0,0.0,0.0,0.0,0.0,3.118562458262015,auto,85.0,5.189530849456787,0.0,0.0,-15.0,11.881437541737984,0.0,0,0
1761126628.8604825,15.87949824333191,0.0,0.0,3.238239246641601,0.0,0.0,1.2081199088222114,0.0,0.0,0.0,0.8,0.0,0.0,0.0,0.0,0.0,3.238239246641601,auto,85.0,5.395055294036865,0.0,0.0,-15.0,11.761760753358399,0.0,0,0
1761126628.9645984,15.983614206314087,0.0,0.0,3.3644137783443404,0.0,0.0,1.2515176002251667,0.0,0.0,0.0,0.8,0.0,0.0,0.0,0.0,0.0,3.3644137783443404,auto,85.0,5.603287220001221,0.0,0.0,-15.0,11.63558622165566,0.0,0,0
1761126629.069867,16.08888268470764,0.0,0.0,3.496610329935979,0.0,0.0,1.2938484856251122,0.0,0.0,0.0,0.8,0.0,0.0,0.0,0.0,0.0,3.496610329935979,auto,85.0,5.81382417678833,0.0,0.0,-15.0,11.50338967006402,0.0,0,0
1761126629.1741436,16.193159341812134,0.0,0.0,3.6324058728279462,0.0,0.0,1.3421922027580857,0.0,0.0,0.0,0.8,0.0,0.0,0.0,0.0,0.0,3.6324058728279462,auto,85.0,6.0223774909973145,0.0,0.0,-15.0,11.367594127172055,0.0,0,0
1761126629.2873473,16.306363105773926,0.0,0.0,3.7861466683795566,0.0,0.0,1.4385753471800418,0.0,0.0,0.0,0.8,0.0,0.0,0.0,0.0,0.0,3.7861466683795566,auto,85.0,6.248785018920898,0.0,0.0,-15.0,11.213853331620443,0.0,0,0
1761126629.391867,16.410882711410522,0.0,0.0,3.930857039533086,0.0,0.0,1.3725107960508243,0.0,0.0,0.0,0.3,0.0,0.0,0.0,0.0,0.0,3.930857039533086,auto,85.0,6.457824230194092,0.0,0.0,-15.0,11.069142960466914,0.0,0,0
1761126629.49667,16.51568579673767,0.0,0.0,4.078803577037865,0.0,0.0,1.4051003168256164,0.0,0.0,0.0,0.3,0.0,0.0,0.0,0.0,0.0,4.078803577037865,auto,85.0,6.667430400848389,0.0,0.0,-15.0,10.921196422962135,0.0,0,0
1761126629.601806,16.620821714401245,0.0,0.0,4.230713215037463,0.0,0.0,1.449968374177739,0.0,0.0,0.0,0.4175256431506631,0.0,0.0,0.0,0.0,0.0,4.230713215037463,auto,85.0,6.877702236175537,0.0,0.0,-15.0,10.769286784962537,0.0,0,0
1761126629.7054257,16.724441528320312,0.0,0.0,4.384621507358329,0.0,0.0,1.4824092857711877,0.0,0.0,0.0,0.3,0.0,0.0,0.0,0.0,0.0,4.384621507358329,auto,85.0,7.084941864013672,0.0,0.0,-15.0,10.615378492641671,0.0,0,0
1761126629.8098614,16.828877210617065,0.0,0.0,4.543496421786168,0.0,0.0,1.5120072227268324,0.0,0.0,0.0,0.3,0.0,0.0,0.0,0.0,0.0,4.543496421786168,auto,85.0,7.293813228607178,0.0,0.0,-15.0,10.456503578213832,0.0,0,0
1761126629.9145136,16.933529376983643,0.0,0.0,4.705605073937455,0.0,0.0,1.5533330062869959,0.0,0.0,0.0,0.4277812938660773,0.0,0.0,0.0,0.0,0.0,4.705605073937455,auto,85.0,7.503117561340332,0.0,0.0,-15.0,10.294394926062544,0.0,0,0
1761126630.0195694,17.03858518600464,0.0,0.0,4.872717659247039,0.0,0.0,1.5814293259276646,0.0,0.0,0.0,0.3,0.0,0.0,0.0,0.0,0.0,4.872717659247039,auto,85.0,7.713229179382324,0.0,0.0,-15.0,10.127282340752961,0.0,0,0
1761126630.127642,17.146657705307007,0.0,0.0,5.048323725197242,0.0,0.0,1.6253706318554797,0.0,0.0,0.0,0.3,0.0,0.0,0.0,0.0,0.0,5.048323725197242,auto,85.0,7.9293742179870605,0.0,0.0,-15.0,9.951676274802757,0.0,0,0
1761126630.232737,17.251752853393555,0.0,0.0,5.222836847431336,0.0,0.0,1.6480649082328085,0.0,0.0,0.0,0.3,0.0,0.0,0.0,0.0,0.0,5.222836847431336,auto,85.0,8.139564514160156,0.0,0.0,-15.0,9.777163152568665,0.0,0,0
1761126630.337128,17.356143712997437,0.0,0.0,5.39855033759817,0.0,0.0,1.6692959655778354,0.0,0.0,0.0,0.3,0.0,0.0,0.0,0.0,0.0,5.39855033759817,auto,85.0,8.34834623336792,0.0,0.0,-15.0,9.60144966240183,0.0,0,0
1761126630.4448557,17.463871479034424,0.0,0.0,5.5836427181048975,0.0,0.0,1.7105748634199747,0.0,0.0,0.0,0.3,0.0,0.0,0.0,0.0,0.0,5.5836427181048975,auto,85.0,8.563801765441895,0.0,0.0,-15.0,9.416357281895102,0.0,0,0
1761126630.549883,17.568898677825928,0.0,0.0,5.766668513626494,0.0,0.0,1.7303930488803791,0.0,0.0,0.0,0.3,0.0,0.0,0.0,0.0,0.0,5.766668513626494,auto,85.0,8.773856163024902,0.0,0.0,-15.0,9.233331486373505,0.0,0,0
1761126630.6535344,17.672550201416016,0.0,0.0,5.949654253737051,0.0,0.0,1.7504885596992699,0.0,0.0,0.0,0.3,0.0,0.0,0.0,0.0,0.0,5.949654253737051,auto,85.0,8.981159210205078,0.0,0.0,-15.0,9.050345746262948,0.0,0,0
1761126630.7576437,17.77665948867798,0.0,0.0,6.135532289896468,0.0,0.0,1.7730805515861003,0.0,0.0,0.0,0.3,0.0,0.0,0.0,0.0,0.0,6.135532289896468,auto,85.0,9.189377784729004,0.0,0.0,-15.0,8.864467710103533,0.0,0,0
1761126630.8653107,17.884326457977295,0.0,0.0,6.329129188540056,0.0,0.0,1.7820882297596488,0.0,0.0,0.0,0.3,0.0,0.0,0.0,0.0,0.0,6.329129188540056,auto,85.0,9.404711723327637,0.0,0.0,-15.0,8.670870811459945,0.0,0,0
1761126630.9699655,17.988981246948242,0.0,0.0,6.519097159476697,0.0,0.0,1.804881892324644,0.0,0.0,0.0,0.3,0.0,0.0,0.0,0.0,0.0,6.519097159476697,auto,85.0,9.614021301269531,0.0,0.0,-15.0,8.480902840523303,0.0,0,0
1761126631.0739803,18.09299612045288,0.0,0.0,6.710501434317292,0.0,0.0,1.8238867417727962,0.0,0.0,0.0,0.3,0.0,0.0,0.0,0.0,0.0,6.710501434317292,auto,85.0,9.822051048278809,0.0,0.0,-15.0,8.289498565682708,0.0,0,0
1761126631.179551,18.198566675186157,0.0,0.0,6.906425200961263,0.0,0.0,1.8399692675490633,0.0,0.0,0.0,0.3,0.0,0.0,0.0,0.0,0.0,6.906425200961263,auto,85.0,10.033192157745361,0.0,0.0,-15.0,8.093574799038738,0.0,0,0
1761126631.284327,18.303342819213867,0.0,0.0,7.103118762926573,0.0,0.0,1.8628078232078162,0.0,0.0,0.0,0.3,0.0,0.0,0.0,0.0,0.0,7.103118762926573,auto,85.0,10.242744445800781,0.0,0.0,-15.0,7.896881237073427,0.0,0,0
1761126631.3885567,18.407572507858276,0.0,0.0,7.30064476771862,0.0,0.0,1.8805676980693573,0.0,0.0,0.0,0.3,0.0,0.0,0.0,0.0,0.0,7.30064476771862,auto,85.0,10.4512038230896,0.0,0.0,-15.0,7.69935523228138,0.0,0,0
1761126631.493199,18.51221489906311,0.0,0.0,7.501135460585535,0.0,0.0,1.8999655515055591,0.0,0.0,0.0,0.3,0.0,0.0,0.0,0.0,0.0,7.501135460585535,auto,85.0,10.660488605499268,0.0,0.0,-15.0,7.498864539414465,0.0,0,0
1761126631.6033492,18.62236499786377,0.0,0.0,7.713757282175847,0.0,0.0,1.901741645266914,0.0,0.0,0.0,0.3,0.0,0.0,0.0,0.0,0.0,7.713757282175847,auto,85.0,10.880788803100586,0.0,0.0,-15.0,7.286242717824153,0.0,0,0
1761126631.7093015,18.728317260742188,0.0,0.0,7.918554021906697,0.0,0.0,1.9159172109374643,0.0,0.0,0.0,0.3,0.0,0.0,0.0,0.0,0.0,7.918554021906697,auto,85.0,11.092693328857422,0.0,0.0,-15.0,7.081445978093303,0.0,0,0
1761126631.8126519,18.83166766166687,0.0,0.0,8.119855749022042,0.0,0.0,1.934314862195856,0.0,0.0,0.0,0.3,0.0,0.0,0.0,0.0,0.0,8.119855749022042,auto,85.0,11.299394130706787,0.0,0.0,-15.0,6.880144250977958,0.0,0,0
1761126631.9198103,18.938826084136963,0.0,0.0,8.329997800393437,0.0,0.0,1.937160455779112,0.0,0.0,0.0,0.3,0.0,0.0,0.0,0.0,0.0,8.329997800393437,auto,85.0,11.513710975646973,0.0,0.0,-15.0,6.670002199606563,0.0,0,0
1761126632.0226347,19.041650533676147,0.0,0.0,8.53239236015119,0.0,0.0,1.9537595414939941,0.0,0.0,0.0,0.3,0.0,0.0,0.0,0.0,0.0,8.53239236015119,auto,85.0,11.719359874725342,0.0,0.0,-15.0,6.46760763984881,0.0,0,0
1761126632.1274664,19.146482229232788,0.0,0.0,8.740482599163988,0.0,0.0,1.9672282562305003,0.0,0.0,0.0,0.3,0.0,0.0,0.0,0.0,0.0,8.740482599163988,auto,85.0,11.929023265838623,0.0,0.0,-15.0,6.259517400836012,0.0,0,0
1761126632.2307005,19.24971628189087,0.0,0.0,8.94701273498692,0.0,0.0,1.9800699153913934,0.0,0.0,0.0,0.3,0.0,0.0,0.0,0.0,0.0,8.94701273498692,auto,85.0,12.135491371154785,0.0,0.0,-15.0,6.05298726501308,0.0,0,0
1761126632.3366108,19.355626583099365,0.0,0.0,9.159896455893453,0.0,0.0,1.9923945169311896,0.0,0.0,0.0,0.3,0.0,0.0,0.0,0.0,0.0,9.159896455893453,auto,85.0,12.347311973571777,0.0,0.0,-15.0,5.840103544106547,0.0,0,0
1761126632.4401293,19.459145069122314,0.0,0.0,9.368892392713075,0.0,0.0,2.001000900266559,0.0,0.0,0.0,0.3,0.0,0.0,0.0,0.0,0.0,9.368892392713075,auto,85.0,12.554348945617676,0.0,0.0,-15.0,5.631107607286925,0.0,0,0
1761126632.543884,19.562899827957153,0.0,0.0,9.578210862911186,0.0,0.0,1.989454255361791,0.0,0.0,0.0,0.3,0.0,0.0,0.0,0.0,0.0,9.578210862911186,auto,85.0,12.761858463287354,0.0,0.0,-15.0,5.421789137088814,0.0,0,0
1761126632.6486678,19.667683601379395,0.0,0.0,9.78909578096664,0.0,0.0,1.9876533503575242,0.0,0.0,0.0,0.3,0.0,0.0,0.0,0.0,0.0,9.78909578096664,auto,85.0,12.971426010131836,0.0,0.0,-15.0,5.21090421903336,0.0,0,0
1761126632.7511644,19.770180225372314,0.0,0.0,9.996115006477408,0.0,0.0,1.9960207921679802,0.0,0.0,0.0,0.3,0.0,0.0,0.0,0.0,0.0,9.996115006477408,auto,85.0,13.176419258117676,0.0,0.0,-15.0,5.0038849935225915,0.0,0,0
1761126632.853982,19.872997760772705,0.0,0.0,10.208835234463134,0.0,0.0,2.1035291896642,0.0,0.0,0.0,0.8,0.0,0.0,0.0,0.0,0.0,10.208835234463134,auto,85.0,15,0.0,0.0,-15.0,4.791164765536866,0.0,0,0
1761126632.9586072,19.977622985839844,0.0,0.0,10.427128646251264,0.0,0.0,2.1143875557779235,0.0,0.0,0.0,0.8,0.0,0.0,0.0,0.0,0.0,10.427128646251264,auto,85.0,15,0.0,0.0,-15.0,4.572871353748736,0.0,0,0
1761126633.0626178,20.08163356781006,0.0,0.0,10.645051702640595,0.0,0.0,2.123943451360015,0.0,0.0,0.0,0.8,0.0,0.0,0.0,0.0,0.0,10.645051702640595,auto,85.0,15,0.0,0.0,-15.0,4.354948297359405,0.0,0,0
1761126633.171971,20.19098687171936,0.0,0.0,10.87272263366456,0.0,0.0,2.0639717185254924,0.0,0.0,0.0,0.3,0.0,0.0,0.0,0.0,0.0,10.87272263366456,auto,85.0,15,0.0,0.0,-15.0,4.12727736633544,0.0,0,0
1761126633.2749186,20.29393434524536,0.0,0.0,11.088243105981233,0.0,0.0,2.0721864762702316,0.0,0.0,0.0,0.3,0.0,0.0,0.0,0.0,0.0,11.088243105981233,auto,85.0,15,0.0,0.0,-15.0,3.911756894018767,0.0,0,0
1761126633.381563,20.40057873725891,0.0,0.0,11.311515656165858,0.0,0.0,2.06347358352832,0.0,0.0,0.0,0.3,0.0,0.0,0.0,0.0,0.0,11.311515656165858,auto,85.0,15,0.0,0.0,-15.0,3.6884843438341424,0.0,0,0
1761126633.484006,20.503021717071533,0.0,0.0,11.525982370565908,0.0,0.0,2.0771772074226433,0.0,0.0,0.0,0.3,0.0,0.0,0.0,0.0,0.0,11.525982370565908,auto,85.0,15,0.0,0.0,-15.0,3.4740176294340923,0.0,0,0
1761126633.588648,20.607663869857788,0.0,0.0,11.74412290100377,0.0,0.0,2.01411308280523,0.0,0.0,0.0,0.3,0.0,0.0,0.0,0.0,0.0,11.74412290100377,auto,85.0,15,0.0,0.0,-15.0,3.25587709899623,0.0,0,0
1761126633.6919885,20.71100425720215,0.0,0.0,11.94879783959724,0.0,0.0,1.9451210691692709,0.0,0.0,0.0,0.8,0.0,0.0,0.0,0.0,0.0,11.94879783959724,auto,85.0,15,0.0,0.0,-15.0,3.0512021604027595,0.0,0,0
1761126633.7983506,20.817366361618042,0.0,0.0,12.147284599753766,0.0,0.0,1.8202923420142627,0.0,0.0,0.0,0.3,0.0,0.0,0.0,0.0,0.0,12.147284599753766,auto,85.0,15,0.0,0.0,-15.0,2.8527154002462343,0.0,0,0
1761126633.9013124,20.92032814025879,0.0,0.0,12.327662675486822,0.0,0.0,1.6873042130805769,0.0,0.0,0.0,0.3,0.0,0.0,0.0,0.0,0.0,12.327662675486822,auto,85.0,15,0.0,0.0,-15.0,2.672337324513178,0.0,0,0
1761126634.0044868,21.023502588272095,0.0,0.0,12.497116332946828,0.0,0.0,1.581527227063058,0.0,0.0,0.0,0.3,0.0,0.0,0.0,0.0,0.0,12.497116332946828,auto,85.0,15,0.0,0.0,-15.0,2.5028836670531724,0.0,0,0
1761126634.1080763,21.127092123031616,0.0,0.0,12.656626507230916,0.0,0.0,1.4957194997989833,0.0,0.0,0.0,0.561648605232645,0.0,0.0,0.0,0.0,0.0,12.656626507230916,auto,85.0,15,0.0,0.0,-15.0,2.343373492769084,0.0,0,0
1761126634.2129836,21.231999397277832,0.0,0.0,12.80770856251883,0.0,0.0,1.3704942384298977,0.0,0.0,0.0,0.3,0.0,0.0,0.0,0.0,0.0,12.80770856251883,auto,85.0,15,0.0,0.0,-15.0,2.1922914374811704,0.0,0,0
1761126634.3167186,21.335734367370605,0.0,0.0,12.947944021097946,0.0,0.0,1.3038867946534987,0.0,0.0,0.0,0.5498931679274568,0.0,0.0,0.0,0.0,0.0,12.947944021097946,auto,85.0,15,0.0,0.0,-15.0,2.052055978902054,0.0,0,0
1761126634.4195483,21.43856406211853,0.0,0.0,13.078492110641836,0.0,0.0,1.2224382057161538,0.0,0.0,0.0,0.3,0.0,0.0,0.0,0.0,0.0,13.078492110641836,auto,85.0,15,0.0,0.0,-15.0,1.921507889358164,0.0,0,0
1761126634.5219135,21.540929317474365,0.0,0.0,13.2002406794085,0.0,0.0,1.1425995257753438,0.0,0.0,0.0,0.3,0.0,0.0,0.0,0.0,0.0,13.2002406794085,auto,85.0,15,0.0,0.0,-15.0,1.7997593205915,0.0,0,0
1761126634.629716,21.64873170852661,0.0,0.0,13.320150711889056,0.0,0.0,1.075365167062966,0.0,0.0,0.0,0.3,0.0,0.0,0.0,0.0,0.0,13.320150711889056,auto,85.0,15,0.0,0.0,-15.0,1.679849288110944,0.0,0,0
1761126634.7337546,21.75277042388916,0.0,0.0,13.428774126738602,0.0,0.0,1.0461738996810281,0.0,0.0,0.0,0.8,0.0,0.0,0.0,0.0,0.0,13.428774126738602,auto,85.0,15,0.0,0.0,-15.0,1.5712258732613975,0.0,0,0
1761126634.838785,21.857800722122192,0.0,0.0,13.532325532068874,0.0,0.0,0.9410337810210109,0.0,0.0,0.0,0.3,0.0,0.0,0.0,0.0,0.0,13.532325532068874,auto,85.0,15,0.0,0.0,-15.0,1.4676744679311255,0.0,0,0
1761126634.9436235,21.962639331817627,0.0,0.0,13.628781128915115,0.0,0.0,0.9087032174830565,0.0,0.0,0.0,0.6758853368325298,0.0,0.0,0.0,0.0,0.0,13.628781128915115,auto,85.0,15,0.0,0.0,-15.0,1.371218871084885,0.0,0,0
1761126635.047458,22.066473722457886,0.0,0.0,13.718975078378168,0.0,0.0,0.8189016458221863,0.0,0.0,0.0,0.42025279685765904,0.0,0.0,0.0,0.0,0.0,13.718975078378168,auto,85.0,15,0.0,0.0,-15.0,1.2810249216218317,0.0,0,0
1761126635.1509557,22.169971466064453,0.0,0.0,13.803407003425576,0.0,0.0,0.761727973773335,0.0,0.0,0.0,0.3690161908719475,0.0,0.0,0.0,0.0,0.0,13.803407003425576,auto,85.0,15,0.0,0.0,-15.0,1.1965929965744238,0.0,0,0
1761126635.2538245,22.27284026145935,0.0,0.0,13.882894697017116,0.0,0.0,0.7214938591492596,0.0,0.0,0.0,0.4048738808742579,0.0,0.0,0.0,0.0,0.0,13.882894697017116,auto,85.0,15,0.0,0.0,-15.0,1.1171053029828837,0.0,0,0
1761126635.357851,22.376866817474365,0.0,0.0,13.959097524043395,0.0,0.0,0.6898547145333724,0.0,0.0,0.0,0.4381869241713431,0.0,0.0,0.0,0.0,0.0,13.959097524043395,auto,85.0,15,0.0,0.0,-15.0,1.0409024759566048,0.0,0,0
1761126635.460519,22.47953486442566,-1.726254668566297e-05,1.7260299772217236e-05,14.029727982632622,-0.0021698520350775445,0.002169844574177993,0.6578810005644882,0.025424034705473685,0.02542426954772137,-4.2056788800005204e-05,0.3,0.4,-0.4,-0.000623115956695891,-1.726254668566297e-05,1.7260299772217236e-05,14.029727982632622,auto,85.0,15,15.0,15.0,-15.0,21.23538150953944,0.0359552053465671,1,0
1761126635.5648873,22.583903074264526,-0.007227577841403375,0.006056119779472035,14.096231719424614,-0.21334699358996959,0.15123310902818946,0.5978299670777403,0.21898829231076417,0.5100776178546989,-0.0022023359183931442,0.416974978181839,-0.4,-0.4,0.008898233655812975,-0.007227577841403375,0.006056119779472035,14.096231719424614,auto,85.0,15,15.0,15.0,-15.0,21.233276472586613,0.5551035026812624,1,0
1761126635.6677675,22.68678331375122,-0.07528720839098538,0.032783425739980984,14.148146089240209,-1.2439561802736185,0.34057648571512505,0.23463436554598305,0.10260563731571556,1.6005174765153127,-0.0008401030522761763,0.8,0.4,-0.4,0.00034981628225855136,-0.07528720839098538,0.032783425739980984,14.148146089240209,auto,85.0,15,15.0,15.0,-15.0,21.260468279921717,1.603803234568707,1,0
1761126635.7707136,22.789729356765747,-0.2569220035732155,0.07765376381520234,14.087715066022763,-2.0138351016251583,0.5472531691408703,-1.6359320045346781,0.15721155834332623,-2.9646641765352366,0.004833624855262441,0.8,-0.22969616282536925,0.4,-0.02215984559327798,-0.2569220035732155,0.07765376381520234,14.087715066022763,auto,85.0,15,15.0,15.0,-15.0,21.360766606478734,2.968833528111223,1,0
1761126635.8741994,22.89321517944336,-0.42030052581545846,0.1432859838074137,13.819553487706992,-0.9641741748958892,0.726421479153112,-3.266434994061337,0.17262123880544983,-1.4184864643563773,0.001281260189300903,0.8,-0.3328767594263022,0.4,0.003896223432535229,-0.42030052581545846,0.1432859838074137,13.819553487706992,auto,85.0,15,15.0,15.0,-15.0,21.445304232716833,1.4289519177623355,1,0
1761126635.978178,22.997193813323975,-0.4620041856423996,0.2294332184231558,13.463295330392747,-0.00906209745609713,0.91146004461146,-3.4003773706897307,0.12320864044384064,-0.21207744481548527,0.0007598754664429364,0.8,0.39781671240110456,-0.4,0.001805974701508852,-0.4620041856423996,0.2294332184231558,13.463295330392747,auto,85.0,15,15.0,15.0,-15.0,21.438392610628185,0.24527084843129912,1,0
1761126636.0889857,23.108001470565796,-0.4882264907671722,0.3408294014457988,13.099966538466257,-0.7870989808624904,1.1176263929602512,-3.5022048685573357,0.12865586102291104,1.7560166816362066,0.003078580052231435,0.8,0.09536308235246836,-0.4,-0.010458672453198953,-0.4882264907671722,0.3408294014457988,13.099966538466257,auto,85.0,15,15.0,15.0,-15.0,21.409964260170213,1.760726098635253,1,0
1761126636.1933239,23.212339639663696,-0.6030563353466574,0.46670137718398,12.631189698240469,-0.9140176123046747,1.28749737676492,-5.448147233531052,0.17064066017494434,-2.0041244186694773,0.007248682669056088,0.8,-0.37348053143179305,0.4,-0.023780791807581452,-0.6030563353466574,0.46670137718398,12.631189698240469,auto,85.0,15,15.0,15.0,-15.0,21.454216324761656,2.011388938970444,1,0
1761126636.2984557,23.317471504211426,-0.6380306156732829,0.6114777742977591,12.030639686176439,-0.016511932963261915,1.4566472402156538,-5.637855212629366,0.14784204605441797,0.1471024242271832,0.015888554315656337,0.8,0.02837941086105682,-0.4,-0.05129322178535915,-0.6380306156732829,0.6114777742977591,12.030639686176439,auto,85.0,15,15.0,15.0,-15.0,21.45680950303592,0.2091622335731582,1,0
1761126636.402009,23.421024799346924,-0.6872478576572454,0.7707239145038096,11.436985488873162,-0.9983529611712727,1.6075421685570035,-6.3166400486877174,0.12758432114722382,2.7806628089925822,0.018693687151948468,0.8,0.24738224947493692,-0.4,-0.04697423788044679,-0.6872478576572454,0.7707239145038096,11.436985488873162,auto,85.0,15,15.0,15.0,-15.0,21.47689725429039,2.783650996489404,1,0
1761126636.507297,23.526312828063965,-0.7583204147676542,0.9481954364182084,10.681840247609088,-0.12343380643255074,1.7760011848937425,-7.550340299280777,0.1618371977198604,-0.6793526776548995,0.01907315197519324,0.8,-0.23835052167091142,0.4,-0.040591607400038254,-0.7583204147676542,0.9481954364182084,10.681840247609088,auto,85.0,15,15.0,15.0,-15.0,21.550507591116034,0.6986237358757343,1,0
1761126636.6115339,23.630549669265747,-0.7798192122218822,1.1401739464218792,9.910338163694034,-0.6898082746689018,1.89487640238885,-7.58606059949108,0.15136468850118892,2.1319209561501204,0.02212825403863173,0.8,-0.03238202197317294,-0.4,-0.05228702822190967,-0.7798192122218822,1.1401739464218792,9.910338163694034,auto,85.0,15.020537853240967,15.0,15.0,-15.0,21.61023207218745,2.1374021361980304,1,0
1761126636.7150187,23.734034538269043,-0.8482703350765355,1.3439435481699789,9.035745132044896,-0.17327259500319253,2.046614571868159,-8.977006408718676,0.14316340316757112,-0.9646934230603843,0.023946991844648217,0.8,0.09764698067212137,0.4,-0.05493556274807428,-0.8482703350765355,1.3439435481699789,9.035745132044896,auto,85.0,15.227507591247559,15.0,15.0,-15.0,21.753801657622088,0.9755524685637825,1,0
1761126636.8216424,23.84065818786621,-0.8659452297673654,1.569031700919565,8.098065827246701,-0.630030569582764,2.164724777663901,-8.933658888947468,0.1445991657621996,2.2358424582334737,0.021654379342450784,0.8,0.03975739399587231,-0.4,-0.04096619740749282,-0.8659452297673654,1.569031700919565,8.098065827246701,auto,85.0,15.440754890441895,15.0,15.0,-15.0,21.903329034872787,2.240618068507735,1,0
1761126636.9276145,23.946630239486694,-0.9185254124115776,1.8033337747836067,7.074459407176853,-0.012323334672761296,2.286831753239794,-9.986499471878052,0.15890034176224432,-0.4409640891245584,0.017527238573252443,0.8,-0.1333369335079409,0.4,-0.02654730933033369,-0.9185254124115776,1.8033337747836067,7.074459407176853,auto,85.0,15.65168571472168,15.0,15.0,-15.0,22.144201147339857,0.46904781270315427,1,0
1761126637.0319662,24.050981998443604,-0.9494008642210691,2.0488228154494506,6.036126217474435,-0.7050201086385524,2.3861556557084107,-10.39153686230536,0.14069542764946785,-3.0658420228454264,0.011162323826813559,0.8,0.1336539123096733,-0.4,-0.007788699869603542,-0.9494008642210691,2.0488228154494506,6.036126217474435,auto,85.0,15.86140251159668,15.0,15.0,-15.0,22.41578487544631,3.0690889706685955,1,0
1761126637.135227,24.154242753982544,-0.9761321796623532,2.3005764506858024,4.92275490108351,-0.028487658746106273,2.4911873792941166,-10.62880166172175,0.1544997793345887,0.615575220708519,0.006169528024594577,0.8,-0.07046143638027466,-0.4,-0.0005653548018102472,-0.9761321796623532,2.3005764506858024,4.92275490108351,auto,85.0,16.06792402267456,15.0,15.0,-15.0,22.760997928266576,0.6346976423784988,1,0
1761126637.241028,24.26004385948181,-1.0222559670451934,2.5686371103843078,3.758445076766531,-0.30490385970588185,2.5754145934679427,-11.653370464799485,0.15425728119094792,-1.5927023617122251,0.0018180519229570554,0.8,-0.041051792578169634,0.4,0.006285094168401903,-1.0222559670451934,2.5686371103843078,3.758445076766531,auto,85.0,16.279526233673096,15.0,15.0,-15.0,23.18672091217092,1.6001560633628575,1,0
1761126637.3475087,24.36652445793152,-1.0357101324581166,2.847570836929365,2.537697628395646,-0.5115111523586214,2.6608469698092136,-11.49989491792107,0.14755222899839218,2.3778245644503198,-0.0007299907050889461,0.8,0.0547703831674378,-0.4,0.007557887647106804,-1.0357101324581166,2.847570836929365,2.537697628395646,auto,85.0,16.49248743057251,15.0,15.0,-15.0,23.667161097541147,2.382398340427599,1,0
1761126637.4533384,24.47235417366028,-1.0654570945913469,3.132922245438659,1.262583014361688,0.06308136510879882,2.73169497798101,-11.994321589697135,0.15247915895688113,0.31294618072733343,-0.0016495473235883804,0.8,-0.025043435076412716,-0.4,0.0050010868994166124,-1.0654570945913469,3.132922245438659,1.262583014361688,auto,85.0,16.70414686203003,15.0,15.0,-15.0,24.24135044770122,0.3481205638200585,1,0
1761126637.557994,24.577009677886963,-1.09933929271295,3.42226735408855,-0.014624048180553045,-0.23275843681670816,2.7898980538560845,-12.74419723775083,0.12534148200255257,-1.5177258709170898,-0.0010381094880417127,0.8,-0.4,0.4,0.0004349524050898519,-1.09933929271295,3.42226735408855,-0.014624048180553045,auto,85.0,16.9134578704834,15.0,15.0,-15.0,24.87310905758057,1.5228930967185268,1,0
1761126637.6631775,24.682193279266357,-1.1162382853572201,3.710577762282323,-1.3338645089132302,-0.509670677238531,2.6423966599983575,-12.728101704848392,-0.07548637924007062,3.0135054980201414,0.009587218510805098,0.8,0.4,-0.4,-0.04355820368934914,-1.1162382853572201,3.710577762282323,-1.3338645089132302,auto,85.0,17.123825073242188,15.0,15.0,-15.0,25.573019390119413,3.0144660380915176,1,0
1761126637.7679641,24.786979913711548,-1.1318692786252045,3.9781246555321865,-2.6939536589233244,-0.1509500309765131,2.495932001459257,-12.756148543276751,0.048355181937122585,1.3338177848512787,0.021664170219085618,0.8,-0.4,-0.4,-0.07644236903173049,-1.1318692786252045,3.9781246555321865,-2.6939536589233244,auto,85.0,17.33339834213257,15.0,15.0,-15.0,26.35896315517295,1.3348698225209175,1,0
1761126637.873874,24.892889738082886,-1.1623448702228507,4.235095298202084,-4.096074427033003,0.08367607346084602,2.3442758990038604,-13.375581120427976,-0.02272550382555994,-0.1968557426979952,0.0196351815765824,0.8,0.3733842119129934,0.4,-0.04426045460118732,-1.1623448702228507,4.235095298202084,-4.096074427033003,auto,85.0,17.545217990875244,15.0,15.0,-15.0,27.235356128855624,0.19913355396027604,1,0
1761126637.9786756,24.99769139289856,-1.1871446674902417,4.474595574719286,-5.49736712250823,-0.2121090812259793,2.2327755731655463,-13.836383439723784,-0.009309414464512172,-1.6828653438560421,0.005023134633769209,0.8,0.12593717625296105,0.4,0.019455973249550944,-1.1871446674902417,4.474595574719286,-5.49736712250823,auto,85.0,17.754821300506592,15.0,15.0,-15.0,28.159365222903336,1.682898589526694,1,0
1761126638.081588,25.100603818893433,-1.1979194086799818,4.697339903068753,-6.897556562009819,-0.4402046298123183,2.1153751371756315,-13.705850843104916,0.03917610973383908,2.993517001677834,-0.012895843535649784,0.8,-0.4,-0.4,0.06794094601033114,-1.1979194086799818,4.697339903068753,-6.897556562009819,auto,85.0,17.960646152496338,15.0,15.0,-15.0,29.120789509033067,2.9938011139166583,1,0
1761126638.1867812,25.20579695701599,-1.2091117540379055,4.913560850639959,-8.358109695733303,-0.18901413173602719,1.9916731781581378,-13.643617578314677,0.00011893874647291544,1.6377176637668294,-0.02816037309031423,0.8,0.1903891450256191,-0.4,0.096196625655732,-1.2091117540379055,4.913560850639959,-8.358109695733303,auto,85.0,18.171032428741455,15.0,15.0,-15.0,30.167413663198623,1.6379597574338915,1,0
1761126638.2919455,25.31096124649048,-1.2273405886554927,5.118800597551299,-9.836068346881486,0.12110112950369467,1.896743330548969,-13.959033724214102,-0.020777413717173343,0.41344013182555966,-0.031730328309560414,0.8,0.32887354704746724,-0.4,0.07791947173653696,-1.2273405886554927,5.118800597551299,-9.836068346881486,auto,85.0,18.38136100769043,15.0,15.0,-15.0,31.269713384393963,0.4151761761702413,1,0
1761126638.3966138,25.415629625320435,-1.2479619976058898,5.311495263802567,-11.316554790964341,0.04969996629052728,1.7891267327627727,-14.431410114858743,0.027745254155917304,-0.7876843897617916,-0.019985305310883862,0.8,-0.4,0.4,0.016944260475575113,-1.2479619976058898,5.311495263802567,-11.316554790964341,auto,85.0,18.590697765350342,15.0,15.0,-15.0,32.41025222309745,0.7884262232009738,1,0
1761126638.5001256,25.51914143562317,-1.26170683160345,5.491020903244011,-12.791234168378288,-0.20779297520311588,1.6705841970527506,-14.610663125570838,-0.005761348526536333,-1.9532755196278577,0.0020915499220890052,0.8,0.09723980025628229,0.4,-0.05857497022716979,-1.26170683160345,5.491020903244011,-12.791234168378288,auto,85.0,18.79772138595581,15.0,15.0,-15.0,33.57404487310395,1.9532851361988597,1,0
1761126638.603116,25.622131824493408,-1.2677360136743958,5.658461303824652,-14.273786537541007,-0.35684283374819814,1.564579759714121,-14.467595432818987,-0.044797337934043946,3.1367651939784085,0.02373203365736648,0.8,0.4,-0.4,-0.1056302483350757,-1.2677360136743958,5.658461303824652,-14.273786537541007,auto,85.0,19.00370216369629,15.0,15.0,-15.0,34.768637569917196,3.137174826665211,1,0
1761126638.7079482,25.726963996887207,-1.2726484534990634,5.816818075593687,-15.797320824078273,-0.2587696005769309,1.4628781017099888,-14.355180674738136,0.016129133205072293,2.1639656168198003,0.03754342138306353,0.8,-0.39821711771903057,-0.4,-0.11886866408729979,-1.2726484534990634,5.816818075593687,-15.797320824078273,auto,85.0,19.213366508483887,15.0,15.0,-15.0,36.022283213160065,2.164351368933749,1,0
1761126638.812274,25.831289768218994,-1.2820407158169718,5.964161256347204,-17.328282243150337,-0.004085599745529855,1.3590478963395993,-14.442404374075656,0.010606714478727913,1.2381427108578364,0.03317957939314124,0.8,-0.18236940653541744,-0.4,-0.06730467834694576,-1.2820407158169718,5.964161256347204,-17.328282243150337,auto,85.0,19.42201805114746,15.0,15.0,-15.0,37.30776145074384,1.2386326167718702,1,0
1761126638.9177918,25.93680763244629,-1.2927737754473951,6.1036118798396535,-18.885366578865746,0.1342460650266336,1.2803867605359673,-14.648529341057584,-0.022781659024448144,0.5215360221309477,0.01627072994730336,0.8,0.3234334931145641,-0.4,0.0007773120229299518,-1.2927737754473951,6.1036118798396535,-18.885366578865746,auto,85.0,19.63305377960205,15.0,15.0,-15.0,38.63700644546039,0.5222868589396986,1,0
1761126639.0206463,26.03966212272644,-1.3046081780860563,6.231110679094637,-20.409849256627492,0.1604418702770565,1.2117817235411492,-14.915002539271999,0.0013515948052695726,-0.2659088195775566,0.00039574397583159223,0.8,-0.06520784485940734,0.4,0.03947092006953697,-1.3046081780860563,6.231110679094637,-20.409849256627492,auto,85.0,19.838762760162354,15.0,15.0,-15.0,39.95736593095548,0.26591254906630785,1,0
1761126639.1272266,26.146242380142212,-1.3145876355744621,6.354981151171911,-21.987762936304847,0.09760375759354883,1.1319527163524472,-15.087496954410087,0.02387047114420484,-0.7241128814796153,-0.005073673752581928,0.8,-0.30182378984584735,0.4,0.02813532498261519,-1.3145876355744621,6.354981151171911,-21.987762936304847,auto,85.0,20.050869464874268,15.0,15.0,-15.0,41.34001363869778,0.7245239862714729,1,0
1761126639.2321453,26.251161098480225,-1.3234126237452317,6.471317940964153,-23.56498154142781,0.03890848303124095,1.062694890116452,-15.198757476813835,-0.00851410763080204,-1.0322298396357064,-0.0036145677861069607,0.8,0.18483845380298985,0.4,0.0051536595629296965,-1.3234126237452317,6.471317940964153,-23.56498154142781,auto,85.0,20.261760711669922,15.0,15.0,-15.0,42.73698654140033,1.0322712807025998,1,0
1761126639.3375008,26.35651659965515,-1.3320042459673767,6.580431673892623,-25.14723214331189,-0.01700053854718725,1.0095070245092896,-15.278304436214267,-0.0015542716172703074,-1.2819724243232917,-0.006791511749627952,0.8,0.02143960294673223,0.4,0.018035904127303798,-1.3320042459673767,6.580431673892623,-25.14723214331189,auto,85.0,20.472471714019775,15.0,15.0,-15.0,44.15227901543999,1.2819913561009073,1,0
1761126639.4378524,26.456868171691895,-1.3403516990805875,6.678315850126934,-26.658767764662407,-0.12952968647677002,0.9460265565749351,-15.333231715158695,0.013493514524528129,-1.7710557100549897,-0.01102124451109642,0.8,-0.16955313971837038,0.4,0.03071629603751081,-1.3403516990805875,6.678315850126934,-26.658767764662407,auto,85.0,20.67317485809326,15.0,15.0,-15.0,45.51604609816159,1.7711414034128334,1,0
1761126639.5418186,26.560834407806396,-1.3478259535529173,6.774080935791847,-28.23065590276261,-0.177612937129333,0.8909591552974362,-15.357787305976128,-0.009815175614771297,-2.022627687711334,-0.008314112449919626,0.8,0.1601746973737448,0.4,0.011001392911911751,-1.3478259535529173,6.774080935791847,-28.23065590276261,auto,85.0,20.881107330322266,15.0,15.0,-15.0,46.94472033830455,2.0226685900647876,1,0
1761126639.6464968,26.665512561798096,-1.3557569848713278,6.864259732580533,-29.81836279696414,-0.20782905213550304,0.8382752649625798,-15.381865754559442,0.002369470899532564,-2.1635528971414733,-0.005491419820017531,0.8,-0.04737102929667165,0.4,0.001850076845755201,-1.3557569848713278,6.864259732580533,-29.81836279696414,auto,85.0,21.090463638305664,15.0,15.0,-15.0,48.39820967812112,2.1635611636404564,1,0
1761126639.7507477,26.769763469696045,-1.3638042929342353,6.948582537145046,-31.403634981337117,-0.23701691864808028,0.7817315777349517,-15.39629290475389,0.0017480137399083335,-2.3233876873654116,-0.004122809560769394,0.8,-0.027737229491131322,0.4,0.0018266548025526142,-1.3638042929342353,6.948582537145046,-31.403634981337117,auto,85.0,21.298965454101562,15.0,15.0,-15.0,49.858768071220865,2.3233920028509836,1,0
