timestamp,simulation_time,position_x,position_y,position_z,velocity_x,velocity_y,velocity_z,attitude_roll,attitude_pitch,attitude_yaw,control_throttle,control_roll,control_pitch,control_yaw,estimated_position_x,estimated_position_y,estimated_position_z,flight_mode,battery_level,setpoint_altitude,setpoint_position_x,setpoint_position_y,setpoint_position_z,position_error,attitude_error,waypoint_index,mission_complete
1761126331.0353122,0.11494183540344238,0.0,0.0,-0.0,0.0,0.0,-0.0,0.0,0.0,0.0,0.0,0.0,0.0,0.0,0.0,0.0,-0.0,manual,85.0,0.0,0.0,0.0,0.0,0.0,0.0,0,0
1761126331.144017,0.2236466407775879,0.0,0.0,-0.0,0.0,0.0,-0.0,0.0,0.0,0.0,0.0,0.0,0.0,0.0,0.0,0.0,-0.0,manual,85.0,0.0,0.0,0.0,0.0,0.0,0.0,0,0
1761126331.2520068,0.3316364288330078,0.0,0.0,-0.0,0.0,0.0,-0.0,0.0,0.0,0.0,0.0,0.0,0.0,0.0,0.0,0.0,-0.0,manual,85.0,0.0,0.0,0.0,0.0,0.0,0.0,0,0
1761126331.3548877,0.43451738357543945,0.0,0.0,-0.0,0.0,0.0,-0.0,0.0,0.0,0.0,0.0,0.0,0.0,0.0,0.0,0.0,-0.0,manual,85.0,0.0,0.0,0.0,0.0,0.0,0.0,0,0
1761126331.4565623,0.5361919403076172,0.0,0.0,-0.0,0.0,0.0,-0.0,0.0,0.0,0.0,0.0,0.0,0.0,0.0,0.0,0.0,-0.0,manual,85.0,0.0,0.0,0.0,0.0,0.0,0.0,0,0
1761126331.5613005,0.64093017578125,0.0,0.0,-0.0,0.0,0.0,-0.0,0.0,0.0,0.0,0.0,0.0,0.0,0.0,0.0,0.0,-0.0,manual,85.0,0.0,0.0,0.0,0.0,0.0,0.0,0,0
1761126331.6634984,0.7431280612945557,0.0,0.0,-0.0,0.0,0.0,-0.0,0.0,0.0,0.0,0.0,0.0,0.0,0.0,0.0,0.0,-0.0,manual,85.0,0.0,0.0,0.0,0.0,0.0,0.0,0,0
1761126331.7646208,0.8442504405975342,0.0,0.0,-0.0,0.0,0.0,-0.0,0.0,0.0,0.0,0.0,0.0,0.0,0.0,0.0,0.0,-0.0,manual,85.0,0.0,0.0,0.0,0.0,0.0,0.0,0,0
1761126331.8668916,0.9465212821960449,0.0,0.0,-0.0,0.0,0.0,-0.0,0.0,0.0,0.0,0.0,0.0,0.0,0.0,0.0,0.0,-0.0,manual,85.0,0.0,0.0,0.0,0.0,0.0,0.0,0,0
1761126331.9705217,1.0501513481140137,0.0,0.0,-0.0,0.0,0.0,-0.0,0.0,0.0,0.0,0.0,0.0,0.0,0.0,0.0,0.0,-0.0,manual,85.0,0.0,0.0,0.0,0.0,0.0,0.0,0,0
1761126332.0782602,1.1578898429870605,0.0,0.0,-0.0,0.0,0.0,-0.0,0.0,0.0,0.0,0.0,0.0,0.0,0.0,0.0,0.0,-0.0,manual,85.0,0.0,0.0,0.0,0.0,0.0,0.0,0,0
1761126332.1807761,1.2604057788848877,0.0,0.0,-0.0,0.0,0.0,-0.0,0.0,0.0,0.0,0.0,0.0,0.0,0.0,0.0,0.0,-0.0,manual,85.0,0.0,0.0,0.0,0.0,0.0,0.0,0,0
1761126332.2839227,1.3635523319244385,0.0,0.0,-0.0,0.0,0.0,-0.0,0.0,0.0,0.0,0.0,0.0,0.0,0.0,0.0,0.0,-0.0,manual,85.0,0.0,0.0,0.0,0.0,0.0,0.0,0,0
1761126332.3864162,1.46604585647583,0.0,0.0,-0.0,0.0,0.0,-0.0,0.0,0.0,0.0,0.0,0.0,0.0,0.0,0.0,0.0,-0.0,manual,85.0,0.0,0.0,0.0,0.0,0.0,0.0,0,0
1761126332.489415,1.569044589996338,0.0,0.0,-0.0,0.0,0.0,-0.0,0.0,0.0,0.0,0.0,0.0,0.0,0.0,0.0,0.0,-0.0,manual,85.0,0.0,0.0,0.0,0.0,0.0,0.0,0,0
1761126332.5925577,1.672187328338623,0.0,0.0,0.0002525241644327675,0.0,0.0,0.049601215107529,0.0,0.0,0.0,0.8,0.0,0.0,0.0,0.0,0.0,0.0002525241644327675,stabilize,85.0,2.0,0.0,0.0,-2.0,1.9997474758355673,0.0,0,0
1761126332.6967316,1.7763612270355225,0.0,0.0,0.03183903879926183,0.0,0.0,0.5566042526783281,0.0,0.0,0.0,0.8,0.0,0.0,0.0,0.0,0.0,0.03183903879926183,stabilize,85.0,2.0,0.0,0.0,-2.0,1.9681609612007382,0.0,0,0
1761126332.8018267,1.8814563751220703,0.0,0.0,0.09141568642328263,0.0,0.0,0.6118680385905746,0.0,0.0,0.0,0.8,0.0,0.0,0.0,0.0,0.0,0.09141568642328263,stabilize,85.0,2.0,0.0,0.0,-2.0,1.9085843135767173,0.0,0,0
1761126332.905491,1.9851207733154297,0.0,0.0,0.15415407951630977,0.0,0.0,0.6457162147637738,0.0,0.0,0.0,0.8,0.0,0.0,0.0,0.0,0.0,0.15415407951630977,stabilize,85.0,2.0,0.0,0.0,-2.0,1.8458459204836903,0.0,0,0
1761126333.0110614,2.090691089630127,0.0,0.0,0.2212223913313967,0.0,0.0,0.6757570425475461,0.0,0.0,0.0,0.8,0.0,0.0,0.0,0.0,0.0,0.2212223913313967,stabilize,85.0,2.0,0.0,0.0,-2.0,1.7787776086686033,0.0,0,0
1761126333.1142118,2.1938414573669434,0.0,0.0,0.28977017512856934,0.0,0.0,0.7041735566711169,0.0,0.0,0.0,0.8,0.0,0.0,0.0,0.0,0.0,0.28977017512856934,stabilize,85.0,2.0,0.0,0.0,-2.0,1.7102298248714307,0.0,0,0
1761126333.2196815,2.2993111610412598,0.0,0.0,0.3627577540487692,0.0,0.0,0.7203757782777055,0.0,0.0,0.0,0.8,0.0,0.0,0.0,0.0,0.0,0.3627577540487692,stabilize,85.0,2.0,0.0,0.0,-2.0,1.6372422459512308,0.0,0,0
1761126333.3218544,2.4014840126037598,0.0,0.0,0.43553914329542914,0.0,0.0,0.7509950875799684,0.0,0.0,0.0,0.8,0.0,0.0,0.0,0.0,0.0,0.43553914329542914,stabilize,85.0,2.0,0.0,0.0,-2.0,1.5644608567045708,0.0,0,0
1761126333.423828,2.503457546234131,0.0,0.0,0.5103865002295825,0.0,0.0,0.764876448233397,0.0,0.0,0.0,0.8,0.0,0.0,0.0,0.0,0.0,0.5103865002295825,stabilize,85.0,2.0,0.0,0.0,-2.0,1.4896134997704173,0.0,0,0
1761126333.527585,2.6072146892547607,0.0,0.0,0.5865313162581821,0.0,0.0,0.7508248520300713,0.0,0.0,0.0,0.8,0.0,0.0,0.0,0.0,0.0,0.5865313162581821,stabilize,85.0,2.0,0.0,0.0,-2.0,1.4134686837418178,0.0,0,0
1761126333.6336367,2.713266372680664,0.0,0.0,0.6641211022020903,0.0,0.0,0.7188180369599905,0.0,0.0,0.0,0.5686298562797771,0.0,0.0,0.0,0.0,0.0,0.6641211022020903,stabilize,85.0,2.0,0.0,0.0,-2.0,1.3358788977979097,0.0,0,0
1761126333.7375014,2.8171310424804688,0.0,0.0,0.7384109701556996,0.0,0.0,0.7367401982106131,0.0,0.0,0.0,0.8,0.0,0.0,0.0,0.0,0.0,0.7384109701556996,stabilize,85.0,2.0,0.0,0.0,-2.0,1.2615890298443004,0.0,0,0
1761126333.841132,2.9207615852355957,0.0,0.0,0.8109246705807126,0.0,0.0,0.717058594186578,0.0,0.0,0.0,0.7543306286033011,0.0,0.0,0.0,0.0,0.0,0.8109246705807126,stabilize,85.0,2.0,0.0,0.0,-2.0,1.1890753294192873,0.0,0,0
1761126333.9428868,3.0225164890289307,0.0,0.0,0.8799667331086023,0.0,0.0,0.7004807353928851,0.0,0.0,0.0,0.8,0.0,0.0,0.0,0.0,0.0,0.8799667331086023,stabilize,85.0,2.0,0.0,0.0,-2.0,1.1200332668913977,0.0,0,0
1761126334.0472634,3.1268930435180664,0.0,0.0,0.9481548150858733,0.0,0.0,0.6635473504809495,0.0,0.0,0.0,0.7088906202473128,0.0,0.0,0.0,0.0,0.0,0.9481548150858733,stabilize,85.0,2.0,0.0,0.0,-2.0,1.0518451849141268,0.0,0,0
1761126334.1521308,3.2317605018615723,0.0,0.0,1.0145870347424937,0.0,0.0,0.5838902691724422,0.0,0.0,0.0,0.3,0.0,0.0,0.0,0.0,0.0,1.0145870347424937,stabilize,85.0,2.0,0.0,0.0,-2.0,0.9854129652575063,0.0,0,0
1761126334.254753,3.3343827724456787,0.0,0.0,1.077059520535491,0.0,0.0,0.6290465058153265,0.0,0.0,0.0,0.8,0.0,0.0,0.0,0.0,0.0,1.077059520535491,stabilize,85.0,2.0,0.0,0.0,-2.0,0.9229404794645091,0.0,0,0
1761126334.3611004,3.440730094909668,0.0,0.0,1.1378276521444601,0.0,0.0,0.5353478660729662,0.0,0.0,0.0,0.3,0.0,0.0,0.0,0.0,0.0,1.1378276521444601,stabilize,85.0,2.0,0.0,0.0,-2.0,0.8621723478555399,0.0,0,0
1761126334.463057,3.542686700820923,0.0,0.0,1.194209030089453,0.0,0.0,0.5200248179491003,0.0,0.0,0.0,0.3,0.0,0.0,0.0,0.0,0.0,1.194209030089453,stabilize,85.0,2.0,0.0,0.0,-2.0,0.805790969910547,0.0,0,0
1761126334.5667503,3.6463799476623535,0.0,0.0,1.2487373911488215,0.0,0.0,0.5036280641636948,0.0,0.0,0.0,0.3,0.0,0.0,0.0,0.0,0.0,1.2487373911488215,stabilize,85.0,2.0,0.0,0.0,-2.0,0.7512626088511785,0.0,0,0
1761126334.6705606,3.750190258026123,0.0,0.0,1.300946140066769,0.0,0.0,0.45471866357043245,0.0,0.0,0.0,0.3,0.0,0.0,0.0,0.0,0.0,1.300946140066769,stabilize,85.0,2.0,0.0,0.0,-2.0,0.699053859933231,0.0,0,0
1761126334.776271,3.855900764465332,0.0,0.0,1.3519703127565716,0.0,0.0,0.4568870923472325,0.0,0.0,0.0,0.3,0.0,0.0,0.0,0.0,0.0,1.3519703127565716,stabilize,85.0,2.0,0.0,0.0,-2.0,0.6480296872434284,0.0,0,0
1761126334.8812962,3.960925817489624,0.0,0.0,1.4005353862513352,0.0,0.0,0.4823687711314584,0.0,0.0,0.0,0.8,0.0,0.0,0.0,0.0,0.0,1.4005353862513352,stabilize,85.0,2.0,0.0,0.0,-2.0,0.5994646137486648,0.0,0,0
1761126334.983291,4.062920570373535,0.0,0.0,1.4450225868765192,0.0,0.0,0.41180704702285853,0.0,0.0,0.0,0.3,0.0,0.0,0.0,0.0,0.0,1.4450225868765192,stabilize,85.0,2.0,0.0,0.0,-2.0,0.5549774131234808,0.0,0,0
1761126335.0856318,4.165261507034302,0.0,0.0,1.4876909591631797,0.0,0.0,0.41313149625155055,0.0,0.0,0.0,0.654542883365945,0.0,0.0,0.0,0.0,0.0,1.4876909591631797,stabilize,85.0,2.0,0.0,0.0,-2.0,0.5123090408368203,0.0,0,0
1761126335.1896574,4.269287109375,0.0,0.0,1.5285177977380877,0.0,0.0,0.4083028560555987,0.0,0.0,0.0,0.8,0.0,0.0,0.0,0.0,0.0,1.5285177977380877,stabilize,85.0,2.0,0.0,0.0,-2.0,0.4714822022619123,0.0,0,0
1761126335.2936568,4.373286485671997,0.0,0.0,1.5671876331858048,0.0,0.0,0.38688795576988566,0.0,0.0,0.0,0.8,0.0,0.0,0.0,0.0,0.0,1.5671876331858048,stabilize,85.0,2.0,0.0,0.0,-2.0,0.4328123668141952,0.0,0,0
1761126335.3979328,4.477562427520752,0.0,0.0,1.6042781963612573,0.0,0.0,0.37536267281659347,0.0,0.0,0.0,0.8,0.0,0.0,0.0,0.0,0.0,1.6042781963612573,stabilize,85.0,2.0,0.0,0.0,-2.0,0.39572180363874265,0.0,0,0
1761126335.501228,4.580857753753662,0.0,0.0,1.6385886920608694,0.0,0.0,0.3244371812229461,0.0,0.0,0.0,0.6315997150912165,0.0,0.0,0.0,0.0,0.0,1.6385886920608694,stabilize,85.0,2.0,0.0,0.0,-2.0,0.36141130793913057,0.0,0,0
1761126335.6105456,4.690175294876099,0.0,0.0,1.6712328282104925,0.0,0.0,0.2909399616566621,0.0,0.0,0.0,0.5690366454813587,0.0,0.0,0.0,0.0,0.0,1.6712328282104925,stabilize,85.0,2.0,0.0,0.0,-2.0,0.32876717178950754,0.0,0,0
1761126335.7146606,4.79429030418396,0.0,0.0,1.701580758423453,0.0,0.0,0.318112233721382,0.0,0.0,0.0,0.8,0.0,0.0,0.0,0.0,0.0,1.701580758423453,stabilize,85.0,2.0,0.0,0.0,-2.0,0.298419241576547,0.0,0,0
1761126335.8217764,4.9014060497283936,0.0,0.0,1.7303873282229927,0.0,0.0,0.24285197984106432,0.0,0.0,0.0,0.3,0.0,0.0,0.0,0.0,0.0,1.7303873282229927,stabilize,85.0,2.0,0.0,0.0,-2.0,0.2696126717770073,0.0,0,0
1761126335.9258494,5.005479097366333,0.0,0.0,1.7571808475356827,0.0,0.0,0.21386485198641192,0.0,0.0,0.0,0.3,0.0,0.0,0.0,0.0,0.0,1.7571808475356827,stabilize,85.0,2.0,0.0,0.0,-2.0,0.2428191524643173,0.0,0,0
1761126336.0300813,5.109710931777954,0.0,0.0,1.7826552237789086,0.0,0.0,0.22799042967136862,0.0,0.0,0.0,0.3,0.0,0.0,0.0,0.0,0.0,1.7826552237789086,stabilize,85.0,2.0,0.0,0.0,-2.0,0.21734477622109138,0.0,0,0
1761126336.1323369,5.211966514587402,0.0,0.0,1.805622508910401,0.0,0.0,0.20380852798545446,0.0,0.0,0.0,0.3,0.0,0.0,0.0,0.0,0.0,1.805622508910401,stabilize,85.0,2.0,0.0,0.0,-2.0,0.194377491089599,0.0,0,0
1761126336.2408462,5.320475816726685,0.0,0.0,1.8275696902806056,0.0,0.0,0.21756548452616356,0.0,0.0,0.0,0.8,0.0,0.0,0.0,0.0,0.0,1.8275696902806056,stabilize,85.0,2.0,0.0,0.0,-2.0,0.17243030971939444,0.0,0,0
1761126336.3436573,5.4232869148254395,0.0,0.0,1.8479803204978984,0.0,0.0,0.1812821742340422,0.0,0.0,0.0,0.3,0.0,0.0,0.0,0.0,0.0,1.8479803204978984,stabilize,85.0,2.0,0.0,0.0,-2.0,0.1520196795021016,0.0,0,0
1761126336.4468174,5.526447057723999,0.0,0.0,1.8672944561052893,0.0,0.0,0.20231647362453997,0.0,0.0,0.0,0.7247962313727387,0.0,0.0,0.0,0.0,0.0,1.8672944561052893,stabilize,85.0,2.0,0.0,0.0,-2.0,0.13270554389471068,0.0,0,0
1761126336.551705,5.631334543228149,0.0,0.0,1.8853150911550725,0.0,0.0,0.18140741078526929,0.0,0.0,0.0,0.7048458045991306,0.0,0.0,0.0,0.0,0.0,1.8853150911550725,stabilize,85.0,2.0,0.0,0.0,-2.0,0.11468490884492755,0.0,0,0
1761126336.6554098,5.735039472579956,0.0,0.0,1.9019517468005767,0.0,0.0,0.1721062346672124,0.0,0.0,0.0,0.8,0.0,0.0,0.0,0.0,0.0,1.9019517468005767,stabilize,85.0,2.0,0.0,0.0,-2.0,0.09804825319942334,0.0,0,0
1761126336.7606666,5.840296268463135,0.0,0.0,1.9180484437142649,0.0,0.0,0.12923182527024796,0.0,0.0,0.0,0.3,0.0,0.0,0.0,0.0,0.0,1.9180484437142649,stabilize,85.0,2.0,0.0,0.0,-2.0,0.08195155628573514,0.0,0,0
1761126336.8647482,5.944377899169922,0.0,0.0,1.9324329974512129,0.0,0.0,0.11111714684542968,0.0,0.0,0.0,0.3,0.0,0.0,0.0,0.0,0.0,1.9324329974512129,stabilize,85.0,2.0,0.0,0.0,-2.0,0.06756700254878711,0.0,0,0
1761126336.9698322,6.049461841583252,0.0,0.0,1.9461184659704782,0.0,0.0,0.08382907308704479,0.0,0.0,0.0,0.3,0.0,0.0,0.0,0.0,0.0,1.9461184659704782,stabilize,85.0,2.0,0.0,0.0,-2.0,0.05388153402952178,0.0,0,0
1761126337.0700638,6.149693489074707,0.0,0.0,1.9573273610125117,0.0,0.0,0.14267774067219974,0.0,0.0,0.0,0.8,0.0,0.0,0.0,0.0,0.0,1.9573273610125117,stabilize,85.0,2.0,0.0,0.0,-2.0,0.0426726389874883,0.0,0,0
1761126337.1726918,6.252321481704712,0.0,0.0,1.9688998426700237,0.0,0.0,0.13829453145825443,0.0,0.0,0.0,0.7841077571569615,0.0,0.0,0.0,0.0,0.0,1.9688998426700237,stabilize,85.0,2.0,0.0,0.0,-2.0,0.031100157329976286,0.0,0,0
1761126337.2802196,6.359849214553833,0.0,0.0,1.9803850934466294,0.0,0.0,0.1338849064654208,0.0,0.0,0.0,0.8,0.0,0.0,0.0,0.0,0.0,1.9803850934466294,stabilize,85.0,2.0,0.0,0.0,-2.0,0.019614906553370615,0.0,0,0
1761126337.3840504,6.463680028915405,0.0,0.0,1.9912775692256437,0.0,0.0,0.1206713752002147,0.0,0.0,0.0,0.8,0.0,0.0,0.0,0.0,0.0,1.9912775692256437,stabilize,85.0,2.0,0.0,0.0,-2.0,0.008722430774356305,0.0,0,0
1761126337.4878109,6.567440509796143,0.0,0.0,2.0017781161666552,0.0,0.0,0.0733507660834445,0.0,0.0,0.0,0.3,0.0,0.0,0.0,0.0,0.0,2.0017781161666552,stabilize,85.0,2.0,0.0,0.0,-2.0,0.0017781161666552414,0.0,0,0
1761126337.5915892,6.6712188720703125,0.0,0.0,2.011042363703828,0.0,0.0,0.06421145563464348,0.0,0.0,0.0,0.3,0.0,0.0,0.0,0.0,0.0,2.011042363703828,stabilize,85.0,2.0,0.0,0.0,-2.0,0.011042363703828162,0.0,0,0
1761126337.6941156,6.77374529838562,0.0,0.0,2.020288022635844,0.0,0.0,0.07416666369317199,0.0,0.0,0.0,0.3,0.0,0.0,0.0,0.0,0.0,2.020288022635844,stabilize,85.0,2.0,0.0,0.0,-2.0,0.020288022635844172,0.0,0,0
1761126337.7943404,6.873970031738281,0.0,0.0,2.0242843496156055,0.0,0.0,0.020634994715589168,0.0,0.0,0.0,0.3,0.0,0.0,0.0,0.0,0.0,2.0242843496156055,stabilize,85.0,2.0,0.0,0.0,-2.0,0.02428434961560555,0.0,0,0
1761126337.8980947,6.977724313735962,0.0,0.0,2.0299346719768896,0.0,0.0,0.03351448618056262,0.0,0.0,0.0,0.3,0.0,0.0,0.0,0.0,0.0,2.0299346719768896,stabilize,85.0,2.0,0.0,0.0,-2.0,0.029934671976889593,0.0,0,0
1761126338.001756,7.081385612487793,0.0,0.0,2.036258217364469,0.0,0.0,0.018444838868267137,0.0,0.0,0.0,0.3284382907561261,0.0,0.0,0.0,0.0,0.0,2.036258217364469,stabilize,85.0,2.0,0.0,0.0,-2.0,0.036258217364469214,0.0,0,0
1761126338.1067812,7.186410903930664,0.0,0.0,2.0419257352048636,0.0,0.0,0.03535537841398305,0.0,0.0,0.0,0.3,0.0,0.0,0.0,0.0,0.0,2.0419257352048636,stabilize,85.0,2.0,0.0,0.0,-2.0,0.041925735204863646,0.0,0,0
1761126338.2123725,7.292002201080322,0.0,0.0,2.048449159023063,0.0,0.0,0.04918670537927928,0.0,0.0,0.0,0.3,0.0,0.0,0.0,0.0,0.0,2.048449159023063,stabilize,85.0,2.0,0.0,0.0,-2.0,0.048449159023062904,0.0,0,0
1761126338.3165758,7.396205425262451,0.0,0.0,2.053229531046592,0.0,0.0,0.02129688580535795,0.0,0.0,0.0,0.3,0.0,0.0,0.0,0.0,0.0,2.053229531046592,stabilize,85.0,2.0,0.0,0.0,-2.0,0.053229531046592005,0.0,0,0
1761126338.4211297,7.5007593631744385,0.0,0.0,2.058609459205012,0.0,0.0,0.030765243796745848,0.0,0.0,0.0,0.3,0.0,0.0,0.0,0.0,0.0,2.058609459205012,stabilize,85.0,2.0,0.0,0.0,-2.0,0.05860945920501193,0.0,0,0
1761126338.530741,7.610370635986328,0.0,0.0,2.063542565818686,0.0,0.0,0.030417027314266556,0.0,0.0,0.0,0.8,0.0,0.0,0.0,0.0,0.0,2.063542565818686,stabilize,85.0,2.0,0.0,0.0,-2.0,0.06354256581868611,0.0,0,0
1761126338.6349769,7.714606523513794,0.0,0.0,2.0657595358474894,0.0,0.0,0.057744927470918694,0.0,0.0,0.0,0.8,0.0,0.0,0.0,0.0,0.0,2.0657595358474894,stabilize,85.0,2.0,0.0,0.0,-2.0,0.06575953584748939,0.0,0,0
1761126338.7397888,7.819418430328369,0.0,0.0,2.0702683047263,0.0,0.0,0.07438804973210121,0.0,0.0,0.0,0.8,0.0,0.0,0.0,0.0,0.0,2.0702683047263,stabilize,85.0,2.0,0.0,0.0,-2.0,0.07026830472630019,0.0,0,0
1761126338.8447638,7.92439341545105,0.0,0.0,2.0747255161685585,0.0,0.0,0.07043706520158272,0.0,0.0,0.0,0.8,0.0,0.0,0.0,0.0,0.0,2.0747255161685585,stabilize,85.0,2.0,0.0,0.0,-2.0,0.07472551616855849,0.0,0,0
1761126338.9499118,8.029541492462158,0.0,0.0,2.078814820286969,0.0,0.0,0.006156538159192662,0.0,0.0,0.0,0.3,0.0,0.0,0.0,0.0,0.0,2.078814820286969,stabilize,85.0,2.0,0.0,0.0,-2.0,0.07881482028696896,0.0,0,0
1761126339.0535047,8.133134365081787,0.0,0.0,2.0821730763008963,0.0,0.0,-0.0011763346237802993,0.0,0.0,0.0,0.3,0.0,0.0,0.0,0.0,0.0,2.0821730763008963,stabilize,85.0,2.0,0.0,0.0,-2.0,0.08217307630089632,0.0,0,0
1761126339.1569502,8.236579895019531,0.0,0.0,2.0851592278432776,0.0,0.0,0.004496550546772539,0.0,0.0,0.0,0.3,0.0,0.0,0.0,0.0,0.0,2.0851592278432776,stabilize,85.0,2.0,0.0,0.0,-2.0,0.08515922784327756,0.0,0,0
1761126339.2674956,8.34712529182434,0.0,0.0,2.0861932532946863,0.0,0.0,-0.02636316113615282,0.0,0.0,0.0,0.3,0.0,0.0,0.0,0.0,0.0,2.0861932532946863,stabilize,85.0,2.0,0.0,0.0,-2.0,0.0861932532946863,0.0,0,0
1761126339.3709767,8.450606346130371,0.0,0.0,2.0868828962592816,0.0,0.0,-0.016510168013020556,0.0,0.0,0.0,0.3,0.0,0.0,0.0,0.0,0.0,2.0868828962592816,stabilize,85.0,2.0,0.0,0.0,-2.0,0.08688289625928158,0.0,0,0
1761126339.4730556,8.552685260772705,0.0,0.0,2.0886689626798725,0.0,0.0,0.003510318450579107,0.0,0.0,0.0,0.3,0.0,0.0,0.0,0.0,0.0,2.0886689626798725,stabilize,85.0,2.0,0.0,0.0,-2.0,0.08866896267987245,0.0,0,0
1761126339.5759926,8.655622243881226,0.0,0.0,2.091085736101495,0.0,0.0,-0.006577336554935254,0.0,0.0,0.0,0.3,0.0,0.0,0.0,0.0,0.0,2.091085736101495,stabilize,85.0,2.0,0.0,0.0,-2.0,0.09108573610149495,0.0,0,0
1761126339.6802742,8.759903907775879,0.0,0.0,2.092486122692768,0.0,0.0,-0.009405478920337766,0.0,0.0,0.0,0.3,0.0,0.0,0.0,0.0,0.0,2.092486122692768,stabilize,85.0,2.0,0.0,0.0,-2.0,0.09248612269276801,0.0,0,0
1761126339.7833247,8.862954378128052,0.0,0.0,2.094889645845232,0.0,0.0,0.010276055123810711,0.0,0.0,0.0,0.3,0.0,0.0,0.0,0.0,0.0,2.094889645845232,stabilize,85.0,2.0,0.0,0.0,-2.0,0.09488964584523218,0.0,0,0
1761126339.8862734,8.965903043746948,0.0,0.0,2.095758392704909,0.0,0.0,-0.003691097591971511,0.0,0.0,0.0,0.3,0.0,0.0,0.0,0.0,0.0,2.095758392704909,stabilize,85.0,2.0,0.0,0.0,-2.0,0.09575839270490905,0.0,0,0
1761126339.9907372,9.070366859436035,0.0,0.0,2.0977690983797723,0.0,0.0,-0.00937995743652048,0.0,0.0,0.0,0.3,0.0,0.0,0.0,0.0,0.0,2.0977690983797723,stabilize,85.0,2.0,0.0,0.0,-2.0,0.09776909837977232,0.0,0,0
1761126340.098546,9.178175687789917,0.0,0.0,2.0974679691389375,0.0,0.0,0.02399001389000563,0.0,0.0,0.0,0.8,0.0,0.0,0.0,0.0,0.0,2.0974679691389375,stabilize,85.0,2.0,0.0,0.0,-2.0,0.09746796913893752,0.0,0,0
1761126340.202543,9.282172679901123,0.0,0.0,2.098462706453444,0.0,0.0,0.043577259743024815,0.0,0.0,0.0,0.8,0.0,0.0,0.0,0.0,0.0,2.098462706453444,stabilize,85.0,2.0,0.0,0.0,-2.0,0.0984627064534438,0.0,0,0
1761126340.3095737,9.389203310012817,0.0,0.0,2.0998629390306327,0.0,0.0,-0.016636636127163925,0.0,0.0,0.0,0.3,0.0,0.0,0.0,0.0,0.0,2.0998629390306327,stabilize,85.0,2.0,0.0,0.0,-2.0,0.0998629390306327,0.0,0,0
1761126340.4151738,9.494803428649902,0.0,0.0,2.1007731304257575,0.0,0.0,-0.02456863989722067,0.0,0.0,0.0,0.3,0.0,0.0,0.0,0.0,0.0,2.1007731304257575,stabilize,85.0,2.0,0.0,0.0,-2.0,0.10077313042575753,0.0,0,0
1761126340.5206153,9.600244998931885,0.0,0.0,2.1017144926965683,0.0,0.0,0.03972345732417251,0.0,0.0,0.0,0.8,0.0,0.0,0.0,0.0,0.0,2.1017144926965683,stabilize,85.0,2.0,0.0,0.0,-2.0,0.10171449269656829,0.0,0,0
1761126340.6236792,9.703308820724487,0.0,0.0,2.1034492460028176,0.0,0.0,0.0312220134659507,0.0,0.0,0.0,0.8,0.0,0.0,0.0,0.0,0.0,2.1034492460028176,stabilize,85.0,2.0,0.0,0.0,-2.0,0.10344924600281757,0.0,0,0
1761126340.72689,9.806519746780396,0.0,0.0,2.1043119957068104,0.0,0.0,0.029079455746872335,0.0,0.0,0.0,0.8,0.0,0.0,0.0,0.0,0.0,2.1043119957068104,stabilize,85.0,2.0,0.0,0.0,-2.0,0.10431199570681038,0.0,0,0
1761126340.831354,9.910983562469482,0.0,0.0,2.105289693620432,0.0,0.0,0.02467927938203846,0.0,0.0,0.0,0.8,0.0,0.0,0.0,0.0,0.0,2.105289693620432,stabilize,85.0,2.0,0.0,0.0,-2.0,0.10528969362043217,0.0,0,0
1761126340.9337327,10.013362407684326,0.0,0.0,2.1054857107991225,0.0,0.0,0.022889272389088285,0.0,0.0,0.0,0.8,0.0,0.0,0.0,0.0,0.0,2.1054857107991225,stabilize,85.0,2.0,0.0,0.0,-2.0,0.1054857107991225,0.0,0,0
1761126341.0363252,10.115954875946045,0.0,0.0,2.1063773233740815,0.0,0.0,0.03330823310990581,0.0,0.0,0.0,0.8,0.0,0.0,0.0,0.0,0.0,2.1063773233740815,stabilize,85.0,2.0,0.0,0.0,-2.0,0.10637732337408146,0.0,0,0
1761126341.1401274,10.219757080078125,0.0,0.0,2.107796925360401,0.0,0.0,-0.01964914644213855,0.0,0.0,0.0,0.3,0.0,0.0,0.0,0.0,0.0,2.107796925360401,stabilize,85.0,2.0,0.0,0.0,-2.0,0.1077969253604012,0.0,0,0
1761126341.2430432,10.322672843933105,0.0,0.0,2.108747567070264,0.0,0.0,-0.00825644656487582,0.0,0.0,0.0,0.3,0.0,0.0,0.0,0.0,0.0,2.108747567070264,stabilize,85.0,2.0,0.0,0.0,-2.0,0.10874756707026378,0.0,0,0
1761126341.3474476,10.427077293395996,0.0,0.0,2.1096884804902065,0.0,0.0,-0.004360602895281139,0.0,0.0,0.0,0.3,0.0,0.0,0.0,0.0,0.0,2.1096884804902065,stabilize,85.0,2.0,0.0,0.0,-2.0,0.10968848049020652,0.0,0,0
1761126341.4527633,10.532392978668213,0.0,0.0,2.1092248989252447,0.0,0.0,-0.037227556794899495,0.0,0.0,0.0,0.3,0.0,0.0,0.0,0.0,0.0,2.1092248989252447,stabilize,85.0,2.0,0.0,0.0,-2.0,0.10922489892524467,0.0,0,0
1761126341.556793,10.636422634124756,0.0,0.0,2.109249501757814,0.0,0.0,-0.009503392467865864,0.0,0.0,0.0,0.3,0.0,0.0,0.0,0.0,0.0,2.109249501757814,stabilize,85.0,2.0,0.0,0.0,-2.0,0.10924950175781412,0.0,0,0
1761126341.6608906,10.740520238876343,0.0,0.0,2.107971159001389,0.0,0.0,-0.02273737684171833,0.0,0.0,0.0,0.3,0.0,0.0,0.0,0.0,0.0,2.107971159001389,stabilize,85.0,2.0,0.0,0.0,-2.0,0.10797115900138898,0.0,0,0
1761126341.7646477,10.844277381896973,0.0,0.0,2.1081079756934553,0.0,0.0,0.03120131697838632,0.0,0.0,0.0,0.8,0.0,0.0,0.0,0.0,0.0,2.1081079756934553,stabilize,85.0,2.0,0.0,0.0,-2.0,0.10810797569345532,0.0,0,0
1761126341.872304,10.95193362236023,0.0,0.0,2.1094134623750977,0.0,0.0,0.046869857685546246,0.0,0.0,0.0,0.7917376039820994,0.0,0.0,0.0,0.0,0.0,2.1094134623750977,stabilize,85.0,2.0,0.0,0.0,-2.0,0.10941346237509775,0.0,0,0
1761126341.9759135,11.055543184280396,0.0,0.0,2.1101422109572225,0.0,0.0,0.02921421161960152,0.0,0.0,0.0,0.7377053433550633,0.0,0.0,0.0,0.0,0.0,2.1101422109572225,stabilize,85.0,2.0,0.0,0.0,-2.0,0.11014221095722254,0.0,0,0
1761126342.0799441,11.159573793411255,0.0,0.0,2.1109240627046946,0.0,0.0,0.027432716258618175,0.0,0.0,0.0,0.8,0.0,0.0,0.0,0.0,0.0,2.1109240627046946,stabilize,85.0,2.0,0.0,0.0,-2.0,0.11092406270469457,0.0,0,0
1761126342.1840837,11.263713359832764,0.0,0.0,2.1118000161561117,0.0,0.0,0.03630731312984882,0.0,0.0,0.0,0.8,0.0,0.0,0.0,0.0,0.0,2.1118000161561117,stabilize,85.0,2.0,0.0,0.0,-2.0,0.11180001615611168,0.0,0,0
1761126342.2928326,11.372462272644043,0.0,0.0,2.1094544424387216,0.0,0.0,-0.03610522314918886,0.0,0.0,0.0,0.3,0.0,0.0,0.0,0.0,0.0,2.1094544424387216,stabilize,85.0,2.0,0.0,0.0,-2.0,0.1094544424387216,0.0,0,0
1761126342.3954015,11.47503113746643,0.0,0.0,2.1090663981180673,0.0,0.0,-0.016078568907284298,0.0,0.0,0.0,0.3,0.0,0.0,0.0,0.0,0.0,2.1090663981180673,stabilize,85.0,2.0,0.0,0.0,-2.0,0.10906639811806729,0.0,0,0
1761126342.5004244,11.58005404472351,0.0,0.0,2.1073789603949993,0.0,0.0,-0.029422606115595308,0.0,0.0,0.0,0.3,0.0,0.0,0.0,0.0,0.0,2.1073789603949993,stabilize,85.0,2.0,0.0,0.0,-2.0,0.10737896039499928,0.0,0,0
1761126342.6027386,11.682368278503418,0.0,0.0,2.107189513802893,0.0,0.0,-0.03284290013943589,0.0,0.0,0.0,0.3,0.0,0.0,0.0,0.0,0.0,2.107189513802893,stabilize,85.0,2.0,0.0,0.0,-2.0,0.1071895138028931,0.0,0,0
1761126342.7046463,11.784276008605957,0.0,0.0,2.1070215360829367,0.0,0.0,-0.024816051633044428,0.0,0.0,0.0,0.3,0.0,0.0,0.0,0.0,0.0,2.1070215360829367,auto,85.0,2.020784854888916,0.0,0.0,-20.0,17.892978463917064,0.0,0,0
1761126342.8071804,11.886810064315796,0.0,0.0,2.108062013995376,0.0,0.0,0.03681072515334403,0.0,0.0,0.0,0.3625330594436806,0.0,0.0,0.0,0.0,0.0,2.108062013995376,auto,85.0,2.2258529663085938,0.0,0.0,-20.0,17.891937986004624,0.0,0,0
1761126342.9109738,11.99060344696045,0.0,0.0,2.121030479610453,0.0,0.0,0.1430924118174227,0.0,0.0,0.0,0.3,0.0,0.0,0.0,0.0,0.0,2.121030479610453,auto,85.0,2.4334397315979004,0.0,0.0,-20.0,17.878969520389546,0.0,0,0
1761126343.020266,12.099895715713501,0.0,0.0,2.147316971691476,0.0,0.0,0.3014268527072259,0.0,0.0,0.0,0.8,0.0,0.0,0.0,0.0,0.0,2.147316971691476,auto,85.0,2.652024269104004,0.0,0.0,-20.0,17.852683028308522,0.0,0,0
1761126343.1241143,12.203743934631348,0.0,0.0,2.1828921543548714,0.0,0.0,0.3622819336474104,0.0,0.0,0.0,0.3753585173809972,0.0,0.0,0.0,0.0,0.0,2.1828921543548714,auto,85.0,2.8597207069396973,0.0,0.0,-20.0,17.81710784564513,0.0,0,0
1761126343.2314596,12.311089277267456,0.0,0.0,2.2295092129763723,0.0,0.0,0.5125463305695223,0.0,0.0,0.0,0.8,0.0,0.0,0.0,0.0,0.0,2.2295092129763723,auto,85.0,3.072390079498291,0.0,0.0,-20.0,17.77049078702363,0.0,0,0
1761126343.3354897,12.415119409561157,0.0,0.0,2.2854154578966623,0.0,0.0,0.6135514829004715,0.0,0.0,0.0,0.8,0.0,0.0,0.0,0.0,0.0,2.2854154578966623,auto,85.0,3.2824716567993164,0.0,0.0,-20.0,17.71458454210334,0.0,0,0
1761126343.4415743,12.521203994750977,0.0,0.0,2.3496606553112516,0.0,0.0,0.6623012063319349,0.0,0.0,0.0,0.8,0.0,0.0,0.0,0.0,0.0,2.3496606553112516,auto,85.0,3.4936108589172363,0.0,0.0,-20.0,17.65033934468875,0.0,0,0
1761126343.545845,12.625474691390991,0.0,0.0,2.421415294899338,0.0,0.0,0.7348116768002877,0.0,0.0,0.0,0.8,0.0,0.0,0.0,0.0,0.0,2.421415294899338,auto,85.0,3.7031822204589844,0.0,0.0,-20.0,17.578584705100663,0.0,0,0
1761126343.6500058,12.72963547706604,0.0,0.0,2.5001050650121672,0.0,0.0,0.8149937415437326,0.0,0.0,0.0,0.8,0.0,0.0,0.0,0.0,0.0,2.5001050650121672,auto,85.0,3.911503791809082,0.0,0.0,-20.0,17.499894934987832,0.0,0,0
1761126343.7535565,12.833186149597168,0.0,0.0,2.584910964651417,0.0,0.0,0.8945571345509911,0.0,0.0,0.0,0.8,0.0,0.0,0.0,0.0,0.0,2.584910964651417,auto,85.0,4.118605136871338,0.0,0.0,-20.0,17.415089035348583,0.0,0,0
1761126343.8569808,12.936610460281372,0.0,0.0,2.6769764730318153,0.0,0.0,0.938473477082993,0.0,0.0,0.0,0.8,0.0,0.0,0.0,0.0,0.0,2.6769764730318153,auto,85.0,4.325453758239746,0.0,0.0,-20.0,17.323023526968186,0.0,0,0
1761126343.9610536,13.040683269500732,0.0,0.0,2.775819268130675,0.0,0.0,0.9963002363614674,0.0,0.0,0.0,0.8,0.0,0.0,0.0,0.0,0.0,2.775819268130675,auto,85.0,4.533599376678467,0.0,0.0,-20.0,17.224180731869325,0.0,0,0
1761126344.0614707,13.141100406646729,0.0,0.0,2.8789450992840453,0.0,0.0,1.029196886325696,0.0,0.0,0.0,0.3464901445120642,0.0,0.0,0.0,0.0,0.0,2.8789450992840453,auto,85.0,4.734433650970459,0.0,0.0,-20.0,17.121054900715954,0.0,0,0
1761126344.1660202,13.245649814605713,0.0,0.0,2.99109184515783,0.0,0.0,1.071797925941614,0.0,0.0,0.0,0.3,0.0,0.0,0.0,0.0,0.0,2.99109184515783,auto,85.0,4.943532466888428,0.0,0.0,-20.0,17.00890815484217,0.0,0,0
1761126344.2703302,13.34995985031128,0.0,0.0,3.108126582769232,0.0,0.0,1.1200064219410089,0.0,0.0,0.0,0.3095892299206583,0.0,0.0,0.0,0.0,0.0,3.108126582769232,auto,85.0,5.1521525382995605,0.0,0.0,-20.0,16.89187341723077,0.0,0,0
1761126344.3748908,13.454520463943481,0.0,0.0,3.2302941515320427,0.0,0.0,1.1662915004396364,0.0,0.0,0.0,0.3,0.0,0.0,0.0,0.0,0.0,3.2302941515320427,auto,85.0,5.361273765563965,0.0,0.0,-20.0,16.769705848467957,0.0,0,0
1761126344.4778523,13.55748200416565,0.0,0.0,3.355047940841789,0.0,0.0,1.2148416749454536,0.0,0.0,0.0,0.3,0.0,0.0,0.0,0.0,0.0,3.355047940841789,auto,85.0,5.567196846008301,0.0,0.0,-20.0,16.64495205915821,0.0,0,0
1761126344.5807948,13.66042447090149,0.0,0.0,3.4842915222613113,0.0,0.0,1.2553491632715459,0.0,0.0,0.0,0.35548233205943364,0.0,0.0,0.0,0.0,0.0,3.4842915222613113,auto,85.0,5.7730817794799805,0.0,0.0,-20.0,16.515708477738688,0.0,0,0
1761126344.68363,13.763259649276733,0.0,0.0,3.6175134559537248,0.0,0.0,1.2907336069106856,0.0,0.0,0.0,0.3,0.0,0.0,0.0,0.0,0.0,3.6175134559537248,auto,85.0,5.978752136230469,0.0,0.0,-20.0,16.382486544046277,0.0,0,0
1761126344.7939978,13.873627424240112,0.0,0.0,3.7693154014042083,0.0,0.0,1.3636617274440386,0.0,0.0,0.0,0.3,0.0,0.0,0.0,0.0,0.0,3.7693154014042083,auto,85.0,6.199487686157227,0.0,0.0,-20.0,16.230684598595793,0.0,0,0
1761126344.8969133,13.976542949676514,0.0,0.0,3.9136427228554505,0.0,0.0,1.3952334833214894,0.0,0.0,0.0,0.3,0.0,0.0,0.0,0.0,0.0,3.9136427228554505,auto,85.0,6.405318737030029,0.0,0.0,-20.0,16.08635727714455,0.0,0,0
1761126345.0015252,14.081154823303223,0.0,0.0,4.063662915970917,0.0,0.0,1.4276177251773219,0.0,0.0,0.0,0.3,0.0,0.0,0.0,0.0,0.0,4.063662915970917,auto,85.0,6.614542484283447,0.0,0.0,-20.0,15.936337084029084,0.0,0,0
1761126345.105242,14.184871673583984,0.0,0.0,4.215762556166896,0.0,0.0,1.46370946710373,0.0,0.0,0.0,0.3,0.0,0.0,0.0,0.0,0.0,4.215762556166896,auto,85.0,6.821976184844971,0.0,0.0,-20.0,15.784237443833103,0.0,0,0
1761126345.2113361,14.290965795516968,0.0,0.0,4.3750733620431355,0.0,0.0,1.4884266380702893,0.0,0.0,0.0,0.3,0.0,0.0,0.0,0.0,0.0,4.3750733620431355,auto,85.0,7.0341644287109375,0.0,0.0,-20.0,15.624926637956865,0.0,0,0
1761126345.3163824,14.3960120677948,0.0,0.0,4.535434474718533,0.0,0.0,1.5163821746352173,0.0,0.0,0.0,0.3,0.0,0.0,0.0,0.0,0.0,4.535434474718533,auto,85.0,7.244256973266602,0.0,0.0,-20.0,15.464565525281467,0.0,0,0
1761126345.4208739,14.500503540039062,0.0,0.0,4.697672015230641,0.0,0.0,1.5436152808673926,0.0,0.0,0.0,0.3,0.0,0.0,0.0,0.0,0.0,4.697672015230641,auto,85.0,7.453239917755127,0.0,0.0,-20.0,15.30232798476936,0.0,0,0
1761126345.5306783,14.610307931900024,0.0,0.0,4.871697528464918,0.0,0.0,1.6006786056401405,0.0,0.0,0.0,0.3,0.0,0.0,0.0,0.0,0.0,4.871697528464918,auto,85.0,7.672848701477051,0.0,0.0,-20.0,15.128302471535083,0.0,0,0
1761126345.6340952,14.713724851608276,0.0,0.0,5.03749009569952,0.0,0.0,1.6366926200411531,0.0,0.0,0.0,0.8,0.0,0.0,0.0,0.0,0.0,5.03749009569952,auto,85.0,7.879682540893555,0.0,0.0,-20.0,14.962509904300479,0.0,0,0
1761126345.7369187,14.816548347473145,0.0,0.0,5.204459883033528,0.0,0.0,1.6593618918210267,0.0,0.0,0.0,0.8,0.0,0.0,0.0,0.0,0.0,5.204459883033528,auto,85.0,8.085329532623291,0.0,0.0,-20.0,14.795540116966471,0.0,0,0
1761126345.845994,14.925623655319214,0.0,0.0,5.385158403906071,0.0,0.0,1.650055160127003,0.0,0.0,0.0,0.3,0.0,0.0,0.0,0.0,0.0,5.385158403906071,auto,85.0,8.30348014831543,0.0,0.0,-20.0,14.614841596093928,0.0,0,0
1761126345.950742,15.03037166595459,0.0,0.0,5.5613774020593585,0.0,0.0,1.6693478780789202,0.0,0.0,0.0,0.3,0.0,0.0,0.0,0.0,0.0,5.5613774020593585,auto,85.0,8.512976169586182,0.0,0.0,-20.0,14.438622597940642,0.0,0,0
1761126346.0542843,15.13391399383545,0.0,0.0,5.737611180535021,0.0,0.0,1.6883019347561388,0.0,0.0,0.0,0.3,0.0,0.0,0.0,0.0,0.0,5.737611180535021,auto,85.0,8.7200608253479,0.0,0.0,-20.0,14.262388819464979,0.0,0,0
1761126346.1596236,15.239253282546997,0.0,0.0,5.919406364218677,0.0,0.0,1.7094311766892762,0.0,0.0,0.0,0.3,0.0,0.0,0.0,0.0,0.0,5.919406364218677,auto,85.0,8.930739402770996,0.0,0.0,-20.0,14.080593635781323,0.0,0,0
1761126346.2659583,15.345587968826294,0.0,0.0,6.104935250976756,0.0,0.0,1.7310342897425546,0.0,0.0,0.0,0.3,0.0,0.0,0.0,0.0,0.0,6.104935250976756,auto,85.0,9.14340877532959,0.0,0.0,-20.0,13.895064749023245,0.0,0,0
1761126346.3719733,15.451602935791016,0.0,0.0,6.292318152006823,0.0,0.0,1.7513974853324883,0.0,0.0,0.0,0.3,0.0,0.0,0.0,0.0,0.0,6.292318152006823,auto,85.0,9.355438709259033,0.0,0.0,-20.0,13.707681847993177,0.0,0,0
1761126346.4747882,15.554417848587036,0.0,0.0,6.47589248235385,0.0,0.0,1.7712899629827188,0.0,0.0,0.0,0.3,0.0,0.0,0.0,0.0,0.0,6.47589248235385,auto,85.0,9.561068534851074,0.0,0.0,-20.0,13.52410751764615,0.0,0,0
1761126346.5795789,15.659208536148071,0.0,0.0,6.665223452791171,0.0,0.0,1.7976018329789045,0.0,0.0,0.0,0.3,0.0,0.0,0.0,0.0,0.0,6.665223452791171,auto,85.0,9.770649909973145,0.0,0.0,-20.0,13.334776547208829,0.0,0,0
1761126346.6824722,15.762101888656616,0.0,0.0,6.853573504567746,0.0,0.0,1.814767294367964,0.0,0.0,0.0,0.3,0.0,0.0,0.0,0.0,0.0,6.853573504567746,auto,85.0,9.976436614990234,0.0,0.0,-20.0,13.146426495432255,0.0,0,0
1761126346.7845778,15.86420750617981,0.0,0.0,7.042151880659661,0.0,0.0,1.83327999494725,0.0,0.0,0.0,0.3,0.0,0.0,0.0,0.0,0.0,7.042151880659661,auto,85.0,10.180647850036621,0.0,0.0,-20.0,12.957848119340339,0.0,0,0
1761126346.8870661,15.966695785522461,0.0,0.0,7.233592208706079,0.0,0.0,1.8540388003583395,0.0,0.0,0.0,0.3,0.0,0.0,0.0,0.0,0.0,7.233592208706079,auto,85.0,10.385624408721924,0.0,0.0,-20.0,12.766407791293922,0.0,0,0
1761126346.990564,16.070193767547607,0.0,0.0,7.429342495979401,0.0,0.0,1.8785628704750503,0.0,0.0,0.0,0.3,0.0,0.0,0.0,0.0,0.0,7.429342495979401,auto,85.0,10.592620372772217,0.0,0.0,-20.0,12.570657504020598,0.0,0,0
1761126347.09829,16.177919626235962,0.0,0.0,7.634441152131652,0.0,0.0,1.8857579169429195,0.0,0.0,0.0,0.3,0.0,0.0,0.0,0.0,0.0,7.634441152131652,auto,85.0,10.808072090148926,0.0,0.0,-20.0,12.365558847868348,0.0,0,0
1761126347.2011805,16.280810117721558,0.0,0.0,7.832023134504061,0.0,0.0,1.9078335857991888,0.0,0.0,0.0,0.3,0.0,0.0,0.0,0.0,0.0,7.832023134504061,auto,85.0,11.013853073120117,0.0,0.0,-20.0,12.16797686549594,0.0,0,0
1761126347.3046806,16.384310245513916,0.0,0.0,8.032894487302183,0.0,0.0,1.9226821181000942,0.0,0.0,0.0,0.3,0.0,0.0,0.0,0.0,0.0,8.032894487302183,auto,85.0,11.220853328704834,0.0,0.0,-20.0,11.967105512697817,0.0,0,0
1761126347.4094133,16.48904299736023,0.0,0.0,8.237514746615341,0.0,0.0,1.9314798508303759,0.0,0.0,0.0,0.3,0.0,0.0,0.0,0.0,0.0,8.237514746615341,auto,85.0,11.430318832397461,0.0,0.0,-20.0,11.762485253384659,0.0,0,0
1761126347.5150738,16.594703435897827,0.0,0.0,8.44516890291507,0.0,0.0,1.946557390557154,0.0,0.0,0.0,0.3,0.0,0.0,0.0,0.0,0.0,8.44516890291507,auto,85.0,11.641639709472656,0.0,0.0,-20.0,11.55483109708493,0.0,0,0
1761126347.6190274,16.698657035827637,0.0,0.0,8.650897522310991,0.0,0.0,1.9629317238618764,0.0,0.0,0.0,0.3,0.0,0.0,0.0,0.0,0.0,8.650897522310991,auto,85.0,11.849546909332275,0.0,0.0,-20.0,11.349102477689009,0.0,0,0
1761126347.7245631,16.804192781448364,0.0,0.0,8.861396216267227,0.0,0.0,1.9818250555472092,0.0,0.0,0.0,0.3,0.0,0.0,0.0,0.0,0.0,8.861396216267227,auto,85.0,12.06061840057373,0.0,0.0,-20.0,11.138603783732773,0.0,0,0
1761126347.8305411,16.910170793533325,0.0,0.0,9.071912659674306,0.0,0.0,1.995501953600322,0.0,0.0,0.0,0.6613635984241419,0.0,0.0,0.0,0.0,0.0,9.071912659674306,auto,85.0,12.272574424743652,0.0,0.0,-20.0,10.928087340325694,0.0,0,0
1761126347.934038,17.013667583465576,0.0,0.0,9.277113389245457,0.0,0.0,2.0158052021419604,0.0,0.0,0.0,0.8,0.0,0.0,0.0,0.0,0.0,9.277113389245457,auto,85.0,12.479568004608154,0.0,0.0,-20.0,10.722886610754543,0.0,0,0
1761126348.0372057,17.116835355758667,0.0,0.0,9.483221911343577,0.0,0.0,2.0274753733949398,0.0,0.0,0.0,0.8,0.0,0.0,0.0,0.0,0.0,9.483221911343577,auto,85.0,12.685903549194336,0.0,0.0,-20.0,10.516778088656423,0.0,0,0
1761126348.1429305,17.222560167312622,0.0,0.0,9.695112772979927,0.0,0.0,2.0243872617660617,0.0,0.0,0.0,0.8,0.0,0.0,0.0,0.0,0.0,9.695112772979927,auto,85.0,12.897353172302246,0.0,0.0,-20.0,10.304887227020073,0.0,0,0
1761126348.2468677,17.326497316360474,0.0,0.0,9.903940463036813,0.0,0.0,2.041110683526178,0.0,0.0,0.0,0.8,0.0,0.0,0.0,0.0,0.0,9.903940463036813,auto,85.0,13.10522747039795,0.0,0.0,-20.0,10.096059536963187,0.0,0,0
1761126348.350912,17.43054175376892,0.0,0.0,10.114106937063937,0.0,0.0,2.0500441182087723,0.0,0.0,0.0,0.8,0.0,0.0,0.0,0.0,0.0,10.114106937063937,auto,85.0,13.313316345214844,0.0,0.0,-20.0,9.885893062936063,0.0,0,0
1761126348.45441,17.534039735794067,0.0,0.0,10.324178771166837,0.0,0.0,2.0573621078520423,0.0,0.0,0.0,0.8,0.0,0.0,0.0,0.0,0.0,10.324178771166837,auto,85.0,13.520312309265137,0.0,0.0,-20.0,9.675821228833163,0.0,0,0
1761126348.5549717,17.634601354599,0.0,0.0,10.527186455284621,0.0,0.0,2.0277110014681137,0.0,0.0,0.0,0.8,0.0,0.0,0.0,0.0,0.0,10.527186455284621,auto,85.0,13.721435546875,0.0,0.0,-20.0,9.472813544715379,0.0,0,0
1761126348.659686,17.73931574821472,0.0,0.0,10.73798184903171,0.0,0.0,2.001746007349095,0.0,0.0,0.0,0.5685678691935724,0.0,0.0,0.0,0.0,0.0,10.73798184903171,auto,85.0,13.930864334106445,0.0,0.0,-20.0,9.26201815096829,0.0,0,0
1761126348.770734,17.850363731384277,0.0,0.0,10.95806955524349,0.0,0.0,2.0123730404094573,0.0,0.0,0.0,0.6658245608050632,0.0,0.0,0.0,0.0,0.0,10.95806955524349,auto,85.0,14.150938510894775,0.0,0.0,-20.0,9.04193044475651,0.0,0,0
1761126348.8727684,17.95239806175232,0.0,0.0,11.163715089731461,0.0,0.0,2.018548380872499,0.0,0.0,0.0,0.8,0.0,0.0,0.0,0.0,0.0,11.163715089731461,auto,85.0,14.35702896118164,0.0,0.0,-20.0,8.836284910268539,0.0,0,0
1761126348.976401,18.056030750274658,0.0,0.0,11.371197097041149,0.0,0.0,2.033777295116397,0.0,0.0,0.0,0.8,0.0,0.0,0.0,0.0,0.0,11.371197097041149,auto,85.0,14.564294338226318,0.0,0.0,-20.0,8.628802902958851,0.0,0,0
1761126349.0822265,18.161856174468994,0.0,0.0,11.583386427439498,0.0,0.0,2.022355475743713,0.0,0.0,0.0,0.8,0.0,0.0,0.0,0.0,0.0,11.583386427439498,auto,85.0,14.77594518661499,0.0,0.0,-20.0,8.416613572560502,0.0,0,0
1761126349.1867037,18.26633334159851,0.0,0.0,11.793027920283125,0.0,0.0,2.0373108924496797,0.0,0.0,0.0,0.8,0.0,0.0,0.0,0.0,0.0,11.793027920283125,auto,85.0,14.984899520874023,0.0,0.0,-20.0,8.206972079716875,0.0,0,0
1761126349.2948682,18.374497890472412,0.0,0.0,12.010624290834482,0.0,0.0,1.9922753082637292,0.0,0.0,0.0,0.3,0.0,0.0,0.0,0.0,0.0,12.010624290834482,auto,85.0,15.201228618621826,0.0,0.0,-20.0,7.989375709165518,0.0,0,0
1761126349.3973703,18.47699999809265,0.0,0.0,12.217682277391882,0.0,0.0,1.9991777156532287,0.0,0.0,0.0,0.3,0.0,0.0,0.0,0.0,0.0,12.217682277391882,auto,85.0,15.406232833862305,0.0,0.0,-20.0,7.782317722608118,0.0,0,0
1761126349.501311,18.58094072341919,0.0,0.0,12.427284095118166,0.0,0.0,1.9949912208120115,0.0,0.0,0.0,0.3,0.0,0.0,0.0,0.0,0.0,12.427284095118166,auto,85.0,15.61411428451538,0.0,0.0,-20.0,7.572715904881834,0.0,0,0
1761126349.6031797,18.682809352874756,0.0,0.0,12.633627855022839,0.0,0.0,2.008794689806731,0.0,0.0,0.0,0.3,0.0,0.0,0.0,0.0,0.0,12.633627855022839,auto,85.0,15.817851543426514,0.0,0.0,-20.0,7.366372144977161,0.0,0,0
1761126349.709226,18.78885555267334,0.0,0.0,12.849409819554326,0.0,0.0,2.018707081390404,0.0,0.0,0.0,0.3,0.0,0.0,0.0,0.0,0.0,12.849409819554326,auto,85.0,16.02994394302368,0.0,0.0,-20.0,7.150590180445674,0.0,0,0
1761126349.8150826,18.894712209701538,0.0,0.0,13.062014240908205,0.0,0.0,1.9904377273887992,0.0,0.0,0.0,0.3,0.0,0.0,0.0,0.0,0.0,13.062014240908205,auto,85.0,16.241657257080078,0.0,0.0,-20.0,6.937985759091795,0.0,0,0
1761126349.9191015,18.99873113632202,0.0,0.0,13.272230562610249,0.0,0.0,2.0044514654743493,0.0,0.0,0.0,0.3,0.0,0.0,0.0,0.0,0.0,13.272230562610249,auto,85.0,16.449695110321045,0.0,0.0,-20.0,6.727769437389751,0.0,0,0
1761126350.0249813,19.104610919952393,0.0,0.0,13.486426444764602,0.0,0.0,1.9978964855240453,0.0,0.0,0.0,0.3,0.0,0.0,0.0,0.0,0.0,13.486426444764602,auto,85.0,16.661454677581787,0.0,0.0,-20.0,6.513573555235398,0.0,0,0
1761126350.129026,19.20865559577942,0.0,0.0,13.697286960610187,0.0,0.0,2.0002793581843052,0.0,0.0,0.0,0.3,0.0,0.0,0.0,0.0,0.0,13.697286960610187,auto,85.0,16.86954402923584,0.0,0.0,-20.0,6.302713039389813,0.0,0,0
1761126350.2341783,19.31380796432495,0.0,0.0,13.910802077832978,0.0,0.0,2.011916225917438,0.0,0.0,0.0,0.3,0.0,0.0,0.0,0.0,0.0,13.910802077832978,auto,85.0,17.079848766326904,0.0,0.0,-20.0,6.089197922167022,0.0,0,0
1761126350.3382313,19.417860984802246,0.0,0.0,14.122851038055233,0.0,0.0,2.01710813050082,0.0,0.0,0.0,0.3,0.0,0.0,0.0,0.0,0.0,14.122851038055233,auto,85.0,17.287954807281494,0.0,0.0,-20.0,5.877148961944767,0.0,0,0
1761126350.4434397,19.523069381713867,0.0,0.0,14.337489160457585,0.0,0.0,2.0133820672766745,0.0,0.0,0.0,0.3,0.0,0.0,0.0,0.0,0.0,14.337489160457585,auto,85.0,17.498371601104736,0.0,0.0,-20.0,5.662510839542415,0.0,0,0
1761126350.5491295,19.628759145736694,0.0,0.0,14.552720510127292,0.0,0.0,2.002705822008933,0.0,0.0,0.0,0.3,0.0,0.0,0.0,0.0,0.0,14.552720510127292,auto,85.0,17.70975112915039,0.0,0.0,-20.0,5.447279489872708,0.0,0,0
1761126350.6512842,19.730913877487183,0.0,0.0,14.760269995814895,0.0,0.0,2.008016111916015,0.0,0.0,0.0,0.3,0.0,0.0,0.0,0.0,0.0,14.760269995814895,auto,85.0,17.914060592651367,0.0,0.0,-20.0,5.239730004185105,0.0,0,0
1761126350.761258,19.840887546539307,0.0,0.0,14.98203006883199,0.0,0.0,2.0233673735364155,0.0,0.0,0.0,0.8,0.0,0.0,0.0,0.0,0.0,14.98203006883199,auto,85.0,18.134007930755615,0.0,0.0,-20.0,5.017969931168009,0.0,0,0
1761126350.8642368,19.94386649131775,0.0,0.0,15.192545731750846,0.0,0.0,2.0384013062833928,0.0,0.0,0.0,0.3,0.0,0.0,0.0,0.0,0.0,15.192545731750846,auto,85.0,20,0.0,0.0,-20.0,4.807454268249154,0.0,0,0
1761126350.9695134,20.049143075942993,0.0,0.0,15.410343177702943,0.0,0.0,2.038787346100083,0.0,0.0,0.0,0.3,0.0,0.0,0.0,0.0,0.0,15.410343177702943,auto,85.0,20,0.0,0.0,-20.0,4.589656822297057,0.0,0,0
1761126351.072512,20.152141571044922,0.0,0.0,15.623968248955437,0.0,0.0,2.058312590888346,0.0,0.0,0.0,0.3,0.0,0.0,0.0,0.0,0.0,15.623968248955437,auto,85.0,20,0.0,0.0,-20.0,4.376031751044563,0.0,0,0
1761126351.1766624,20.25629210472107,0.0,0.0,15.840473981963177,0.0,0.0,2.0592309858637736,0.0,0.0,0.0,0.3,0.0,0.0,0.0,0.0,0.0,15.840473981963177,auto,85.0,20,0.0,0.0,-20.0,4.159526018036823,0.0,0,0
1761126351.2809308,20.360560417175293,0.0,0.0,16.057655520069,0.0,0.0,2.0621111250287147,0.0,0.0,0.0,0.3,0.0,0.0,0.0,0.0,0.0,16.057655520069,auto,85.0,20,0.0,0.0,-20.0,3.9423444799309983,0.0,0,0
1761126351.385036,20.46466565132141,0.0,0.0,16.275393296974666,0.0,0.0,2.071408587894907,0.0,0.0,0.0,0.3,0.0,0.0,0.0,0.0,0.0,16.275393296974666,auto,85.0,20,0.0,0.0,-20.0,3.7246067030253336,0.0,0,0
1761126351.490282,20.56991171836853,0.0,0.0,16.494439996607667,0.0,0.0,2.062017638107227,0.0,0.0,0.0,0.3,0.0,0.0,0.0,0.0,0.0,16.494439996607667,auto,85.0,20,0.0,0.0,-20.0,3.5055600033923326,0.0,0,0
1761126351.5947282,20.674357891082764,0.0,0.0,16.711916286750498,0.0,0.0,2.064402768436424,0.0,0.0,0.0,0.3,0.0,0.0,0.0,0.0,0.0,16.711916286750498,auto,85.0,20,0.0,0.0,-20.0,3.2880837132495024,0.0,0,0
1761126351.6994224,20.779052019119263,0.0,0.0,16.921216285208395,0.0,0.0,1.9304558653629191,0.0,0.0,0.0,0.4879716597686809,0.0,0.0,0.0,0.0,0.0,16.921216285208395,auto,85.0,20,0.0,0.0,-20.0,3.078783714791605,0.0,0,0
1761126351.806748,20.886377573013306,0.0,0.0,17.12304073078931,0.0,0.0,1.8032561712742445,0.0,0.0,0.0,0.3632453652446717,0.0,0.0,0.0,0.0,0.0,17.12304073078931,auto,85.0,20,0.0,0.0,-20.0,2.8769592692106905,0.0,0,0
1761126351.910618,20.99024772644043,0.0,0.0,17.306867863962633,0.0,0.0,1.700734575265384,0.0,0.0,0.0,0.4767060403346852,0.0,0.0,0.0,0.0,0.0,17.306867863962633,auto,85.0,20,0.0,0.0,-20.0,2.6931321360373666,0.0,0,0
1761126352.0146484,21.09427809715271,0.0,0.0,17.480286575457864,0.0,0.0,1.657883290496308,0.0,0.0,0.0,0.8,0.0,0.0,0.0,0.0,0.0,17.480286575457864,auto,85.0,20,0.0,0.0,-20.0,2.519713424542136,0.0,0,0
1761126352.1183522,21.19798183441162,0.0,0.0,17.64334653698453,0.0,0.0,1.5155545396635293,0.0,0.0,0.0,0.3,0.0,0.0,0.0,0.0,0.0,17.64334653698453,auto,85.0,20,0.0,0.0,-20.0,2.356653463015469,0.0,0,0
1761126352.222822,21.302451610565186,0.0,0.0,17.796788314500052,0.0,0.0,1.4150147388757912,0.0,0.0,0.0,0.3,0.0,0.0,0.0,0.0,0.0,17.796788314500052,auto,85.0,20,0.0,0.0,-20.0,2.203211685499948,0.0,0,0
1761126352.3258672,21.405496835708618,0.0,0.0,17.93874272501689,0.0,0.0,1.3233597585843915,0.0,0.0,0.0,0.5024923564296697,0.0,0.0,0.0,0.0,0.0,17.93874272501689,auto,85.0,20,0.0,0.0,-20.0,2.0612572749831095,0.0,0,0
1761126352.4299006,21.509530305862427,0.0,0.0,18.072329532723444,0.0,0.0,1.21998022911903,0.0,0.0,0.0,0.3,0.0,0.0,0.0,0.0,0.0,18.072329532723444,auto,85.0,20,0.0,0.0,-20.0,1.927670467276556,0.0,0,0
1761126352.5324173,21.61204695701599,0.0,0.0,18.19589346385445,0.0,0.0,1.152877311655251,0.0,0.0,0.0,0.3,0.0,0.0,0.0,0.0,0.0,18.19589346385445,auto,85.0,20,0.0,0.0,-20.0,1.8041065361455502,0.0,0,0
1761126352.6354392,21.715068817138672,0.0,0.0,18.312610536088215,0.0,0.0,1.1240050609583323,0.0,0.0,0.0,0.8,0.0,0.0,0.0,0.0,0.0,18.312610536088215,auto,85.0,20,0.0,0.0,-20.0,1.687389463911785,0.0,0,0
1761126352.739279,21.81890869140625,0.0,0.0,18.422519610628726,0.0,0.0,1.063380691517262,0.0,0.0,0.0,0.8,0.0,0.0,0.0,0.0,0.0,18.422519610628726,auto,85.0,20,0.0,0.0,-20.0,1.5774803893712743,0.0,0,0
1761126352.8447552,21.924384832382202,0.0,0.0,18.527749654222536,0.0,0.0,0.9352159185493608,0.0,0.0,0.0,0.36339612310278946,0.0,0.0,0.0,0.0,0.0,18.527749654222536,auto,85.0,20,0.0,0.0,-20.0,1.4722503457774643,0.0,0,0
1761126352.949526,22.029155731201172,0.0,0.0,18.625075606926686,0.0,0.0,0.8752711188548422,0.0,0.0,0.0,0.4046406453039494,0.0,0.0,0.0,0.0,0.0,18.625075606926686,auto,85.0,20,0.0,0.0,-20.0,1.3749243930733144,0.0,0,0
1761126353.0496578,22.129287481307983,0.0,0.0,18.712104134586014,0.0,0.0,0.8241005728173197,0.0,0.0,0.0,0.3,0.0,0.0,0.0,0.0,0.0,18.712104134586014,auto,85.0,20,0.0,0.0,-20.0,1.2878958654139865,0.0,0,0
1761126353.153023,22.23265266418457,0.0,0.0,18.79695541337353,0.0,0.0,0.7772145520876567,0.0,0.0,0.0,0.47329650817269836,0.0,0.0,0.0,0.0,0.0,18.79695541337353,auto,85.0,20,0.0,0.0,-20.0,1.2030445866264685,0.0,0,0
1761126353.2576127,22.337242364883423,0.0,0.0,18.877444334762792,0.0,0.0,0.768171605880523,0.0,0.0,0.0,0.8,0.0,0.0,0.0,0.0,0.0,18.877444334762792,auto,85.0,20,0.0,0.0,-20.0,1.1225556652372077,0.0,0,0
1761126353.3623908,22.442020416259766,0.0,0.0,18.952545665522162,0.0,0.0,0.7170370252911752,0.0,0.0,0.0,0.8,0.0,0.0,0.0,0.0,0.0,18.952545665522162,auto,85.0,20,0.0,0.0,-20.0,1.0474543344778375,0.0,0,0
1761126353.4660883,22.54571795463562,0.0,0.0,19.02258275514193,0.0,0.0,0.6416327482622423,0.0,0.0,0.0,0.3,0.0,0.0,0.0,0.0,0.0,19.02258275514193,auto,85.0,20,0.0,0.0,-20.0,0.9774172448580707,0.0,0,1
1761126353.5700364,22.64966607093811,0.0,0.0,19.08777792006313,0.0,0.0,0.5941487289596449,0.0,0.0,0.0,0.3,0.0,0.0,0.0,0.0,0.0,19.08777792006313,auto,85.0,20,0.0,0.0,-20.0,0.9122220799368712,0.0,0,1
1761126353.6719143,22.75154399871826,0.0,0.0,19.148163248489304,0.0,0.0,0.5518299164091919,0.0,0.0,0.0,0.3,0.0,0.0,0.0,0.0,0.0,19.148163248489304,auto,85.0,20,0.0,0.0,-20.0,0.8518367515106959,0.0,0,1
1761126353.775344,22.854973554611206,0.0,0.0,19.20580571422132,0.0,0.0,0.5250623286965996,0.0,0.0,0.0,0.3,0.0,0.0,0.0,0.0,0.0,19.20580571422132,auto,85.0,20,0.0,0.0,-20.0,0.7941942857786799,0.0,0,1
1761126353.877184,22.95681357383728,0.0,0.0,19.259873725679086,0.0,0.0,0.47907900950431537,0.0,0.0,0.0,0.3,0.0,0.0,0.0,0.0,0.0,19.259873725679086,auto,85.0,20,0.0,0.0,-20.0,0.7401262743209145,0.0,0,1
1761126353.9805005,23.06013011932373,0.0,0.0,19.311188116947264,0.0,0.0,0.48689592501502954,0.0,0.0,0.0,0.6323763663778431,0.0,0.0,0.0,0.0,0.0,19.311188116947264,auto,85.0,20,0.0,0.0,-20.0,0.6888118830527361,0.0,0,1
