timestamp,simulation_time,position_x,position_y,position_z,velocity_x,velocity_y,velocity_z,attitude_roll,attitude_pitch,attitude_yaw,control_throttle,control_roll,control_pitch,control_yaw,estimated_position_x,estimated_position_y,estimated_position_z,flight_mode,battery_level,setpoint_altitude,setpoint_position_x,setpoint_position_y,setpoint_position_z,position_error,attitude_error,waypoint_index,mission_complete
1761252070.5758953,0.11016345024108887,0.0,0.0,-0.0,0.0,0.0,-0.0,0.0,0.0,0.0,0.0,0.0,0.0,0.0,0.0,0.0,-0.0,manual,85.0,0.0,0.0,0.0,0.0,0.0,0.0,0,0
1761252070.6817052,0.2159733772277832,0.0,0.0,-0.0,0.0,0.0,-0.0,0.0,0.0,0.0,0.0,0.0,0.0,0.0,0.0,0.0,-0.0,manual,85.0,0.0,0.0,0.0,0.0,0.0,0.0,0,0
1761252070.7868817,0.3211498260498047,0.0,0.0,-0.0,0.0,0.0,-0.0,0.0,0.0,0.0,0.0,0.0,0.0,0.0,0.0,0.0,-0.0,manual,85.0,0.0,0.0,0.0,0.0,0.0,0.0,0,0
1761252070.893076,0.42734408378601074,0.0,0.0,-0.0,0.0,0.0,-0.0,0.0,0.0,0.0,0.0,0.0,0.0,0.0,0.0,0.0,-0.0,manual,85.0,0.0,0.0,0.0,0.0,0.0,0.0,0,0
1761252071.000996,0.535264253616333,0.0,0.0,-0.0,0.0,0.0,-0.0,0.0,0.0,0.0,0.0,0.0,0.0,0.0,0.0,0.0,-0.0,manual,85.0,0.0,0.0,0.0,0.0,0.0,0.0,0,0
1761252071.1076288,0.6418969631195068,0.0,0.0,-0.0,0.0,0.0,-0.0,0.0,0.0,0.0,0.0,0.0,0.0,0.0,0.0,0.0,-0.0,manual,85.0,0.0,0.0,0.0,0.0,0.0,0.0,0,0
1761252071.2140117,0.7482798099517822,0.0,0.0,-0.0,0.0,0.0,-0.0,0.0,0.0,0.0,0.0,0.0,0.0,0.0,0.0,0.0,-0.0,manual,85.0,0.0,0.0,0.0,0.0,0.0,0.0,0,0
1761252071.3206973,0.8549654483795166,0.0,0.0,-0.0,0.0,0.0,-0.0,0.0,0.0,0.0,0.0,0.0,0.0,0.0,0.0,0.0,-0.0,manual,85.0,0.0,0.0,0.0,0.0,0.0,0.0,0,0
1761252071.4259562,0.9602243900299072,0.0,0.0,-0.0,0.0,0.0,-0.0,0.0,0.0,0.0,0.0,0.0,0.0,0.0,0.0,0.0,-0.0,manual,85.0,0.0,0.0,0.0,0.0,0.0,0.0,0,0
1761252071.5309727,1.0652408599853516,0.0,0.0,-0.0,0.0,0.0,-0.0,0.0,0.0,0.0,0.0,0.0,0.0,0.0,0.0,0.0,-0.0,manual,85.0,0.0,0.0,0.0,0.0,0.0,0.0,0,0
1761252071.6381836,1.1724517345428467,0.0,0.0,-0.0,0.0,0.0,-0.0,0.0,0.0,0.0,0.0,0.0,0.0,0.0,0.0,0.0,-0.0,manual,85.0,0.0,0.0,0.0,0.0,0.0,0.0,0,0
1761252071.744799,1.279067039489746,0.0,0.0,-0.0,0.0,0.0,-0.0,0.0,0.0,0.0,0.0,0.0,0.0,0.0,0.0,0.0,-0.0,manual,85.0,0.0,0.0,0.0,0.0,0.0,0.0,0,0
1761252071.8468196,1.3810877799987793,0.0,0.0,-0.0,0.0,0.0,-0.0,0.0,0.0,0.0,0.0,0.0,0.0,0.0,0.0,0.0,-0.0,manual,85.0,0.0,0.0,0.0,0.0,0.0,0.0,0,0
1761252071.9544325,1.4887006282806396,0.0,0.0,-0.0,0.0,0.0,-0.0,0.0,0.0,0.0,0.0,0.0,0.0,0.0,0.0,0.0,-0.0,manual,85.0,0.0,0.0,0.0,0.0,0.0,0.0,0,0
1761252072.0599675,1.5942356586456299,0.0,0.0,-0.0,0.0,0.0,-0.0,0.0,0.0,0.0,0.0,0.0,0.0,0.0,0.0,0.0,-0.0,manual,85.0,0.0,0.0,0.0,0.0,0.0,0.0,0,0
1761252072.1654983,1.6997663974761963,0.0,0.0,-0.0,0.0,0.0,-0.0,0.0,0.0,0.0,0.0,0.0,0.0,0.0,0.0,0.0,-0.0,manual,85.0,0.0,0.0,0.0,0.0,0.0,0.0,0,0
1761252072.272049,1.8063170909881592,0.0,0.0,-0.0,0.0,0.0,-0.0,0.0,0.0,0.0,0.0,0.0,0.0,0.0,0.0,0.0,-0.0,manual,85.0,0.0,0.0,0.0,0.0,0.0,0.0,0,0
1761252072.3788733,1.9131414890289307,0.0,0.0,-0.0,0.0,0.0,-0.0,0.0,0.0,0.0,0.0,0.0,0.0,0.0,0.0,0.0,-0.0,manual,85.0,0.0,0.0,0.0,0.0,0.0,0.0,0,0
1761252072.4851093,2.0193774700164795,0.0,0.0,-0.0,0.0,0.0,-0.0,0.0,0.0,0.0,0.0,0.0,0.0,0.0,0.0,0.0,-0.0,manual,85.0,0.0,0.0,0.0,0.0,0.0,0.0,0,0
1761252072.5908046,2.125072717666626,0.0,0.0,-0.0,0.0,0.0,-0.0,0.0,0.0,0.0,0.0,0.0,0.0,0.0,0.0,0.0,-0.0,manual,85.0,0.0,0.0,0.0,0.0,0.0,0.0,0,0
1761252072.7427568,2.277024984359741,0.0,0.0,0.04466565643899926,0.0,0.0,1.159030816438551,0.0,0.0,0.0,1.0,0.0,0.0,0.0,0.0,0.0,0.04466565643899926,stabilize,85.0,2.0,0.0,0.0,-2.0,1.9553343435610007,0.0,0,0
1761252072.8526843,2.3869524002075195,0.0,0.0,0.16276538517450675,0.0,0.0,1.0679817812467722,0.0,0.0,0.0,0.35,0.0,0.0,0.0,0.0,0.0,0.16276538517450675,stabilize,85.0,2.0,0.0,0.0,-2.0,1.8372346148254932,0.0,0,0
1761252072.9575737,2.4918417930603027,0.0,0.0,0.28066197965344314,0.0,0.0,1.1942705773252906,0.0,0.0,0.0,0.35,0.0,0.0,0.0,0.0,0.0,0.28066197965344314,stabilize,85.0,2.0,0.0,0.0,-2.0,1.719338020346557,0.0,0,0
1761252073.0613883,2.595656394958496,0.0,0.0,0.40310548604094226,0.0,0.0,1.1718931265393755,0.0,0.0,0.0,0.35,0.0,0.0,0.0,0.0,0.0,0.40310548604094226,stabilize,85.0,2.0,0.0,0.0,-2.0,1.5968945139590578,0.0,0,0
1761252073.1658945,2.700162649154663,0.0,0.0,0.5293648453643183,0.0,0.0,1.192773832649163,0.0,0.0,0.0,0.35,0.0,0.0,0.0,0.0,0.0,0.5293648453643183,stabilize,85.0,2.0,0.0,0.0,-2.0,1.4706351546356817,0.0,0,0
1761252073.272456,2.8067240715026855,0.0,0.0,0.6548898114120735,0.0,0.0,1.1533960270434847,0.0,0.0,0.0,0.4084644369456947,0.0,0.0,0.0,0.0,0.0,0.6548898114120735,stabilize,85.0,2.0,0.0,0.0,-2.0,1.3451101885879266,0.0,0,0
1761252073.378066,2.9123342037200928,0.0,0.0,0.7757916566074702,0.0,0.0,1.1097762231825052,0.0,0.0,0.0,0.35,0.0,0.0,0.0,0.0,0.0,0.7757916566074702,stabilize,85.0,2.0,0.0,0.0,-2.0,1.22420834339253,0.0,0,0
1761252073.4878953,3.0221633911132812,0.0,0.0,0.8964658536056747,0.0,0.0,1.1013373875302104,0.0,0.0,0.0,0.6061743287531984,0.0,0.0,0.0,0.0,0.0,0.8964658536056747,stabilize,85.0,2.0,0.0,0.0,-2.0,1.1035341463943253,0.0,0,0
1761252073.5937912,3.1280593872070312,0.0,0.0,1.0073220287049178,0.0,0.0,1.0096702576220093,0.0,0.0,0.0,0.35,0.0,0.0,0.0,0.0,0.0,1.0073220287049178,stabilize,85.0,2.0,0.0,0.0,-2.0,0.9926779712950822,0.0,0,0
1761252073.7003193,3.2345874309539795,0.0,0.0,1.1119248897049852,0.0,0.0,0.9437622971994055,0.0,0.0,0.0,0.35,0.0,0.0,0.0,0.0,0.0,1.1119248897049852,stabilize,85.0,2.0,0.0,0.0,-2.0,0.8880751102950148,0.0,0,0
1761252073.8066509,3.340919017791748,0.0,0.0,1.2094467556864679,0.0,0.0,0.8772872743029296,0.0,0.0,0.0,0.4195059070843992,0.0,0.0,0.0,0.0,0.0,1.2094467556864679,stabilize,85.0,2.0,0.0,0.0,-2.0,0.7905532443135321,0.0,0,0
1761252073.9133134,3.4475815296173096,0.0,0.0,1.299821901311896,0.0,0.0,0.8243749887577078,0.0,0.0,0.0,0.35,0.0,0.0,0.0,0.0,0.0,1.299821901311896,stabilize,85.0,2.0,0.0,0.0,-2.0,0.7001780986881041,0.0,0,0
1761252074.01957,3.5538382530212402,0.0,0.0,1.3832553103835445,0.0,0.0,0.7358693152123618,0.0,0.0,0.0,0.35,0.0,0.0,0.0,0.0,0.0,1.3832553103835445,stabilize,85.0,2.0,0.0,0.0,-2.0,0.6167446896164555,0.0,0,0
1761252074.1262128,3.6604809761047363,0.0,0.0,1.4600101778724115,0.0,0.0,0.7091931520248322,0.0,0.0,0.0,0.580389323155957,0.0,0.0,0.0,0.0,0.0,1.4600101778724115,stabilize,85.0,2.0,0.0,0.0,-2.0,0.5399898221275885,0.0,0,0
1761252074.2350419,3.7693099975585938,0.0,0.0,1.531169056747207,0.0,0.0,0.610757135711241,0.0,0.0,0.0,0.35,0.0,0.0,0.0,0.0,0.0,1.531169056747207,stabilize,85.0,2.0,0.0,0.0,-2.0,0.46883094325279306,0.0,0,0
1761252074.3436496,3.877917766571045,0.0,0.0,1.5953181155539842,0.0,0.0,0.5473372610472669,0.0,0.0,0.0,0.3609707355960641,0.0,0.0,0.0,0.0,0.0,1.5953181155539842,stabilize,85.0,2.0,0.0,0.0,-2.0,0.4046818844460158,0.0,0,0
1761252074.449651,3.983919143676758,0.0,0.0,1.6520046095557224,0.0,0.0,0.5285296701276037,0.0,0.0,0.0,0.5708446381370721,0.0,0.0,0.0,0.0,0.0,1.6520046095557224,stabilize,85.0,2.0,0.0,0.0,-2.0,0.34799539044427763,0.0,0,0
1761252074.5566964,4.0909645557403564,0.0,0.0,1.7040277936524606,0.0,0.0,0.46110979998453433,0.0,0.0,0.0,0.35,0.0,0.0,0.0,0.0,0.0,1.7040277936524606,stabilize,85.0,2.0,0.0,0.0,-2.0,0.2959722063475394,0.0,0,0
1761252074.6660283,4.200296401977539,0.0,0.0,1.7516370370718242,0.0,0.0,0.4048070872412786,0.0,0.0,0.0,0.35,0.0,0.0,0.0,0.0,0.0,1.7516370370718242,stabilize,85.0,2.0,0.0,0.0,-2.0,0.24836296292817583,0.0,0,0
1761252074.7713485,4.305616617202759,0.0,0.0,1.7933263418525516,0.0,0.0,0.36773861202232283,0.0,0.0,0.0,0.35,0.0,0.0,0.0,0.0,0.0,1.7933263418525516,stabilize,85.0,2.0,0.0,0.0,-2.0,0.20667365814744842,0.0,0,0
1761252074.8777323,4.412000417709351,0.0,0.0,1.8307690877608145,0.0,0.0,0.32385737793442243,0.0,0.0,0.0,0.35,0.0,0.0,0.0,0.0,0.0,1.8307690877608145,stabilize,85.0,2.0,0.0,0.0,-2.0,0.16923091223918552,0.0,0,0
1761252074.98015,4.514418125152588,0.0,0.0,1.8628417508081698,0.0,0.0,0.287698912611979,0.0,0.0,0.0,0.35,0.0,0.0,0.0,0.0,0.0,1.8628417508081698,stabilize,85.0,2.0,0.0,0.0,-2.0,0.13715824919183017,0.0,0,0
1761252075.0852804,4.619548559188843,0.0,0.0,1.894010059947686,0.0,0.0,0.2570623610589191,0.0,0.0,0.0,0.37740453506438787,0.0,0.0,0.0,0.0,0.0,1.894010059947686,stabilize,85.0,2.0,0.0,0.0,-2.0,0.1059899400523141,0.0,0,0
1761252075.191198,4.725466251373291,0.0,0.0,1.921348466943653,0.0,0.0,0.2680937877591926,0.0,0.0,0.0,0.6074157371132933,0.0,0.0,0.0,0.0,0.0,1.921348466943653,stabilize,85.0,2.0,0.0,0.0,-2.0,0.07865153305634709,0.0,0,0
1761252075.2967691,4.831037282943726,0.0,0.0,1.945461852236645,0.0,0.0,0.22215653983119477,0.0,0.0,0.0,0.35,0.0,0.0,0.0,0.0,0.0,1.945461852236645,stabilize,85.0,2.0,0.0,0.0,-2.0,0.05453814776335508,0.0,0,0
1761252075.4039142,4.938182353973389,0.0,0.0,1.9666703122690103,0.0,0.0,0.17641607896477868,0.0,0.0,0.0,0.35,0.0,0.0,0.0,0.0,0.0,1.9666703122690103,stabilize,85.0,2.0,0.0,0.0,-2.0,0.033329687730989654,0.0,0,0
1761252075.5110729,5.0453410148620605,0.0,0.0,1.985502588991226,0.0,0.0,0.1838493128599341,0.0,0.0,0.0,0.35,0.0,0.0,0.0,0.0,0.0,1.985502588991226,stabilize,85.0,2.0,0.0,0.0,-2.0,0.014497411008774108,0.0,0,0
1761252075.617984,5.152252197265625,0.0,0.0,2.002281844868261,0.0,0.0,0.13861280930848874,0.0,0.0,0.0,0.35,0.0,0.0,0.0,0.0,0.0,2.002281844868261,stabilize,85.0,2.0,0.0,0.0,-2.0,0.002281844868261107,0.0,0,0
1761252075.7248602,5.2591283321380615,0.0,0.0,2.0160044209960963,0.0,0.0,0.11019040736748721,0.0,0.0,0.0,0.41102244239514873,0.0,0.0,0.0,0.0,0.0,2.0160044209960963,stabilize,85.0,2.0,0.0,0.0,-2.0,0.016004420996096336,0.0,0,0
1761252075.8274422,5.3617103099823,0.0,0.0,2.0288886128526,0.0,0.0,0.10759723832189426,0.0,0.0,0.0,0.40363526776218434,0.0,0.0,0.0,0.0,0.0,2.0288886128526,stabilize,85.0,2.0,0.0,0.0,-2.0,0.028888612852600026,0.0,0,0
1761252075.9343498,5.468617916107178,0.0,0.0,2.0406934238293126,0.0,0.0,0.09007699815728323,0.0,0.0,0.0,0.35,0.0,0.0,0.0,0.0,0.0,2.0406934238293126,stabilize,85.0,2.0,0.0,0.0,-2.0,0.040693423829312625,0.0,0,0
1761252076.0437498,5.578017950057983,0.0,0.0,2.0505050247689356,0.0,0.0,0.09628190499183605,0.0,0.0,0.0,0.5489582808877442,0.0,0.0,0.0,0.0,0.0,2.0505050247689356,stabilize,85.0,2.0,0.0,0.0,-2.0,0.05050502476893559,0.0,0,0
1761252076.150106,5.684374094009399,0.0,0.0,2.059495474259645,0.0,0.0,0.10408780922645443,0.0,0.0,0.0,0.6255952794543449,0.0,0.0,0.0,0.0,0.0,2.059495474259645,stabilize,85.0,2.0,0.0,0.0,-2.0,0.059495474259644965,0.0,0,0
1761252076.2583714,5.792639493942261,0.0,0.0,2.067527818535089,0.0,0.0,0.05304063785461099,0.0,0.0,0.0,0.35,0.0,0.0,0.0,0.0,0.0,2.067527818535089,stabilize,85.0,2.0,0.0,0.0,-2.0,0.06752781853508916,0.0,0,0
1761252076.3654413,5.899709463119507,0.0,0.0,2.0741893434762804,0.0,0.0,0.04682646199974466,0.0,0.0,0.0,0.4166367194181998,0.0,0.0,0.0,0.0,0.0,2.0741893434762804,stabilize,85.0,2.0,0.0,0.0,-2.0,0.07418934347628037,0.0,0,0
1761252076.4735978,6.007865905761719,0.0,0.0,2.0797857832491733,0.0,0.0,0.0497713015712071,0.0,0.0,0.0,0.4890223181711306,0.0,0.0,0.0,0.0,0.0,2.0797857832491733,stabilize,85.0,2.0,0.0,0.0,-2.0,0.07978578324917329,0.0,0,0
1761252076.5780654,6.112333536148071,0.0,0.0,2.085149809375305,0.0,0.0,0.06156501499989493,0.0,0.0,0.0,0.35,0.0,0.0,0.0,0.0,0.0,2.085149809375305,stabilize,85.0,2.0,0.0,0.0,-2.0,0.08514980937530492,0.0,0,0
1761252076.6841018,6.218369960784912,0.0,0.0,2.089722340125046,0.0,0.0,0.0311247771221856,0.0,0.0,0.0,0.35,0.0,0.0,0.0,0.0,0.0,2.089722340125046,stabilize,85.0,2.0,0.0,0.0,-2.0,0.08972234012504599,0.0,0,0
1761252076.791642,6.3259100914001465,0.0,0.0,2.0931027157492497,0.0,0.0,0.009089879378207669,0.0,0.0,0.0,0.357582734841752,0.0,0.0,0.0,0.0,0.0,2.0931027157492497,stabilize,85.0,2.0,0.0,0.0,-2.0,0.09310271574924966,0.0,0,0
1761252076.8976436,6.4319117069244385,0.0,0.0,2.097357850346401,0.0,0.0,0.03794944026024892,0.0,0.0,0.0,0.35,0.0,0.0,0.0,0.0,0.0,2.097357850346401,stabilize,85.0,2.0,0.0,0.0,-2.0,0.09735785034640099,0.0,0,0
1761252077.0049212,6.539189338684082,0.0,0.0,2.100070681491634,0.0,0.0,0.01687059224709341,0.0,0.0,0.0,0.35,0.0,0.0,0.0,0.0,0.0,2.100070681491634,stabilize,85.0,2.0,0.0,0.0,-2.0,0.1000706814916339,0.0,0,0
1761252077.1122797,6.646547794342041,0.0,0.0,2.102137643806134,0.0,0.0,0.005863940848717108,0.0,0.0,0.0,0.43272489370610195,0.0,0.0,0.0,0.0,0.0,2.102137643806134,stabilize,85.0,2.0,0.0,0.0,-2.0,0.1021376438061341,0.0,0,0
1761252077.2182584,6.752526521682739,0.0,0.0,2.1032393563200715,0.0,0.0,0.004492731842805735,0.0,0.0,0.0,0.35,0.0,0.0,0.0,0.0,0.0,2.1032393563200715,stabilize,85.0,2.0,0.0,0.0,-2.0,0.10323935632007153,0.0,0,0
1761252077.3271515,6.861419677734375,0.0,0.0,2.1045523513358004,0.0,0.0,0.019103070911871294,0.0,0.0,0.0,0.5703769901059577,0.0,0.0,0.0,0.0,0.0,2.1045523513358004,stabilize,85.0,2.0,0.0,0.0,-2.0,0.10455235133580043,0.0,0,0
1761252077.4322236,6.96649169921875,0.0,0.0,2.105032628292897,0.0,0.0,-0.008316232164152532,0.0,0.0,0.0,0.35,0.0,0.0,0.0,0.0,0.0,2.105032628292897,stabilize,85.0,2.0,0.0,0.0,-2.0,0.10503262829289683,0.0,0,0
1761252077.5377378,7.072005987167358,0.0,0.0,2.1054901342548242,0.0,0.0,0.013607304546329108,0.0,0.0,0.0,0.5662415773346681,0.0,0.0,0.0,0.0,0.0,2.1054901342548242,stabilize,85.0,2.0,0.0,0.0,-2.0,0.10549013425482423,0.0,0,0
1761252077.644637,7.178905248641968,0.0,0.0,2.1055581647521193,0.0,0.0,0.010127886316907279,0.0,0.0,0.0,0.544772805864625,0.0,0.0,0.0,0.0,0.0,2.1055581647521193,stabilize,85.0,2.0,0.0,0.0,-2.0,0.10555816475211932,0.0,0,0
1761252077.752545,7.286813259124756,0.0,0.0,2.104689374070886,0.0,0.0,-0.019283682051382582,0.0,0.0,0.0,0.35,0.0,0.0,0.0,0.0,0.0,2.104689374070886,stabilize,85.0,2.0,0.0,0.0,-2.0,0.10468937407088585,0.0,0,0
1761252077.8598037,7.394071817398071,0.0,0.0,2.10328009086967,0.0,0.0,-0.010466952404356349,0.0,0.0,0.0,0.4963357575912496,0.0,0.0,0.0,0.0,0.0,2.10328009086967,stabilize,85.0,2.0,0.0,0.0,-2.0,0.10328009086966983,0.0,0,0
1761252077.9622161,7.496484279632568,0.0,0.0,2.102464920897086,0.0,0.0,-0.016996283676608926,0.0,0.0,0.0,0.35,0.0,0.0,0.0,0.0,0.0,2.102464920897086,stabilize,85.0,2.0,0.0,0.0,-2.0,0.10246492089708603,0.0,0,0
1761252078.0691764,7.603444576263428,0.0,0.0,2.102427081077541,0.0,0.0,-0.02240399925304495,0.0,0.0,0.0,0.35,0.0,0.0,0.0,0.0,0.0,2.102427081077541,stabilize,85.0,2.0,0.0,0.0,-2.0,0.10242708107754117,0.0,0,0
1761252078.1765635,7.710831642150879,0.0,0.0,2.101651679380924,0.0,0.0,-0.030553826799343445,0.0,0.0,0.0,0.3584353379307875,0.0,0.0,0.0,0.0,0.0,2.101651679380924,stabilize,85.0,2.0,0.0,0.0,-2.0,0.1016516793809239,0.0,0,0
1761252078.2838256,7.818093776702881,0.0,0.0,2.1014881996755825,0.0,0.0,-0.008045088621672154,0.0,0.0,0.0,0.48037780899747495,0.0,0.0,0.0,0.0,0.0,2.1014881996755825,stabilize,85.0,2.0,0.0,0.0,-2.0,0.10148819967558254,0.0,0,0
1761252078.3910115,7.92527961730957,0.0,0.0,2.100551591794673,0.0,0.0,-0.013402274232295421,0.0,0.0,0.0,0.46603341460102643,0.0,0.0,0.0,0.0,0.0,2.100551591794673,stabilize,85.0,2.0,0.0,0.0,-2.0,0.1005515917946731,0.0,0,0
1761252078.4974892,8.031757354736328,0.0,0.0,2.1002304059657564,0.0,0.0,0.017691408054775433,0.0,0.0,0.0,0.6165362297666517,0.0,0.0,0.0,0.0,0.0,2.1002304059657564,stabilize,85.0,2.0,0.0,0.0,-2.0,0.10023040596575639,0.0,0,0
1761252078.6055572,8.139825344085693,0.0,0.0,2.0998725738948463,0.0,0.0,-0.022597044099032727,0.0,0.0,0.0,0.35,0.0,0.0,0.0,0.0,0.0,2.0998725738948463,stabilize,85.0,2.0,0.0,0.0,-2.0,0.09987257389484627,0.0,0,0
1761252078.711911,8.246179103851318,0.0,0.0,2.0996603087093875,0.0,0.0,-0.0049455212487171905,0.0,0.0,0.0,0.35,0.0,0.0,0.0,0.0,0.0,2.0996603087093875,stabilize,85.0,2.0,0.0,0.0,-2.0,0.09966030870938747,0.0,0,0
1761252078.8126304,8.346898555755615,0.0,0.0,2.100948667191796,0.0,0.0,0.012033932406124992,0.0,0.0,0.0,0.35,0.0,0.0,0.0,0.0,0.0,2.100948667191796,stabilize,85.0,2.0,0.0,0.0,-2.0,0.10094866719179585,0.0,0,0
1761252078.9196532,8.4539213180542,0.0,0.0,2.1022587615587,0.0,0.0,0.025153152715882424,0.0,0.0,0.0,0.35,0.0,0.0,0.0,0.0,0.0,2.1022587615587,stabilize,85.0,2.0,0.0,0.0,-2.0,0.10225876155870006,0.0,0,0
1761252079.031302,8.56557011604309,0.0,0.0,2.1037310737707653,0.0,0.0,-0.021961871951604428,0.0,0.0,0.0,0.35,0.0,0.0,0.0,0.0,0.0,2.1037310737707653,stabilize,85.0,2.0,0.0,0.0,-2.0,0.10373107377076529,0.0,0,0
1761252079.138116,8.672384023666382,0.0,0.0,2.1060737079071705,0.0,0.0,9.905799425137605e-05,0.0,0.0,0.0,0.43862266190984706,0.0,0.0,0.0,0.0,0.0,2.1060737079071705,stabilize,85.0,2.0,0.0,0.0,-2.0,0.10607370790717052,0.0,0,0
1761252079.2440124,8.77828049659729,0.0,0.0,2.1060972274282466,0.0,0.0,-0.011431006378580508,0.0,0.0,0.0,0.35,0.0,0.0,0.0,0.0,0.0,2.1060972274282466,stabilize,85.0,2.0,0.0,0.0,-2.0,0.10609722742824657,0.0,0,0
1761252079.3514426,8.885710716247559,0.0,0.0,2.105479413932743,0.0,0.0,-0.026394218123192606,0.0,0.0,0.0,0.35,0.0,0.0,0.0,0.0,0.0,2.105479413932743,stabilize,85.0,2.0,0.0,0.0,-2.0,0.10547941393274307,0.0,0,0
1761252079.4569094,8.991177558898926,0.0,0.0,2.1059875552109473,0.0,0.0,0.00595215779534471,0.0,0.0,0.0,0.35,0.0,0.0,0.0,0.0,0.0,2.1059875552109473,stabilize,85.0,2.0,0.0,0.0,-2.0,0.10598755521094727,0.0,0,0
1761252079.563043,9.09731125831604,0.0,0.0,2.1056111373820077,0.0,0.0,0.023437002645955732,0.0,0.0,0.0,0.6335373733949692,0.0,0.0,0.0,0.0,0.0,2.1056111373820077,stabilize,85.0,2.0,0.0,0.0,-2.0,0.10561113738200767,0.0,0,0
1761252079.673211,9.207479238510132,0.0,0.0,2.105987504824211,0.0,0.0,0.011548773488739457,0.0,0.0,0.0,0.35,0.0,0.0,0.0,0.0,0.0,2.105987504824211,stabilize,85.0,2.0,0.0,0.0,-2.0,0.10598750482421115,0.0,0,0
1761252079.781405,9.315673112869263,0.0,0.0,2.105737741260458,0.0,0.0,0.004718232197535855,0.0,0.0,0.0,0.35,0.0,0.0,0.0,0.0,0.0,2.105737741260458,stabilize,85.0,2.0,0.0,0.0,-2.0,0.10573774126045787,0.0,0,0
1761252079.8883848,9.422652959823608,0.0,0.0,2.10493281776757,0.0,0.0,-0.030601346161710848,0.0,0.0,0.0,0.35,0.0,0.0,0.0,0.0,0.0,2.10493281776757,stabilize,85.0,2.0,0.0,0.0,-2.0,0.10493281776756991,0.0,0,0
1761252079.9953763,9.52964448928833,0.0,0.0,2.104447940774507,0.0,0.0,-0.02136425946613991,0.0,0.0,0.0,0.42145437213716463,0.0,0.0,0.0,0.0,0.0,2.104447940774507,stabilize,85.0,2.0,0.0,0.0,-2.0,0.10444794077450714,0.0,0,0
1761252080.1014283,9.635696411132812,0.0,0.0,2.103423300091629,0.0,0.0,0.017452365477580806,0.0,0.0,0.0,0.6430003400500569,0.0,0.0,0.0,0.0,0.0,2.103423300091629,stabilize,85.0,2.0,0.0,0.0,-2.0,0.10342330009162914,0.0,0,0
1761252080.2085629,9.742830991744995,0.0,0.0,2.1024408803985706,0.0,0.0,0.011645484145733891,0.0,0.0,0.0,0.35,0.0,0.0,0.0,0.0,0.0,2.1024408803985706,stabilize,85.0,2.0,0.0,0.0,-2.0,0.10244088039857058,0.0,0,0
1761252080.3153684,9.849636554718018,0.0,0.0,2.1018661426549614,0.0,0.0,0.009808725426966286,0.0,0.0,0.0,0.35,0.0,0.0,0.0,0.0,0.0,2.1018661426549614,stabilize,85.0,2.0,0.0,0.0,-2.0,0.10186614265496141,0.0,0,0
1761252080.4228508,9.95711898803711,0.0,0.0,2.101728014230636,0.0,0.0,-0.02751902399303918,0.0,0.0,0.0,0.36791389064325897,0.0,0.0,0.0,0.0,0.0,2.101728014230636,stabilize,85.0,2.0,0.0,0.0,-2.0,0.10172801423063582,0.0,0,0
1761252080.5299091,10.06417727470398,0.0,0.0,2.1006590170676596,0.0,0.0,-0.01849207220088568,0.0,0.0,0.0,0.46107195654631394,0.0,0.0,0.0,0.0,0.0,2.1006590170676596,stabilize,85.0,2.0,0.0,0.0,-2.0,0.10065901706765956,0.0,0,0
1761252080.6369936,10.17126178741455,0.0,0.0,2.0997652945590994,0.0,0.0,-0.02699589934294343,0.0,0.0,0.0,0.35,0.0,0.0,0.0,0.0,0.0,2.0997652945590994,stabilize,85.0,2.0,0.0,0.0,-2.0,0.09976529455909944,0.0,0,0
1761252080.7434912,10.277759313583374,0.0,0.0,2.0980255628616615,0.0,0.0,0.024765985378021257,0.0,0.0,0.0,0.6942627532395014,0.0,0.0,0.0,0.0,0.0,2.0980255628616615,stabilize,85.0,2.0,0.0,0.0,-2.0,0.09802556286166153,0.0,0,0
1761252080.852427,10.386695146560669,0.0,0.0,2.096676080105571,0.0,0.0,-0.026319915141943276,0.0,0.0,0.0,0.35,0.0,0.0,0.0,0.0,0.0,2.096676080105571,stabilize,85.0,2.0,0.0,0.0,-2.0,0.09667608010557105,0.0,0,0
1761252080.9600286,10.494296789169312,0.0,0.0,2.094293972984988,0.0,0.0,0.014310221003940998,0.0,0.0,0.0,0.6727050134659032,0.0,0.0,0.0,0.0,0.0,2.094293972984988,stabilize,85.0,2.0,0.0,0.0,-2.0,0.0942939729849881,0.0,0,0
1761252081.0655785,10.599846601486206,0.0005493213769498348,0.0,2.1084231552657453,0.03849929067245146,0.0,0.5551476954394435,0.0,-0.09261205348662699,0.0,1.0,0.0,-0.3,0.0,0.0005493213769498348,0.0,2.1084231552657453,auto,85.0,5,10.0,0.0,0.0,10.219318082723316,0.09261205348662699,0,0
1761252081.1724467,10.706714868545532,0.024518743054821636,0.0,2.22426614455572,0.4634145387171098,0.0,1.4802124620056132,0.0,-0.3529584698460733,0.0,0.6306955050491684,0.0,-0.3,0.0,0.024518743054821636,0.0,2.22426614455572,auto,85.0,5,10.0,0.0,0.0,10.22044941230479,0.3529584698460733,0,0
1761252081.2766552,10.810923337936401,0.10000221407201366,0.0,2.389069159287971,0.9770210459879248,0.0,1.6466404316876264,0.0,-0.38168125975893397,0.0,0.35,0.0,0.3,0.0,0.10000221407201366,0.0,2.389069159287971,auto,85.0,5,10.0,0.0,0.0,10.184184189675674,0.38168125975893397,0,0
1761252081.3816118,10.915879964828491,0.2211630110594601,0.0,2.566518516372568,1.3100587584322536,0.0,1.7139327048434652,0.0,-0.31737449795678446,0.0,0.35,0.0,0.2764837722785932,0.0,0.2211630110594601,0.0,2.566518516372568,auto,85.0,5,10.0,0.0,0.0,10.110028197347173,0.31737449795678446,0,0
1761252081.4897,11.02396821975708,0.3788722843448043,0.0,2.753914777598258,1.5951142267258593,0.0,1.7481984836457372,0.0,-0.2842169611348432,0.0,0.5590266550300564,0.0,0.115719432784054,0.0,0.3788722843448043,0.0,2.753914777598258,auto,85.0,5,10.0,0.0,0.0,10.007504440329898,0.2842169611348432,0,0
1761252081.594774,11.129042148590088,0.5583068391081738,0.0,2.9359915173778406,1.7763112528906846,0.0,1.7130194960177212,0.0,-0.06175043149359037,0.0,0.35,0.0,0.3,0.0,0.5583068391081738,0.0,2.9359915173778406,auto,85.0,5,10.0,0.0,0.0,9.887649666859467,0.06175043149359037,0,0
1761252081.6994913,11.23375940322876,0.7463701419219892,0.0,3.113771711596065,1.8353582781997724,0.0,1.6711281775351094,0.0,-0.11291611249994103,0.0,0.41078824540171,0.0,0.3,0.0,0.7463701419219892,0.0,3.113771711596065,auto,85.0,5,10.0,0.0,0.0,9.763464539918642,0.11291611249994103,0,0
1761252081.806226,11.340494155883789,0.9447800499318524,0.0,3.288451330069749,1.8868659828506338,0.0,1.594807825855938,0.0,-0.09719871664059654,0.0,0.35,0.0,0.3,0.0,0.9447800499318524,0.0,3.288451330069749,auto,85.0,5,10.0,0.0,0.0,9.633842457418,0.09719871664059654,0,0
1761252081.9127493,11.447017431259155,1.1474835455063603,0.0,3.4537199737688407,1.9193960611079297,0.0,1.5070638075268803,0.0,-0.060405909566980304,0.0,0.35,0.0,0.23530740268088307,0.0,1.1474835455063603,0.0,3.4537199737688407,auto,85.0,5,10.0,0.0,0.0,9.502380187841911,0.060405909566980304,0,0
1761252082.0194461,11.553714275360107,1.352527771407162,0.0,3.6100495821226763,1.9282481590282448,0.0,1.4143810728989235,0.0,-0.047646008761042496,0.0,0.35,0.0,0.17339386446676625,0.0,1.352527771407162,0.0,3.6100495821226763,auto,85.0,5,10.0,0.0,0.0,9.370764852970566,0.047646008761042496,0,0
1761252082.126259,11.660527229309082,1.5584759820231644,0.0,3.7563064801817316,1.9327068372201912,0.0,1.3221522919448232,0.0,-0.03479103864995558,0.0,0.35,0.0,0.2362488343893674,0.0,1.5584759820231644,0.0,3.7563064801817316,auto,85.0,5,10.0,0.0,0.0,9.239543609894108,0.03479103864995558,0,0
1761252082.233044,11.767312049865723,1.7639042528866578,0.0,3.8922085667036432,1.92056402186975,0.0,1.213366605065458,0.0,-0.022686844133354027,0.0,0.35,0.0,0.154944592409273,0.0,1.7639042528866578,0.0,3.8922085667036432,auto,85.0,5,10.0,0.0,0.0,9.109476421965189,0.022686844133354027,0,0
1761252082.340252,11.874520063400269,1.9688032102846513,0.0,4.018273097358014,1.9051845559579348,0.0,1.1303747650104512,0.0,-0.010454397506163194,0.0,0.35,0.0,0.17391437348024824,0.0,1.9688032102846513,0.0,4.018273097358014,auto,85.0,5,10.0,0.0,0.0,8.980347463215734,0.010454397506163195,0,0
1761252082.447313,11.981581211090088,2.1712760202898425,0.0,4.1337839407119485,1.882765604265568,0.0,1.030317276151941,0.0,-0.0136730963712101,0.0,0.35,0.0,0.2486706013683578,0.0,2.1712760202898425,0.0,4.1337839407119485,auto,85.0,5,10.0,0.0,0.0,8.853083576866133,0.0136730963712101,0,0
1761252082.5487087,12.082976818084717,2.3605774339475727,0.0,4.233943159212242,1.8576205856805221,0.0,0.9434342913827123,0.0,-0.048905201910684946,0.0,0.35,0.0,0.3,0.0,2.3605774339475727,0.0,4.233943159212242,auto,85.0,5,10.0,0.0,0.0,8.734245921552198,0.04890520191068495,0,0
1761252082.654696,12.188964128494263,2.5565028520349133,0.0,4.32908420625994,1.8249746948935477,0.0,0.8448386536658337,0.0,-0.0015854334839496727,0.0,0.35,0.0,-0.1000317063710331,0.0,2.5565028520349133,0.0,4.32908420625994,auto,85.0,5,10.0,0.0,0.0,8.610843155966414,0.0015854334839496727,0,0
1761252082.7606874,12.294955492019653,2.7490484670189925,0.0,4.416645609729688,1.7937430564874546,0.0,0.7934438853486417,0.0,0.01896813103844646,0.0,0.35,0.0,-0.3,0.0,2.7490484670189925,0.0,4.416645609729688,auto,85.0,5,10.0,0.0,0.0,8.490174119273654,0.01896813103844646,0,0
1761252082.8657928,12.400060892105103,2.9363006335859794,0.0,4.496444331467437,1.7569270023208785,0.0,0.7318837416574434,0.0,0.021718284909193912,0.0,0.35,0.0,-0.19997328319665228,0.0,2.9363006335859794,0.0,4.496444331467437,auto,85.0,5,10.0,0.0,0.0,8.373401958885259,0.021718284909193912,0,0
1761252082.972666,12.50693416595459,3.122939915487285,0.0,4.5699356613725985,1.721948171731325,0.0,0.6436825302599015,0.0,0.04478163011633805,0.0,0.35,0.0,-0.2292814462439926,0.0,3.122939915487285,0.0,4.5699356613725985,auto,85.0,5,10.0,0.0,0.0,8.257013222411786,0.04478163011633805,0,0
1761252083.0779834,12.61225152015686,3.302629658506592,0.0,4.63556830983171,1.680448090598861,0.0,0.5972825720551607,0.0,0.04953333516089832,0.0,0.35,0.0,-0.3,0.0,3.302629658506592,0.0,4.63556830983171,auto,85.0,5,10.0,0.0,0.0,8.145137386578051,0.04953333516089832,0,0
1761252083.184536,12.718804121017456,3.480362373201219,0.0,4.694840608211224,1.6455596923026752,0.0,0.5262289829745956,0.0,0.05834223409944659,0.0,0.35,0.0,-0.3,0.0,3.480362373201219,0.0,4.694840608211224,auto,85.0,5,10.0,0.0,0.0,8.03412740260444,0.05834223409944659,0,0
1761252083.2893348,12.82360291481018,3.6510504175406933,0.0,4.747343955723658,1.6051167766239522,0.0,0.48202397035949035,0.0,0.055095794536925896,0.0,0.35,0.0,-0.3,0.0,3.6510504175406933,0.0,4.747343955723658,auto,85.0,5,10.0,0.0,0.0,7.927574372691571,0.055095794536925896,0,0
1761252083.3954542,12.929722309112549,3.819785135982532,0.0,4.7952357434318555,1.5653410744292582,0.0,0.4456612217613045,0.0,0.05125675069589458,0.0,0.35,0.0,-0.3,0.0,3.819785135982532,0.0,4.7952357434318555,auto,85.0,5,10.0,0.0,0.0,7.822361638310321,0.05125675069589458,0,0
1761252083.499708,13.033976078033447,3.981352783211793,0.0,4.837317399023403,1.5277295461068785,0.0,0.36700077943609705,0.0,0.03577904466357977,0.0,0.35,0.0,-0.2152957494082433,0.0,3.981352783211793,0.0,4.837317399023403,auto,85.0,5,10.0,0.0,0.0,7.721641919892877,0.03577904466357977,0,0
1761252083.6052403,13.139508485794067,4.1410525975970485,0.0,4.874693742260463,1.4884275950874761,0.0,0.3368322475912549,0.0,0.03952973152185619,0.0,0.35,0.0,-0.20383729269188378,0.0,4.1410525975970485,0.0,4.874693742260463,auto,85.0,5,10.0,0.0,0.0,7.62167329035807,0.03952973152185619,0,0
1761252083.709402,13.243670225143433,4.294626358827218,0.0,4.907766256547563,1.4500268769253712,0.0,0.29831438361468804,0.0,0.032758888918660134,0.0,0.4157663224241082,0.0,-0.3,0.0,4.294626358827218,0.0,4.907766256547563,auto,85.0,5,10.0,0.0,0.0,7.525786205726021,0.032758888918660134,0,0
1761252083.8188531,13.353121280670166,4.452146724099176,0.0,4.938682502240702,1.4122677373797232,0.0,0.25941183440140847,0.0,0.09277574869723447,0.0,0.39635616738738416,0.0,-0.23997455569761217,0.0,4.452146724099176,0.0,4.938682502240702,auto,85.0,5,10.0,0.0,0.0,7.427601283648846,0.09277574869723447,0,0
1761252083.925247,13.45951509475708,4.599960995596179,0.0,4.964495483504612,1.3794726645029003,0.0,0.22131386362681946,0.0,0.047914135461826546,0.0,0.4307807167675915,0.0,-0.020163593629031445,0.0,4.599960995596179,0.0,4.964495483504612,auto,85.0,5,10.0,0.0,0.0,7.335300720135494,0.047914135461826546,0,0
1761252084.028716,13.562984228134155,4.740767574324128,0.0,4.986641100751123,1.3505077598075999,0.0,0.18935217162111834,0.0,0.028911570728849957,0.0,0.35,0.0,-0.2904183724313509,0.0,4.740767574324128,0.0,4.986641100751123,auto,85.0,5,10.0,0.0,0.0,7.24749026732571,0.028911570728849957,0,0
1761252084.1359231,13.670191287994385,4.881502203734345,0.0,5.008266473191809,1.2799096735302922,0.0,0.18224491487270655,0.0,-0.011311285319271324,0.0,0.35,0.0,-0.23830786068150572,0.0,4.881502203734345,0.0,5.008266473191809,auto,85.0,5,10.0,0.0,0.0,7.161127896977786,0.011311285319271322,0,0
1761252084.2428737,13.777141809463501,5.018373085726316,0.0,5.028738615749684,1.2594625342196353,0.0,0.17329676535422397,0.0,0.01903286794845452,0.0,0.35,0.0,-0.2899398689709852,0.0,5.018373085726316,0.0,5.028738615749684,auto,85.0,5,10.0,0.0,0.0,7.078475738359777,0.01903286794845452,0,0
1761252084.349937,13.884205102920532,5.152285900563851,0.0,5.0461949450313,1.2279028140194697,0.0,0.14793785447988905,0.0,0.02343730148990616,0.0,0.35,0.0,-0.3,0.0,5.152285900563851,0.0,5.0461949450313,auto,85.0,5,10.0,0.0,0.0,6.997457782161424,0.023437301489906165,0,0
1761252084.4613311,13.995599269866943,5.2880906103835486,0.0,5.062219434712908,1.1981669941187796,0.0,0.12526561705649308,0.0,0.012944928420825029,0.0,0.35,0.0,-0.3,0.0,5.2880906103835486,0.0,5.062219434712908,auto,85.0,5,10.0,0.0,0.0,6.9157903164526875,0.012944928420825029,0,0
1761252084.5683365,14.102604627609253,5.414492952383122,0.0,5.074074082456343,1.1624059071527582,0.0,0.0849398209717679,0.0,-0.015431161578741744,0.0,0.35,0.0,0.06605527945063752,0.0,5.414492952383122,0.0,5.074074082456343,auto,85.0,5,10.0,0.0,0.0,6.839086392055537,0.015431161578741744,0,0
1761252084.6755414,14.20980954170227,5.538143307856593,0.0,5.0857286270713535,1.1367361747450915,0.0,0.07754516204687237,0.0,-0.013891240596935287,0.0,0.35,0.0,0.04514085658349582,0.0,5.538143307856593,0.0,5.0857286270713535,auto,85.0,5,10.0,0.0,0.0,6.765559903617585,0.013891240596935285,0,0
1761252084.78321,14.31747817993164,5.659353269476218,0.0,5.096944427706078,1.1075000795787064,0.0,0.07085520911196921,0.0,-0.012928373810833973,0.0,0.35,0.0,0.06318239343165656,0.0,5.659353269476218,0.0,5.096944427706078,auto,85.0,5,10.0,0.0,0.0,6.694778303897063,0.012928373810833973,0,0
1761252084.8896694,14.423937559127808,5.776105818576222,0.0,5.106829249372244,1.0752423457508407,0.0,0.0595156773468908,0.0,-0.0008784840516466234,0.0,0.35,0.0,-0.11564297589394126,0.0,5.776105818576222,0.0,5.106829249372244,auto,85.0,5,10.0,0.0,0.0,6.627291078420317,0.0008784840516466235,0,0
1761252084.9961812,14.530449390411377,5.889639031921562,0.0,5.115845104220138,1.0476007794729705,0.0,0.05536277881155967,0.0,-0.00429015141424776,0.0,0.35,0.0,-0.08882936244338935,0.0,5.889639031921562,0.0,5.115845104220138,auto,85.0,5,10.0,0.0,0.0,6.562540546029096,0.00429015141424776,0,0
1761252085.103984,14.638252258300781,6.0005476526579535,0.0,5.122664491160357,1.0217835357565481,0.0,0.06733133061041383,0.0,-0.006085502947241727,0.0,0.5464081697679779,0.0,0.1526866313467784,0.0,6.0005476526579535,0.0,5.122664491160357,auto,85.0,5,10.0,0.0,0.0,6.499023816516986,0.006085502947241727,0,0
1761252085.2105055,14.744773626327515,6.109181527741678,0.0,5.127623426544613,0.9983412480069451,0.0,0.044336482483708674,0.0,-0.020575070272454837,0.0,0.35,0.0,0.2634091121143893,0.0,6.109181527741678,0.0,5.127623426544613,auto,85.0,5,10.0,0.0,0.0,6.436690950210029,0.020575070272454837,0,0
1761252085.311197,14.845465183258057,6.20845311897114,0.0,5.130626118823851,0.9555761451011594,0.0,0.03872113689657373,0.0,0.06776154181131891,0.0,0.35,0.0,-0.3,0.0,6.20845311897114,0.0,5.130626118823851,auto,85.0,5,10.0,0.0,0.0,6.379588711053179,0.06776154181131892,0,0
1761252085.417407,14.951675176620483,6.30917177873411,0.0,5.133216418140133,0.9449216739714548,0.0,-0.0010451568407514253,0.0,0.05034032601809042,0.0,0.35,0.0,-0.07553416015076295,0.0,6.30917177873411,0.0,5.133216418140133,auto,85.0,5,10.0,0.0,0.0,6.322351125519378,0.05034032601809042,0,0
1761252085.5230563,15.057324409484863,6.407292553679087,0.0,5.136656253407635,0.9192747707657771,0.0,0.02681623142027267,0.0,0.0521110414648485,0.0,0.5017732434131871,0.0,-0.12892632895189846,0.0,6.407292553679087,0.0,5.136656253407635,auto,85.0,5,10.0,0.0,0.0,6.268395668791298,0.0521110414648485,0,0
1761252085.6320348,15.166302919387817,6.506033240761243,0.0,5.138410911500647,0.8918016526347106,0.0,0.01831085233703051,0.0,0.05819941332813024,0.0,0.35,0.0,-0.2644038207404949,0.0,6.506033240761243,0.0,5.138410911500647,auto,85.0,5,10.0,0.0,0.0,6.213780685709328,0.05819941332813024,0,0
1761252085.7393456,15.273613691329956,6.600613365960715,0.0,5.140044773085005,0.8666030312002091,0.0,0.05058642196164123,0.0,0.055945647861867676,0.0,0.6403207573546809,0.0,-0.2784458005560848,0.0,6.600613365960715,0.0,5.140044773085005,auto,85.0,5,10.0,0.0,0.0,6.162458093732031,0.055945647861867676,0,0
1761252085.839721,15.37398910522461,6.685946780948067,0.0,5.142167255150526,0.8350336009088756,0.0,-0.005047559408746186,0.0,-0.0013105902521825946,0.0,0.35,0.0,-0.16548588339055728,0.0,6.685946780948067,0.0,5.142167255150526,auto,85.0,5,10.0,0.0,0.0,6.117583903687041,0.0013105902521825946,0,0
1761252085.9476814,15.4819495677948,6.775870476326255,0.0,5.143688747414938,0.8166808752164378,0.0,0.0051350024010426805,0.0,0.006871449057558866,0.0,0.4442885698564038,0.0,-0.22190910542072892,0.0,6.775870476326255,0.0,5.143688747414938,auto,85.0,5,10.0,0.0,0.0,6.070629713275859,0.006871449057558866,0,0
1761252086.0488844,15.583152532577515,6.859216323757311,0.0,5.144792240904482,0.8088206589354003,0.0,0.011321550356304838,0.0,0.06829147709061326,0.0,0.35,0.0,-0.3,0.0,6.859216323757311,0.0,5.144792240904482,auto,85.0,5,10.0,0.0,0.0,6.027720075038613,0.06829147709061326,0,0
1761252086.1561942,15.690462350845337,6.944942169713485,0.0,5.145341563136348,0.7878379489584241,0.0,0.011324938474979116,0.0,0.05416356063973329,0.0,0.5066196061651662,0.0,-0.24402106950180075,0.0,6.944942169713485,0.0,5.145341563136348,auto,85.0,5,10.0,0.0,0.0,5.983971770298833,0.05416356063973329,0,0
1761252086.2631738,15.797441959381104,7.028339263754256,0.0,5.144750679316887,0.7683837919828458,0.0,-0.01690757217956944,0.0,0.05671097261008279,0.0,0.397276492456915,0.0,-0.2622765506593958,0.0,7.028339263754256,0.0,5.144750679316887,auto,85.0,5,10.0,0.0,0.0,5.941315265467417,0.05671097261008279,0,0
1761252086.369216,15.903484106063843,7.108740727195552,0.0,5.143411726747738,0.7456030994504974,0.0,0.013102765275754545,0.0,0.05027783388689635,0.0,0.35,0.0,-0.29382696812704645,0.0,7.108740727195552,0.0,5.143411726747738,auto,85.0,5,10.0,0.0,0.0,5.900344428372284,0.05027783388689635,0,0
1761252086.4767156,16.01098370552063,7.188024039912815,0.0,5.142639933575074,0.7241516763498511,0.0,-0.016588126964422453,0.0,0.049571099620809626,0.0,0.35,0.0,-0.3,0.0,7.188024039912815,0.0,5.142639933575074,auto,85.0,5,10.0,0.0,0.0,5.861224640508952,0.049571099620809626,0,0
1761252086.584741,16.119009256362915,7.2654604552556235,0.0,5.140579789256834,0.7023356985717784,0.0,-0.01923703137618127,0.0,0.04616437717651095,0.0,0.35,0.0,-0.3,0.0,7.2654604552556235,0.0,5.140579789256834,auto,85.0,5,10.0,0.0,0.0,5.82265120812561,0.04616437717651095,0,0
1761252086.6923764,16.22664451599121,7.34047354876843,0.0,5.138420637450668,0.6832734214312678,0.0,-0.026636155579160593,0.0,0.043980261755750275,0.0,0.35,0.0,-0.3,0.0,7.34047354876843,0.0,5.138420637450668,auto,85.0,5,10.0,0.0,0.0,5.785883475509969,0.043980261755750275,0,0
1761252086.7989721,16.333240270614624,7.412793727762736,0.0,5.1361415501587695,0.6651398127351137,0.0,-0.025637193728952415,0.0,0.045987640970351726,0.0,0.35,0.0,-0.2682609420401343,0.0,7.412793727762736,0.0,5.1361415501587695,auto,85.0,5,10.0,0.0,0.0,5.7509639468850065,0.045987640970351726,0,0
1761252086.9052987,16.43956685066223,7.482889971399023,0.0,5.133936751933612,0.6452609112174666,0.0,-0.015561084369407202,0.0,0.04361329472872415,0.0,0.35,0.0,-0.3,0.0,7.482889971399023,0.0,5.133936751933612,auto,85.0,5,10.0,0.0,0.0,5.717792359725759,0.04361329472872415,0,0
1761252087.011982,16.546250104904175,7.551278780112897,0.0,5.132712972974447,0.6264686070795172,0.0,-0.00229930077362331,0.0,0.05057037643508119,0.0,0.35,0.0,-0.3,0.0,7.551278780112897,0.0,5.132712972974447,auto,85.0,5,10.0,0.0,0.0,5.68691287744639,0.050570376435081194,0,0
1761252087.1224556,16.656723737716675,7.61961348979359,0.0,5.13128044716302,0.6020254220098623,0.0,-0.00814346056416667,0.0,0.027218131199673142,0.0,0.35,0.0,-0.3,0.0,7.61961348979359,0.0,5.13128044716302,auto,85.0,5,10.0,0.0,0.0,5.656525343831686,0.027218131199673146,0,0
1761252087.2278168,16.7620849609375,7.683040311723803,0.0,5.129588519258871,0.589805896818621,0.0,-0.011219818771906845,0.0,0.02621827340816152,0.0,0.35,0.0,-0.3,0.0,7.683040311723803,0.0,5.129588519258871,auto,85.0,5,10.0,0.0,0.0,5.6285860190645876,0.026218273408161515,0,0
1761252087.3334527,16.86772084236145,7.745103761959707,0.0,5.128583066930499,0.5724709065481618,0.0,-0.0018892338806705457,0.0,0.023700178673394554,0.0,0.35,0.0,-0.3,0.0,7.745103761959707,0.0,5.128583066930499,auto,85.0,5,10.0,0.0,0.0,5.602403173526028,0.023700178673394554,0,0
1761252087.4387584,16.973026514053345,7.805360609813557,0.0,5.1272788100415765,0.5587293117270865,0.0,-0.021398091454966066,0.0,0.031104440351803122,0.0,0.3837088033311109,0.0,-0.3,0.0,7.805360609813557,0.0,5.1272788100415765,auto,85.0,5,10.0,0.0,0.0,5.5772242243663905,0.031104440351803122,0,0
1761252087.5442972,17.0785653591156,7.864135858256476,0.0,5.124814029254666,0.5426617653887715,0.0,-0.020117579835170783,0.0,0.03561949030910252,0.0,0.35,0.0,-0.3,0.0,7.864135858256476,0.0,5.124814029254666,auto,85.0,5,10.0,0.0,0.0,5.552083794975653,0.03561949030910252,0,0
1761252087.6487443,17.18301248550415,7.9207474273368685,0.0,5.122761402428902,0.529695560634786,0.0,-0.002999238644648086,0.0,0.03622370450794071,0.0,0.5287209678526407,0.0,-0.3,0.0,7.9207474273368685,0.0,5.122761402428902,auto,85.0,5,10.0,0.0,0.0,5.528650436330876,0.03622370450794071,0,0
1761252087.75471,17.288978099822998,7.976629028677155,0.0,5.120786753487526,0.5145531822355316,0.0,-0.01948964108714536,0.0,0.033093882650707986,0.0,0.35,0.0,-0.3,0.0,7.976629028677155,0.0,5.120786753487526,auto,85.0,5,10.0,0.0,0.0,5.506040960825235,0.033093882650707986,0,0
1761252087.8593993,17.393667459487915,8.030343740612476,0.0,5.119242691382136,0.5007539028601604,0.0,-0.011115369151144494,0.0,0.03399447616925413,0.0,0.35,0.0,-0.3,0.0,8.030343740612476,0.0,5.119242691382136,auto,85.0,5,10.0,0.0,0.0,5.485088104434957,0.03399447616925412,0,0
1761252087.9648302,17.499098300933838,8.082995861224207,0.0,5.1179229709143454,0.4879241784474161,0.0,-0.012618234892764124,0.0,0.029283919243350512,0.0,0.35,0.0,-0.3,0.0,8.082995861224207,0.0,5.1179229709143454,auto,85.0,5,10.0,0.0,0.0,5.465166091190298,0.029283919243350512,0,0
1761252088.0719697,17.60623788833618,8.135132483705544,0.0,5.116766271307225,0.4730241394294213,0.0,0.0012344693928489844,0.0,0.028535232819216716,0.0,0.35,0.0,-0.3,0.0,8.135132483705544,0.0,5.116766271307225,auto,85.0,5,10.0,0.0,0.0,5.446010276203809,0.028535232819216716,0,0
1761252088.1777854,17.712053537368774,8.18504000346599,0.0,5.116016564092459,0.4587787062522398,0.0,-0.0026448701332135068,0.0,0.020965796928627895,0.0,0.47493942565269764,0.0,-0.3,0.0,8.18504000346599,0.0,5.116016564092459,auto,85.0,5,10.0,0.0,0.0,5.428416460910783,0.020965796928627895,0,0
1761252088.2798698,17.814137935638428,8.231969432737625,0.0,5.1149570017161325,0.4485466293329089,0.0,-0.0205651706661813,0.0,0.02809353255782133,0.0,0.35,0.0,-0.3,0.0,8.231969432737625,0.0,5.1149570017161325,auto,85.0,5,10.0,0.0,0.0,5.411905137396535,0.02809353255782133,0,0
1761252088.3867826,17.921050786972046,8.279154354078303,0.0,5.113075598909331,0.43593347052580644,0.0,-0.013034608174591171,0.0,-0.016611578975331408,0.0,0.35,0.0,0.056747403723611756,0.0,8.279154354078303,0.0,5.113075598909331,auto,85.0,5,10.0,0.0,0.0,5.394891270197174,0.016611578975331408,0,0
1761252088.4938178,18.028085947036743,8.325334301852969,0.0,5.112140267656844,0.4270906518540453,0.0,0.010008856057758184,0.0,-0.028975124559251962,0.0,0.5770759916445406,0.0,0.17900735147811273,0.0,8.325334301852969,0.0,5.112140267656844,auto,85.0,5,10.0,0.0,0.0,5.379450094270684,0.028975124559251962,0,0
1761252088.6025314,18.136799573898315,8.371180269743656,0.0,5.111230851998585,0.417357386557077,0.0,0.021980790201998474,0.0,-0.0296680913243109,0.0,0.6293908383108104,0.0,0.18735933947681832,0.0,8.371180269743656,0.0,5.111230851998585,auto,85.0,5,10.0,0.0,0.0,5.36448828278099,0.0296680913243109,0,0
1761252088.708707,18.24297523498535,8.414837769931074,0.0,5.111778790145316,0.406219844035462,0.0,0.02328761336523715,0.0,-0.02800191523030786,0.0,0.5971592041007322,0.0,0.22729810813417178,0.0,8.414837769931074,0.0,5.111778790145316,auto,85.0,5,10.0,0.0,0.0,5.351917571769636,0.02800191523030786,0,0
1761252088.8142118,18.348479986190796,8.457091062950434,0.0,5.111742666682591,0.3962443190387572,0.0,0.0018753496945301887,0.0,-0.027175852884011538,0.0,0.35,0.0,0.24811708513597489,0.0,8.457091062950434,0.0,5.111742666682591,auto,85.0,5,10.0,0.0,0.0,5.339520678713649,0.027175852884011538,0,0
1761252088.9186678,18.452935934066772,8.497799889588437,0.0,5.1118447943364735,0.38708576202937633,0.0,0.03459514469469625,0.0,-0.02691860741966308,0.0,0.6356615759137156,0.0,0.24678935465236335,0.0,8.497799889588437,0.0,5.1118447943364735,auto,85.0,5,10.0,0.0,0.0,5.3279979704486955,0.02691860741966308,0,0
1761252089.0259821,18.560250282287598,8.53861685905163,0.0,5.112046043458813,0.3768336560239826,0.0,-0.007563545926484588,0.0,-0.02633253188390768,0.0,0.35,0.0,0.3,0.0,8.53861685905163,0.0,5.112046043458813,auto,85.0,5,10.0,0.0,0.0,5.316827572443085,0.02633253188390768,0,0
1761252089.1318216,18.6660897731781,8.57780847129169,0.0,5.110947802410246,0.36774162796892657,0.0,-0.002862250877934661,0.0,-0.02372909956037057,0.0,0.35,0.0,0.2700759744607714,0.0,8.57780847129169,0.0,5.110947802410246,auto,85.0,5,10.0,0.0,0.0,5.305131118388291,0.02372909956037057,0,0
1761252089.2391274,18.773395538330078,8.616478384440398,0.0,5.108947860790227,0.3599636669838177,0.0,0.014317332779890765,0.0,-0.024822578615731818,0.0,0.6087753443712043,0.0,0.3,0.0,8.616478384440398,0.0,5.108947860790227,auto,85.0,5,10.0,0.0,0.0,5.292965171337678,0.024822578615731818,0,0
1761252089.3466942,18.880962371826172,8.654306063916446,0.0,5.107980880244164,0.3504037138844614,0.0,-0.0111132457565256,0.0,-0.02248451980664824,0.0,0.35,0.0,0.3,0.0,8.654306063916446,0.0,5.107980880244164,auto,85.0,5,10.0,0.0,0.0,5.282268531848035,0.02248451980664824,0,0
1761252089.453239,18.987507104873657,8.690763086197133,0.0,5.10579997570161,0.3426273677064448,0.0,-0.004006500309219049,0.0,-0.023234133136423484,0.0,0.5197897679049005,0.0,0.3,0.0,8.690763086197133,0.0,5.10579997570161,auto,85.0,5,10.0,0.0,0.0,5.270986121053499,0.023234133136423484,0,0
1761252089.5607815,19.095049619674683,8.726635469949146,0.0,5.104122133082116,0.3337537594286184,0.0,0.006905787778400561,0.0,-0.021661656482563508,0.0,0.35,0.0,0.3,0.0,8.726635469949146,0.0,5.104122133082116,auto,85.0,5,10.0,0.0,0.0,5.260562705244598,0.021661656482563508,0,0
1761252089.6676493,19.20191740989685,8.761309182043906,0.0,5.104312818032379,0.3250133847884501,0.0,-0.002591145023244718,0.0,-0.022030362309660986,0.0,0.35,0.0,0.3,0.0,8.761309182043906,0.0,5.104312818032379,auto,85.0,5,10.0,0.0,0.0,5.2524626878083,0.022030362309660986,0,0
1761252089.7773952,19.311663389205933,8.795820339063564,0.0,5.103819792666788,0.31690237740258576,0.0,-0.01225695595513034,0.0,-0.026888508749326523,0.0,0.38597461299949476,0.0,0.3,0.0,8.795820339063564,0.0,5.103819792666788,auto,85.0,5,10.0,0.0,0.0,5.243951289994048,0.026888508749326523,0,0
1761252089.8836436,19.417911767959595,8.828751052869515,0.0,5.102356130663397,0.3071312082874991,0.0,-0.017907152225933476,0.0,-0.028290556876685233,0.0,0.35,0.0,0.3,0.0,8.828751052869515,0.0,5.102356130663397,auto,85.0,5,10.0,0.0,0.0,5.235060857360936,0.028290556876685233,0,0
1761252089.991196,19.525464057922363,8.861095321013229,0.0,5.100380650624623,0.3006799671075112,0.0,-0.002588627488140066,0.0,-0.021159926512407286,0.0,0.35,0.0,0.3,0.0,8.861095321013229,0.0,5.100380650624623,auto,85.0,5,10.0,0.0,0.0,5.2259914513022325,0.021159926512407286,0,0
1761252090.100708,19.634976148605347,8.892969602363213,0.0,5.098791639073306,0.29057190346626893,0.0,0.009658313815497525,0.0,-0.020039217647806078,0.0,0.35,0.0,0.3,0.0,8.892969602363213,0.0,5.098791639073306,auto,85.0,5,10.0,0.0,0.0,5.217584927912119,0.02003921764780608,0,0
1761252090.208181,19.742449045181274,8.923247070008863,0.0,5.097885240216279,0.28327570358211046,0.0,0.0008982031895836198,0.0,-0.021245280605452974,0.0,0.5115233925509011,0.0,0.3,0.0,8.923247070008863,0.0,5.097885240216279,auto,85.0,5,10.0,0.0,0.0,5.2103580294121326,0.02124528060545297,0,0
1761252090.3138077,19.84807586669922,8.952242517760666,0.0,5.096646477829005,0.2747765391754739,0.0,0.017062080460558997,0.0,-0.014946573223525456,0.0,0.35,0.0,0.3,0.0,8.952242517760666,0.0,5.096646477829005,auto,85.0,5,10.0,0.0,0.0,5.203229868221786,0.014946573223525456,0,0
1761252090.4207242,19.954992294311523,8.980705608890785,0.0,5.096326329830513,0.26829337633461225,0.0,-0.017970765822756463,0.0,-0.01197204258291633,0.0,0.37875826717580036,0.0,0.3,0.0,8.980705608890785,0.0,5.096326329830513,auto,85.0,5,10.0,0.0,0.0,5.197259192677468,0.011972042582916332,0,0
1761252090.5248384,20.059106588363647,9.007369717989777,0.0,5.094597621286597,0.249730578944833,0.0,-0.0033034105948583845,0.0,-0.01399632284255296,0.0,0.5651538386544687,0.0,0.08782390636303897,0.0,9.007369717989777,0.0,5.094597621286597,auto,85.0,5,10.0,0.0,0.0,5.190398809299989,0.01399632284255296,0,0
1761252090.6326203,20.16688847541809,9.03407280335459,0.0,5.092524935843866,0.24896514134285772,0.0,0.02274902457034606,0.0,-0.022275308000584144,0.0,0.6795644914838426,0.0,0.21282182451319476,0.0,9.03407280335459,0.0,5.092524935843866,auto,85.0,5,10.0,0.0,0.0,5.183321866468532,0.022275308000584144,0,0
1761252090.739793,20.27406120300293,9.060120229095356,0.0,5.091677243335058,0.24435756264297548,0.0,0.01608158870427413,0.0,-0.026737776243025393,0.0,0.35,0.0,0.3,0.0,9.060120229095356,0.0,5.091677243335058,auto,85.0,5,10.0,0.0,0.0,5.177697474172459,0.02673777624302539,0,0
1761252090.8472397,20.381507873535156,9.085645342641635,0.0,5.091015843862027,0.23895637478016638,0.0,0.0024532523745158102,0.0,-0.0261126222479148,0.0,0.5091297684197438,0.0,0.3,0.0,9.085645342641635,0.0,5.091015843862027,auto,85.0,5,10.0,0.0,0.0,5.172473949850992,0.026112622247914795,0,0
1761252090.9550226,20.489290714263916,9.110619593919859,0.0,5.089446832279922,0.23257149758271076,0.0,-0.0271666011541803,0.0,-0.025814922616108987,0.0,0.35,0.0,0.3,0.0,9.110619593919859,0.0,5.089446832279922,auto,85.0,5,10.0,0.0,0.0,5.166572032336664,0.025814922616108987,0,0
1761252091.0621989,20.59646701812744,9.134837202859496,0.0,5.087262575679782,0.22715017490838527,0.0,-0.030255932726160437,0.0,-0.026222857276407423,0.0,0.35,0.0,0.3,0.0,9.134837202859496,0.0,5.087262575679782,auto,85.0,5,10.0,0.0,0.0,5.160304950239673,0.026222857276407423,0,0
1761252091.1696231,20.703891277313232,9.158512764861214,0.0,5.084675246782232,0.2212955300567113,0.0,-0.029670413136965574,0.0,-0.027150843273709924,0.0,0.35,0.0,0.3,0.0,9.158512764861214,0.0,5.084675246782232,auto,85.0,5,10.0,0.0,0.0,5.153835768836786,0.027150843273709924,0,0
1761252091.2784083,20.812676429748535,9.18188369250948,0.0,5.08214469986893,0.21657753348234207,0.0,-0.020770793285777942,0.0,-0.025079804094369083,0.0,0.43889839484814624,0.0,0.3,0.0,9.18188369250948,0.0,5.08214469986893,auto,85.0,5,10.0,0.0,0.0,5.1475731216746965,0.025079804094369083,0,0
1761252091.3854637,20.919731855392456,9.204324487520891,0.0,5.079091724939137,0.21137255521729012,0.0,-0.02821242774523654,0.0,-0.023977947610096965,0.0,0.35,0.0,0.3,0.0,9.204324487520891,0.0,5.079091724939137,auto,85.0,5,10.0,0.0,0.0,5.141038053886016,0.023977947610096965,0,0
1761252091.4926097,21.026877880096436,9.226223973882396,0.0,5.076940897196555,0.20674266941540248,0.0,-0.012120513673666256,0.0,-0.02170406566359837,0.0,0.35,0.0,0.3,0.0,9.226223973882396,0.0,5.076940897196555,auto,85.0,5,10.0,0.0,0.0,5.135567954201493,0.02170406566359837,0,0
1761252091.6008062,21.135074377059937,9.247741629088479,0.0,5.076408223141819,0.20055516448997415,0.0,0.0003728041156476694,0.0,-0.012103252635741458,0.0,0.35,0.0,0.3,0.0,9.247741629088479,0.0,5.076408223141819,auto,85.0,5,10.0,0.0,0.0,5.1318430514375954,0.01210325263574146,0,0
1761252091.7078178,21.242085933685303,9.26835616532447,0.0,5.076833334676977,0.19659224382690454,0.0,0.016513563625745128,0.0,-0.00405698372813235,0.0,0.35,0.0,0.3,0.0,9.26835616532447,0.0,5.076833334676977,auto,85.0,5,10.0,0.0,0.0,5.129282543290637,0.00405698372813235,0,0
1761252091.8143237,21.348591804504395,9.28829909074218,0.0,5.07822874295967,0.19153276415467957,0.0,0.009607942800654388,0.0,-0.004491071993928258,0.0,0.35,0.0,0.3,0.0,9.28829909074218,0.0,5.07822874295967,auto,85.0,5,10.0,0.0,0.0,5.12785777396957,0.004491071993928258,0,0
1761252091.9217243,21.455992460250854,9.307895822503554,0.0,5.077935440903044,0.18636111833714092,0.0,-0.015160142163032155,0.0,-0.005539745280152244,0.0,0.36539852592053607,0.0,0.3,0.0,9.307895822503554,0.0,5.077935440903044,auto,85.0,5,10.0,0.0,0.0,5.124884050833465,0.005539745280152244,0,0
1761252092.0250294,21.559297561645508,9.326052994564623,0.0,5.07692775465977,0.17481664132831898,0.0,-0.02105155362106069,0.0,-0.007318081992673169,0.0,0.35,0.0,0.20219426500515547,0.0,9.326052994564623,0.0,5.07692775465977,auto,85.0,5,10.0,0.0,0.0,5.121464633497922,0.007318081992673168,0,0
1761252092.1314812,21.665749311447144,9.34417661875798,0.0,5.074611853353575,0.17527711664926474,0.0,-0.031419136816804416,0.0,-0.0018998424796228053,0.0,0.35,0.0,0.29620987050372194,0.0,9.34417661875798,0.0,5.074611853353575,auto,85.0,5,10.0,0.0,0.0,5.116814416175393,0.0018998424796228051,0,0
1761252092.2386482,21.772916316986084,9.362053106717267,0.0,5.073296714904776,0.17073140178727159,0.0,-0.01280022438182959,0.0,0.0035523012934771947,0.0,0.35,0.0,0.26652780188291847,0.0,9.362053106717267,0.0,5.073296714904776,auto,85.0,5,10.0,0.0,0.0,5.113249044992106,0.0035523012934771947,0,0
1761252092.3445528,21.87882089614868,9.379234668523042,0.0,5.073492118482657,0.1662574520074758,0.0,0.0034526527053462385,0.0,0.007776418021075296,0.0,0.35,0.0,0.2495999486216975,0.0,9.379234668523042,0.0,5.073492118482657,auto,85.0,5,10.0,0.0,0.0,5.111327799414683,0.007776418021075296,0,0
1761252092.449845,21.984113216400146,9.395900456915216,0.0,5.073432828383782,0.16230222999064878,0.0,-0.002511629019264834,0.0,0.00959653457914819,0.0,0.35,0.0,0.22795591483294436,0.0,9.395900456915216,0.0,5.073432828383782,auto,85.0,5,10.0,0.0,0.0,5.109271662583377,0.00959653457914819,0,0
1761252092.5567343,22.091002464294434,9.412354348573258,0.0,5.073818981525393,0.15844736027363646,0.0,-0.008211930256220528,0.0,0.0121494806517536,0.0,0.35,0.0,0.21981192098891353,0.0,9.412354348573258,0.0,5.073818981525393,auto,85.0,5,10.0,0.0,0.0,5.107735943539773,0.0121494806517536,0,0
1761252092.6638238,22.198091983795166,9.428438030359555,0.0,5.073119207876284,0.1546124299954863,0.0,-0.017122997841358185,0.0,0.014506568686091674,0.0,0.35,0.0,0.20087272033210124,0.0,9.428438030359555,0.0,5.073119207876284,auto,85.0,5,10.0,0.0,0.0,5.105215135766813,0.014506568686091674,0,0
1761252092.7711616,22.305429697036743,9.444119277256094,0.0,5.072779338334585,0.15062061581833272,0.0,-0.015945265741771526,0.0,0.016107136460867987,0.0,0.35,0.0,0.1784813251216672,0.0,9.444119277256094,0.0,5.072779338334585,auto,85.0,5,10.0,0.0,0.0,5.103145460728369,0.016107136460867987,0,0
1761252092.8786159,22.4128839969635,9.45941045875108,0.0,5.071800764506468,0.14696791713350738,0.0,-0.019370199947341887,0.0,0.017723189179994978,0.0,0.35,0.0,0.16722147323449033,0.0,9.45941045875108,0.0,5.071800764506468,auto,85.0,5,10.0,0.0,0.0,5.100529388892502,0.017723189179994978,0,0
1761252092.9855099,22.51977801322937,9.474235687976439,0.0,5.070046038154145,0.14325144437541723,0.0,-0.03420234230395979,0.0,0.016639477470190945,0.0,0.35555329048207845,0.0,0.17163118669164218,0.0,9.474235687976439,0.0,5.070046038154145,auto,85.0,5,10.0,0.0,0.0,5.097234048069615,0.016639477470190945,0,0
1761252093.0940852,22.628353357315063,9.488907616346552,0.0,5.069188532692254,0.1391564568914614,0.0,-0.03118316333962623,0.0,0.019296844159053965,0.0,0.35,0.0,0.1387220303146862,0.0,9.488907616346552,0.0,5.069188532692254,auto,85.0,5,10.0,0.0,0.0,5.094888399622431,0.019296844159053965,0,0
1761252093.199424,22.733692169189453,9.502722272650638,0.0,5.068608811651255,0.13640300910129732,0.0,-0.02000328646723413,0.0,0.015484949316307667,0.0,0.35,0.0,0.18179757984487416,0.0,9.502722272650638,0.0,5.068608811651255,auto,85.0,5,10.0,0.0,0.0,5.092944180301458,0.015484949316307665,1,0
1761252093.3054304,22.839698553085327,9.505990381063363,0.006069390101508207,5.126937815310626,-0.160277472936416,0.1936937965747827,1.0880253617965185,0.20880984409916628,0.25961422438292425,0.014263599637128152,1.0,0.3,0.3,-0.05357707070011025,9.505990381063363,0.006069390101508207,5.126937815310626,auto,85.0,20,0.0,10.0,0.0,14.714890197429177,0.33347345736845946,1,0
1761252093.4118185,22.946086645126343,9.451874284986658,0.05879582851546557,5.291029364211771,-0.9146067722875888,0.8801936264596252,1.9672158609173784,0.4321775525948055,0.41187188986694073,0.03151639286347115,1.0,-0.3,-0.3,-0.09888735065392958,9.451874284986658,0.05879582851546557,5.291029364211771,auto,85.0,20,0.0,10.0,0.0,14.702396390088412,0.5978370795196012,1,0
1761252093.5122833,23.04655146598816,9.330339706704091,0.18169450387034103,5.517740793896263,-1.4161274775967738,1.4749946300733021,2.485862443502713,0.25512271864993125,0.18827178092905889,0.03941985917821452,0.6892872657437932,-0.3,-0.3,-0.10206560822849581,9.330339706704091,0.18169450387034103,5.517740793896263,auto,85.0,20,0.0,10.0,0.0,14.625314537693054,0.3195118000374349,1,0
1761252093.6193833,23.153651475906372,9.165491031136577,0.35452322429896466,5.811538584857248,-1.6722463370603111,1.7245009063792196,2.942425898787249,0.21596899237185518,0.24419584189419208,0.03756732227647527,0.35,0.1452293374464678,-0.3,-0.07718250406569295,9.165491031136577,0.35452322429896466,5.811538584857248,auto,85.0,20,0.0,10.0,0.0,14.519484453509968,0.32815471742388874,1,0
1761252093.7258568,23.260124921798706,8.972608944244348,0.5545366038696037,6.148407086507018,-1.8783116612031028,1.9799961804027737,3.339701587125312,0.07938584388135425,0.02012381741410391,0.030662878093694678,0.35,-0.3,-0.3,-0.05075180434147261,8.972608944244348,0.5545366038696037,6.148407086507018,auto,85.0,20,0.0,10.0,0.0,14.405811318193173,0.08744879832827734,1,0
1761252093.8330722,23.367340326309204,8.77479174977992,0.7653524639040405,6.524290254487909,-1.8309643126392263,1.935881871040015,3.6452521427154134,0.033371759967989884,0.083844987095607,0.0241413401454728,0.35,0.3,0.3,-0.0368031081442684,8.77479174977992,0.7653524639040405,6.524290254487909,auto,85.0,20,0.0,10.0,0.0,14.31230410146231,0.09341552616371143,1,0
1761252093.9401128,23.47438097000122,8.574123140819655,0.9763563507993623,6.931373789695182,-1.8795007251805922,1.991583356603305,3.941569407275774,-0.0016200990130163413,-0.001887957131916155,0.01831238556448154,0.35,0.11656556691932833,0.3,-0.025792860846097925,8.574123140819655,0.9763563507993623,6.931373789695182,auto,85.0,20,0.0,10.0,0.0,14.247304129349224,0.018480599773983565,1,0
1761252094.0475352,23.58180332183838,8.371098216658021,1.1902125925367,7.367349491845026,-1.8923223892904628,1.9983994480656861,4.1658367211126635,-0.0022739066460547995,-0.014365472465216205,0.010693169956167611,0.35,-0.01686093740768435,0.23727224955179937,-0.00731936788964534,8.371098216658021,1.1902125925367,7.367349491845026,auto,85.0,20,0.0,10.0,0.0,14.211455873787992,0.018052183643408427,1,0
1761252094.1553524,23.68962049484253,8.16719724818046,1.4047983905298256,7.827515615442316,-1.8943828989174945,1.9956378186511436,4.39374528390435,0.0029691579009888704,-0.013125130304506781,0.00420902067550951,0.7420127152497794,-0.17076713763634802,-0.00844804611224434,0.0031076908397101727,8.16719724818046,1.4047983905298256,7.827515615442316,auto,85.0,20,0.0,10.0,0.0,14.207413638946338,0.014099673726655998,1,0
1761252094.2693207,23.8035888671875,7.9532932671125955,1.6299869059009982,8.333963285950443,-1.8645523044261434,1.9718275300134795,4.49502102284951,0.025141745962686826,0.001302274932901755,-0.0017836503126168154,0.35,0.3,0.3,0.013177448436598797,7.9532932671125955,1.6299869059009982,8.333963285950443,auto,85.0,20,0.0,10.0,0.0,14.239625593380508,0.025238556188713363,1,0
1761252094.3754792,23.90974736213684,7.759187151213315,1.8359129811407637,8.820018790543388,-1.7941397731070232,1.898278609915963,4.626728963194706,0.01625330941381518,0.03759580296749915,-0.008664874534549458,0.35,0.3,0.3,0.029379564355965705,7.759187151213315,1.8359129811407637,8.820018790543388,auto,85.0,20,0.0,10.0,0.0,14.305594484836977,0.04186519459373997,1,0
1761252094.483066,24.01733422279358,7.564552454344966,2.0414272696446805,9.32600075344882,-1.79341337004663,1.8975104138147212,4.790710689573332,-0.03889437844382533,-0.03203942083711398,-0.014207475493805835,0.8280619966777415,0.28139878584066813,0.3,0.04048935265892844,7.564552454344966,2.0414272696446805,9.32600075344882,auto,85.0,20,0.0,10.0,0.0,14.406096757700183,0.05235598840644966,1,0
1761252094.588126,24.12239408493042,7.377407405641046,2.238983445383765,9.82999089056768,-1.7719219735022638,1.8777016203964096,4.854981921473641,-0.011043107829465507,-0.027135581098272552,-0.016864206648443316,0.6265492716598018,-0.3,-0.08325710453445151,0.03966550296887071,7.377407405641046,2.238983445383765,9.82999089056768,auto,85.0,20,0.0,10.0,0.0,14.535757252323602,0.03380371958757687,1,0
1761252094.6947398,24.229007959365845,7.190867202240784,2.4362527296851764,10.348930470214857,-1.7450344437104575,1.8449230446056686,4.895462831877569,0.0261052835399214,0.0011009566004926037,-0.02025483789812266,0.35,-0.3,-0.3,0.04594895273410945,7.190867202240784,2.4362527296851764,10.348930470214857,auto,85.0,20,0.0,10.0,0.0,14.697591835630716,0.03305989099218395,1,0
1761252094.8016343,24.335902452468872,7.0074640050200125,2.630430932048569,10.875595920415364,-1.7077534326894876,1.8042644291107781,4.952185516620588,0.04847908189474446,0.0426283364639017,-0.024468501236584398,0.35,-0.3,-0.3,0.05616830705645434,7.0074640050200125,2.630430932048569,10.875595920415364,auto,85.0,20,0.0,10.0,0.0,14.889381674640251,0.06903697562756993,1,0
1761252094.9080749,24.44234299659729,6.828137326376367,2.820055147158042,11.405542187993673,-1.6665548704783697,1.756613762330989,5.006161912142978,0.03685694568854084,0.04047352365744903,-0.0286874750233348,0.48121104374440943,-0.2355662274291439,-0.3,0.06590714131062214,6.828137326376367,2.820055147158042,11.405542187993673,auto,85.0,20,0.0,10.0,0.0,15.108324196938899,0.06180219887635548,1,0
1761252095.0083323,24.542600393295288,6.663143753476242,2.9944110205070777,11.909895320377448,-1.6071722899199523,1.6974952407114505,5.054243684690221,-0.0714777777858975,-0.05591079492553507,-0.03104424128559753,0.35,0.3,0.22901354768914498,0.06822619347050402,6.663143753476242,2.9944110205070777,11.909895320377448,auto,85.0,20,0.0,10.0,0.0,15.340188009650689,0.095910555328461,1,0
1761252095.1159716,24.65023970603943,6.492213427401321,3.1742568575453562,12.455938181643994,-1.5840263983071203,1.6723786446249942,5.078892219341297,0.022124774679570757,-0.0093192350286212,-0.03456101879465959,0.35,-0.3,-0.11720298593718473,0.0754993793937856,6.492213427401321,3.1742568575453562,12.455938181643994,auto,85.0,20,0.0,10.0,0.0,15.616977960496495,0.04208108620586295,1,0
