timestamp,simulation_time,position_x,position_y,position_z,velocity_x,velocity_y,velocity_z,attitude_roll,attitude_pitch,attitude_yaw,control_throttle,control_roll,control_pitch,control_yaw,estimated_position_x,estimated_position_y,estimated_position_z,flight_mode,battery_level,setpoint_altitude,setpoint_position_x,setpoint_position_y,setpoint_position_z,position_error,attitude_error,waypoint_index,mission_complete
1761126282.7847056,0.10421609878540039,0.0,0.0,-0.0,0.0,0.0,-0.0,0.0,0.0,0.0,0.0,0.0,0.0,0.0,0.0,0.0,-0.0,manual,85.0,0.0,0.0,0.0,0.0,0.0,0.0,0,0
1761126282.886358,0.20586848258972168,0.0,0.0,-0.0,0.0,0.0,-0.0,0.0,0.0,0.0,0.0,0.0,0.0,0.0,0.0,0.0,-0.0,manual,85.0,0.0,0.0,0.0,0.0,0.0,0.0,0,0
1761126282.9912589,0.31076931953430176,0.0,0.0,-0.0,0.0,0.0,-0.0,0.0,0.0,0.0,0.0,0.0,0.0,0.0,0.0,0.0,-0.0,manual,85.0,0.0,0.0,0.0,0.0,0.0,0.0,0,0
1761126283.0936396,0.4131500720977783,0.0,0.0,-0.0,0.0,0.0,-0.0,0.0,0.0,0.0,0.0,0.0,0.0,0.0,0.0,0.0,-0.0,manual,85.0,0.0,0.0,0.0,0.0,0.0,0.0,0,0
1761126283.1961944,0.515704870223999,0.0,0.0,-0.0,0.0,0.0,-0.0,0.0,0.0,0.0,0.0,0.0,0.0,0.0,0.0,0.0,-0.0,manual,85.0,0.0,0.0,0.0,0.0,0.0,0.0,0,0
1761126283.2998042,0.6193146705627441,0.0,0.0,-0.0,0.0,0.0,-0.0,0.0,0.0,0.0,0.0,0.0,0.0,0.0,0.0,0.0,-0.0,manual,85.0,0.0,0.0,0.0,0.0,0.0,0.0,0,0
1761126283.4019375,0.7214479446411133,0.0,0.0,-0.0,0.0,0.0,-0.0,0.0,0.0,0.0,0.0,0.0,0.0,0.0,0.0,0.0,-0.0,manual,85.0,0.0,0.0,0.0,0.0,0.0,0.0,0,0
1761126283.5039592,0.8234696388244629,0.0,0.0,-0.0,0.0,0.0,-0.0,0.0,0.0,0.0,0.0,0.0,0.0,0.0,0.0,0.0,-0.0,manual,85.0,0.0,0.0,0.0,0.0,0.0,0.0,0,0
1761126283.606176,0.9256863594055176,0.0,0.0,-0.0,0.0,0.0,-0.0,0.0,0.0,0.0,0.0,0.0,0.0,0.0,0.0,0.0,-0.0,manual,85.0,0.0,0.0,0.0,0.0,0.0,0.0,0,0
1761126283.7100377,1.029548168182373,0.0,0.0,-0.0,0.0,0.0,-0.0,0.0,0.0,0.0,0.0,0.0,0.0,0.0,0.0,0.0,-0.0,manual,85.0,0.0,0.0,0.0,0.0,0.0,0.0,0,0
1761126283.8128188,1.1323292255401611,0.0,0.0,-0.0,0.0,0.0,-0.0,0.0,0.0,0.0,0.0,0.0,0.0,0.0,0.0,0.0,-0.0,manual,85.0,0.0,0.0,0.0,0.0,0.0,0.0,0,0
1761126283.914628,1.2341384887695312,0.0,0.0,-0.0,0.0,0.0,-0.0,0.0,0.0,0.0,0.0,0.0,0.0,0.0,0.0,0.0,-0.0,manual,85.0,0.0,0.0,0.0,0.0,0.0,0.0,0,0
1761126284.0166724,1.3361828327178955,0.0,0.0,-0.0,0.0,0.0,-0.0,0.0,0.0,0.0,0.0,0.0,0.0,0.0,0.0,0.0,-0.0,manual,85.0,0.0,0.0,0.0,0.0,0.0,0.0,0,0
1761126284.1210861,1.440596580505371,0.0,0.0,-0.0,0.0,0.0,-0.0,0.0,0.0,0.0,0.0,0.0,0.0,0.0,0.0,0.0,-0.0,manual,85.0,0.0,0.0,0.0,0.0,0.0,0.0,0,0
1761126284.2236009,1.5431113243103027,0.0,0.0,-0.0,0.0,0.0,-0.0,0.0,0.0,0.0,0.0,0.0,0.0,0.0,0.0,0.0,-0.0,manual,85.0,0.0,0.0,0.0,0.0,0.0,0.0,0,0
1761126284.3261638,1.645674228668213,0.0,0.0,-0.0,0.0,0.0,-0.0,0.0,0.0,0.0,0.0,0.0,0.0,0.0,0.0,0.0,-0.0,manual,85.0,0.0,0.0,0.0,0.0,0.0,0.0,0,0
1761126284.4299705,1.749480962753296,0.0,0.0,-0.0,0.0,0.0,-0.0,0.0,0.0,0.0,0.0,0.0,0.0,0.0,0.0,0.0,-0.0,manual,85.0,0.0,0.0,0.0,0.0,0.0,0.0,0,0
1761126284.5318491,1.8513596057891846,0.0,0.0,-0.0,0.0,0.0,-0.0,0.0,0.0,0.0,0.0,0.0,0.0,0.0,0.0,0.0,-0.0,manual,85.0,0.0,0.0,0.0,0.0,0.0,0.0,0,0
1761126284.6349802,1.9544906616210938,0.0,0.0,-0.0,0.0,0.0,-0.0,0.0,0.0,0.0,0.0,0.0,0.0,0.0,0.0,0.0,-0.0,manual,85.0,0.0,0.0,0.0,0.0,0.0,0.0,0,0
1761126284.7375834,2.057093858718872,0.0,0.0,-0.0,0.0,0.0,-0.0,0.0,0.0,0.0,0.0,0.0,0.0,0.0,0.0,0.0,-0.0,manual,85.0,0.0,0.0,0.0,0.0,0.0,0.0,0,0
1761126284.8406148,2.160125255584717,0.0,0.0,-0.0,0.0,0.0,-0.0,0.0,0.0,0.0,0.0,0.0,0.0,0.0,0.0,0.0,-0.0,manual,85.0,0.0,0.0,0.0,0.0,0.0,0.0,0,0
1761126284.9427767,2.262287139892578,0.0,0.0,-0.0,0.0,0.0,-0.0,0.0,0.0,0.0,0.0,0.0,0.0,0.0,0.0,0.0,-0.0,manual,85.0,0.0,0.0,0.0,0.0,0.0,0.0,0,0
1761126285.044423,2.363933563232422,0.0,0.0,-0.0,0.0,0.0,-0.0,0.0,0.0,0.0,0.0,0.0,0.0,0.0,0.0,0.0,-0.0,manual,85.0,0.0,0.0,0.0,0.0,0.0,0.0,0,0
1761126285.149795,2.4693055152893066,0.0,0.0,-0.0,0.0,0.0,-0.0,0.0,0.0,0.0,0.0,0.0,0.0,0.0,0.0,0.0,-0.0,manual,85.0,0.0,0.0,0.0,0.0,0.0,0.0,0,0
1761126285.252244,2.5717544555664062,0.0,0.0,-0.0,0.0,0.0,-0.0,0.0,0.0,0.0,0.0,0.0,0.0,0.0,0.0,0.0,-0.0,manual,85.0,0.0,0.0,0.0,0.0,0.0,0.0,0,0
1761126285.3554418,2.674952268600464,0.0,0.0,-0.0,0.0,0.0,-0.0,0.0,0.0,0.0,0.0,0.0,0.0,0.0,0.0,0.0,-0.0,manual,85.0,0.0,0.0,0.0,0.0,0.0,0.0,0,0
1761126285.460122,2.779632568359375,0.0,0.0,-0.0,0.0,0.0,-0.0,0.0,0.0,0.0,0.0,0.0,0.0,0.0,0.0,0.0,-0.0,manual,85.0,0.0,0.0,0.0,0.0,0.0,0.0,0,0
1761126285.5623043,2.88181471824646,0.0,0.0,-0.0,0.0,0.0,-0.0,0.0,0.0,0.0,0.0,0.0,0.0,0.0,0.0,0.0,-0.0,manual,85.0,0.0,0.0,0.0,0.0,0.0,0.0,0,0
1761126285.663816,2.9833264350891113,0.0,0.0,-0.0,0.0,0.0,-0.0,0.0,0.0,0.0,0.0,0.0,0.0,0.0,0.0,0.0,-0.0,manual,85.0,0.0,0.0,0.0,0.0,0.0,0.0,0,0
1761126285.767569,3.0870795249938965,0.0,0.0,-0.0,0.0,0.0,-0.0,0.0,0.0,0.0,0.0,0.0,0.0,0.0,0.0,0.0,-0.0,manual,85.0,0.0,0.0,0.0,0.0,0.0,0.0,0,0
1761126285.8727014,3.192211866378784,0.0,0.0,-0.0,0.0,0.0,-0.0,0.0,0.0,0.0,0.0,0.0,0.0,0.0,0.0,0.0,-0.0,manual,85.0,0.0,0.0,0.0,0.0,0.0,0.0,0,0
1761126285.9745226,3.2940330505371094,0.0,0.0,-0.0,0.0,0.0,-0.0,0.0,0.0,0.0,0.0,0.0,0.0,0.0,0.0,0.0,-0.0,manual,85.0,0.0,0.0,0.0,0.0,0.0,0.0,0,0
1761126286.0763166,3.395827054977417,0.0,0.0,-0.0,0.0,0.0,-0.0,0.0,0.0,0.0,0.0,0.0,0.0,0.0,0.0,0.0,-0.0,manual,85.0,0.0,0.0,0.0,0.0,0.0,0.0,0,0
1761126286.179389,3.498899459838867,0.0,0.0,-0.0,0.0,0.0,-0.0,0.0,0.0,0.0,0.0,0.0,0.0,0.0,0.0,0.0,-0.0,manual,85.0,0.0,0.0,0.0,0.0,0.0,0.0,0,0
1761126286.2829392,3.602449655532837,0.0,0.0,-0.0,0.0,0.0,-0.0,0.0,0.0,0.0,0.0,0.0,0.0,0.0,0.0,0.0,-0.0,manual,85.0,0.0,0.0,0.0,0.0,0.0,0.0,0,0
1761126286.3845346,3.704045057296753,0.0,0.0,-0.0,0.0,0.0,-0.0,0.0,0.0,0.0,0.0,0.0,0.0,0.0,0.0,0.0,-0.0,manual,85.0,0.0,0.0,0.0,0.0,0.0,0.0,0,0
1761126286.487316,3.80682635307312,0.0,0.0,-0.0,0.0,0.0,-0.0,0.0,0.0,0.0,0.0,0.0,0.0,0.0,0.0,0.0,-0.0,manual,85.0,0.0,0.0,0.0,0.0,0.0,0.0,0,0
1761126286.5945206,3.9140310287475586,0.0,0.0,-0.0,0.0,0.0,-0.0,0.0,0.0,0.0,0.0,0.0,0.0,0.0,0.0,0.0,-0.0,manual,85.0,0.0,0.0,0.0,0.0,0.0,0.0,0,0
1761126286.697201,4.016711473464966,0.0,0.0,-0.0,0.0,0.0,-0.0,0.0,0.0,0.0,0.0,0.0,0.0,0.0,0.0,0.0,-0.0,manual,85.0,0.0,0.0,0.0,0.0,0.0,0.0,0,0
1761126286.8288152,4.148325681686401,0.0,0.0,-0.0,0.0,0.0,-0.0,0.0,0.0,0.0,0.0,0.0,0.0,0.0,0.0,0.0,-0.0,manual,85.0,0.0,0.0,0.0,0.0,0.0,0.0,0,0
1761126286.931891,4.251401424407959,0.0,0.0,-0.0,0.0,0.0,-0.0,0.0,0.0,0.0,0.0,0.0,0.0,0.0,0.0,0.0,-0.0,manual,85.0,0.0,0.0,0.0,0.0,0.0,0.0,0,0
1761126287.0349612,4.354471683502197,0.0,0.0,-0.0,0.0,0.0,-0.0,0.0,0.0,0.0,0.0,0.0,0.0,0.0,0.0,0.0,-0.0,manual,85.0,0.0,0.0,0.0,0.0,0.0,0.0,0,0
1761126287.1397786,4.459289073944092,0.0,0.0,-0.0,0.0,0.0,-0.0,0.0,0.0,0.0,0.0,0.0,0.0,0.0,0.0,0.0,-0.0,manual,85.0,0.0,0.0,0.0,0.0,0.0,0.0,0,0
1761126287.2429478,4.562458276748657,0.0,0.0,-0.0,0.0,0.0,-0.0,0.0,0.0,0.0,0.0,0.0,0.0,0.0,0.0,0.0,-0.0,manual,85.0,0.0,0.0,0.0,0.0,0.0,0.0,0,0
1761126287.3467326,4.666243076324463,0.0,0.0,-0.0,0.0,0.0,-0.0,0.0,0.0,0.0,0.0,0.0,0.0,0.0,0.0,0.0,-0.0,manual,85.0,0.0,0.0,0.0,0.0,0.0,0.0,0,0
1761126287.4536283,4.773138761520386,0.0,0.0,-0.0,0.0,0.0,-0.0,0.0,0.0,0.0,0.0,0.0,0.0,0.0,0.0,0.0,-0.0,manual,85.0,0.0,0.0,0.0,0.0,0.0,0.0,0,0
1761126287.5565143,4.8760247230529785,0.0,0.0,-0.0,0.0,0.0,-0.0,0.0,0.0,0.0,0.0,0.0,0.0,0.0,0.0,0.0,-0.0,manual,85.0,0.0,0.0,0.0,0.0,0.0,0.0,0,0
1761126287.661399,4.98090934753418,0.0,0.0,-0.0,0.0,0.0,-0.0,0.0,0.0,0.0,0.0,0.0,0.0,0.0,0.0,0.0,-0.0,manual,85.0,0.0,0.0,0.0,0.0,0.0,0.0,0,0
1761126287.7636847,5.083195209503174,0.0,0.0,-0.0,0.0,0.0,-0.0,0.0,0.0,0.0,0.0,0.0,0.0,0.0,0.0,0.0,-0.0,manual,85.0,0.0,0.0,0.0,0.0,0.0,0.0,0,0
1761126287.865655,5.1851654052734375,0.0,0.0,-0.0,0.0,0.0,-0.0,0.0,0.0,0.0,0.0,0.0,0.0,0.0,0.0,0.0,-0.0,manual,85.0,0.0,0.0,0.0,0.0,0.0,0.0,0,0
1761126287.967637,5.287147521972656,0.0,0.0,-0.0,0.0,0.0,-0.0,0.0,0.0,0.0,0.0,0.0,0.0,0.0,0.0,0.0,-0.0,manual,85.0,0.0,0.0,0.0,0.0,0.0,0.0,0,0
1761126288.0720227,5.391533136367798,0.0,0.0,-0.0,0.0,0.0,-0.0,0.0,0.0,0.0,0.0,0.0,0.0,0.0,0.0,0.0,-0.0,manual,85.0,0.0,0.0,0.0,0.0,0.0,0.0,0,0
1761126288.1738462,5.493356704711914,0.0,0.0,-0.0,0.0,0.0,-0.0,0.0,0.0,0.0,0.0,0.0,0.0,0.0,0.0,0.0,-0.0,manual,85.0,0.0,0.0,0.0,0.0,0.0,0.0,0,0
1761126288.2807536,5.600264072418213,0.0,0.0,-0.0,0.0,0.0,-0.0,0.0,0.0,0.0,0.0,0.0,0.0,0.0,0.0,0.0,-0.0,manual,85.0,0.0,0.0,0.0,0.0,0.0,0.0,0,0
1761126288.383986,5.70349645614624,0.0,0.0,-0.0,0.0,0.0,-0.0,0.0,0.0,0.0,0.0,0.0,0.0,0.0,0.0,0.0,-0.0,manual,85.0,0.0,0.0,0.0,0.0,0.0,0.0,0,0
1761126288.485983,5.805493354797363,0.0,0.0,-0.0,0.0,0.0,-0.0,0.0,0.0,0.0,0.0,0.0,0.0,0.0,0.0,0.0,-0.0,manual,85.0,0.0,0.0,0.0,0.0,0.0,0.0,0,0
1761126288.590014,5.909524440765381,0.0,0.0,-0.0,0.0,0.0,-0.0,0.0,0.0,0.0,0.0,0.0,0.0,0.0,0.0,0.0,-0.0,manual,85.0,0.0,0.0,0.0,0.0,0.0,0.0,0,0
1761126288.6938825,6.013392925262451,0.0,0.0,0.026268880644895846,0.0,0.0,0.5056333288569376,0.0,0.0,0.0,0.8,0.0,0.0,0.0,0.0,0.0,0.026268880644895846,stabilize,85.0,2.0,0.0,0.0,-2.0,1.9737311193551041,0.0,0,0
1761126288.7973957,6.11690616607666,0.0,0.0,0.08381153830156651,0.0,0.0,0.5565032604222799,0.0,0.0,0.0,0.3,0.0,0.0,0.0,0.0,0.0,0.08381153830156651,stabilize,85.0,2.0,0.0,0.0,-2.0,1.9161884616984335,0.0,0,0
1761126288.9012713,6.2207818031311035,0.0,0.0,0.14591054252468194,0.0,0.0,0.588963865949187,0.0,0.0,0.0,0.3,0.0,0.0,0.0,0.0,0.0,0.14591054252468194,stabilize,85.0,2.0,0.0,0.0,-2.0,1.8540894574753182,0.0,0,0
1761126289.004767,6.324277400970459,0.0,0.0,0.21069025538220487,0.0,0.0,0.6170903598326043,0.0,0.0,0.0,0.3,0.0,0.0,0.0,0.0,0.0,0.21069025538220487,stabilize,85.0,2.0,0.0,0.0,-2.0,1.7893097446177952,0.0,0,0
1761126289.1096432,6.429153680801392,0.0,0.0,0.27937762629418705,0.0,0.0,0.6477449310077416,0.0,0.0,0.0,0.3,0.0,0.0,0.0,0.0,0.0,0.27937762629418705,stabilize,85.0,2.0,0.0,0.0,-2.0,1.720622373705813,0.0,0,0
1761126289.2187438,6.538254261016846,0.0,0.0,0.3541774781964158,0.0,0.0,0.718939863232846,0.0,0.0,0.0,0.8,0.0,0.0,0.0,0.0,0.0,0.3541774781964158,stabilize,85.0,2.0,0.0,0.0,-2.0,1.6458225218035842,0.0,0,0
1761126289.3231537,6.642664194107056,0.0,0.0,0.42804881306699394,0.0,0.0,0.7423569096628456,0.0,0.0,0.0,0.8,0.0,0.0,0.0,0.0,0.0,0.42804881306699394,stabilize,85.0,2.0,0.0,0.0,-2.0,1.571951186933006,0.0,0,0
1761126289.427024,6.74653434753418,0.0,0.0,0.5035867402608862,0.0,0.0,0.7534577715923171,0.0,0.0,0.0,0.8,0.0,0.0,0.0,0.0,0.0,0.5035867402608862,stabilize,85.0,2.0,0.0,0.0,-2.0,1.4964132597391138,0.0,0,0
1761126289.5318842,6.8513946533203125,0.0,0.0,0.5803207137459669,0.0,0.0,0.7550404618418887,0.0,0.0,0.0,0.8,0.0,0.0,0.0,0.0,0.0,0.5803207137459669,stabilize,85.0,2.0,0.0,0.0,-2.0,1.419679286254033,0.0,0,0
1761126289.636078,6.955588340759277,0.0,0.0,0.6567489998436855,0.0,0.0,0.7182997223436275,0.0,0.0,0.0,0.567829031934062,0.0,0.0,0.0,0.0,0.0,0.6567489998436855,stabilize,85.0,2.0,0.0,0.0,-2.0,1.3432510001563145,0.0,0,0
1761126289.740853,7.060363531112671,0.0,0.0,0.7321016009041699,0.0,0.0,0.7306547962154086,0.0,0.0,0.0,0.8,0.0,0.0,0.0,0.0,0.0,0.7321016009041699,stabilize,85.0,2.0,0.0,0.0,-2.0,1.2678983990958301,0.0,0,0
1761126289.8445125,7.164022922515869,0.0,0.0,0.8058469273548646,0.0,0.0,0.7184921432320247,0.0,0.0,0.0,0.6911924551643455,0.0,0.0,0.0,0.0,0.0,0.8058469273548646,stabilize,85.0,2.0,0.0,0.0,-2.0,1.1941530726451353,0.0,0,0
1761126289.9478989,7.267409324645996,0.0,0.0,0.8778668713330002,0.0,0.0,0.718427070166435,0.0,0.0,0.0,0.7895283038441712,0.0,0.0,0.0,0.0,0.0,0.8778668713330002,stabilize,85.0,2.0,0.0,0.0,-2.0,1.1221331286669998,0.0,0,0
1761126290.0533988,7.372909307479858,0.0,0.0,0.9490219357705333,0.0,0.0,0.7023855548483402,0.0,0.0,0.0,0.8,0.0,0.0,0.0,0.0,0.0,0.9490219357705333,stabilize,85.0,2.0,0.0,0.0,-2.0,1.0509780642294668,0.0,0,0
1761126290.1580892,7.477599620819092,0.0,0.0,1.0172091687596994,0.0,0.0,0.6221087793365959,0.0,0.0,0.0,0.3,0.0,0.0,0.0,0.0,0.0,1.0172091687596994,stabilize,85.0,2.0,0.0,0.0,-2.0,0.9827908312403006,0.0,0,0
1761126290.2628508,7.582361221313477,0.0,0.0,1.0826978034253956,0.0,0.0,0.6138634832405712,0.0,0.0,0.0,0.6093753760890838,0.0,0.0,0.0,0.0,0.0,1.0826978034253956,stabilize,85.0,2.0,0.0,0.0,-2.0,0.9173021965746044,0.0,0,0
1761126290.3668213,7.686331748962402,0.0,0.0,1.1442920786756279,0.0,0.0,0.5932530686301138,0.0,0.0,0.0,0.6709285320588882,0.0,0.0,0.0,0.0,0.0,1.1442920786756279,stabilize,85.0,2.0,0.0,0.0,-2.0,0.8557079213243721,0.0,0,0
1761126290.4715571,7.791067600250244,0.0,0.0,1.2038375185052679,0.0,0.0,0.5262770806927496,0.0,0.0,0.0,0.3,0.0,0.0,0.0,0.0,0.0,1.2038375185052679,stabilize,85.0,2.0,0.0,0.0,-2.0,0.7961624814947321,0.0,0,0
1761126290.5745773,7.894087791442871,0.0,0.0,1.259472770424861,0.0,0.0,0.4935123597523106,0.0,0.0,0.0,0.3,0.0,0.0,0.0,0.0,0.0,1.259472770424861,stabilize,85.0,2.0,0.0,0.0,-2.0,0.7405272295751391,0.0,0,0
1761126290.6776195,7.997129917144775,0.0,0.0,1.3123908368392736,0.0,0.0,0.46192636357232764,0.0,0.0,0.0,0.3,0.0,0.0,0.0,0.0,0.0,1.3123908368392736,stabilize,85.0,2.0,0.0,0.0,-2.0,0.6876091631607264,0.0,0,0
1761126290.7828898,8.102400302886963,0.0,0.0,1.3631871581296577,0.0,0.0,0.46209471944217506,0.0,0.0,0.0,0.3,0.0,0.0,0.0,0.0,0.0,1.3631871581296577,stabilize,85.0,2.0,0.0,0.0,-2.0,0.6368128418703423,0.0,0,0
1761126290.889693,8.209203481674194,0.0,0.0,1.4121302587468538,0.0,0.0,0.43836609900728113,0.0,0.0,0.0,0.5559912943510765,0.0,0.0,0.0,0.0,0.0,1.4121302587468538,stabilize,85.0,2.0,0.0,0.0,-2.0,0.5878697412531462,0.0,0,0
1761126290.9961252,8.315635681152344,0.0,0.0,1.4577347150319997,0.0,0.0,0.3928360422705555,0.0,0.0,0.0,0.4860252532207736,0.0,0.0,0.0,0.0,0.0,1.4577347150319997,stabilize,85.0,2.0,0.0,0.0,-2.0,0.5422652849680003,0.0,0,0
1761126291.1008077,8.420318126678467,0.0,0.0,1.499694566302498,0.0,0.0,0.3826098960306529,0.0,0.0,0.0,0.3,0.0,0.0,0.0,0.0,0.0,1.499694566302498,stabilize,85.0,2.0,0.0,0.0,-2.0,0.5003054336975019,0.0,0,0
1761126291.2038019,8.523312330245972,0.0,0.0,1.5385377601818715,0.0,0.0,0.3380469232303123,0.0,0.0,0.0,0.3,0.0,0.0,0.0,0.0,0.0,1.5385377601818715,stabilize,85.0,2.0,0.0,0.0,-2.0,0.4614622398181285,0.0,0,0
1761126291.3073716,8.626882076263428,0.0,0.0,1.5754139320761344,0.0,0.0,0.3641175030486042,0.0,0.0,0.0,0.8,0.0,0.0,0.0,0.0,0.0,1.5754139320761344,stabilize,85.0,2.0,0.0,0.0,-2.0,0.42458606792386555,0.0,0,0
1761126291.4122775,8.731787919998169,0.0,0.0,1.6108193429740525,0.0,0.0,0.31326398086985874,0.0,0.0,0.0,0.3,0.0,0.0,0.0,0.0,0.0,1.6108193429740525,stabilize,85.0,2.0,0.0,0.0,-2.0,0.3891806570259475,0.0,0,0
1761126291.5197318,8.839242219924927,0.0,0.0,1.644267073244909,0.0,0.0,0.2897564730883163,0.0,0.0,0.0,0.8,0.0,0.0,0.0,0.0,0.0,1.644267073244909,stabilize,85.0,2.0,0.0,0.0,-2.0,0.35573292675509105,0.0,0,0
1761126291.6245089,8.944019317626953,0.0,0.0,1.67365430643423,0.0,0.0,0.28567243992109187,0.0,0.0,0.0,0.8,0.0,0.0,0.0,0.0,0.0,1.67365430643423,stabilize,85.0,2.0,0.0,0.0,-2.0,0.32634569356577003,0.0,0,0
1761126291.7274497,9.04696011543274,0.0,0.0,1.7003856633960557,0.0,0.0,0.27540020488060274,0.0,0.0,0.0,0.8,0.0,0.0,0.0,0.0,0.0,1.7003856633960557,stabilize,85.0,2.0,0.0,0.0,-2.0,0.2996143366039443,0.0,0,0
1761126291.8370502,9.15656065940857,0.0,0.0,1.7250294776333264,0.0,0.0,0.19770586819851882,0.0,0.0,0.0,0.3,0.0,0.0,0.0,0.0,0.0,1.7250294776333264,stabilize,85.0,2.0,0.0,0.0,-2.0,0.27497052236667363,0.0,0,0
1761126291.9415104,9.26102089881897,0.0,0.0,1.7485923536752248,0.0,0.0,0.20534032287967263,0.0,0.0,0.0,0.3,0.0,0.0,0.0,0.0,0.0,1.7485923536752248,stabilize,85.0,2.0,0.0,0.0,-2.0,0.2514076463247752,0.0,0,0
1761126292.0452104,9.364720821380615,0.0,0.0,1.771286658702075,0.0,0.0,0.23764757039232798,0.0,0.0,0.0,0.8,0.0,0.0,0.0,0.0,0.0,1.771286658702075,stabilize,85.0,2.0,0.0,0.0,-2.0,0.22871334129792498,0.0,0,0
1761126292.147523,9.467033386230469,0.0,0.0,1.792843034506734,0.0,0.0,0.2322230277304908,0.0,0.0,0.0,0.7649614200090161,0.0,0.0,0.0,0.0,0.0,1.792843034506734,stabilize,85.0,2.0,0.0,0.0,-2.0,0.2071569654932659,0.0,0,0
1761126292.2540293,9.573539733886719,0.0,0.0,1.814485768817555,0.0,0.0,0.15534449118722254,0.0,0.0,0.0,0.3,0.0,0.0,0.0,0.0,0.0,1.814485768817555,stabilize,85.0,2.0,0.0,0.0,-2.0,0.18551423118244492,0.0,0,0
1761126292.3603003,9.679810762405396,0.0,0.0,1.835011941781005,0.0,0.0,0.17892995266919465,0.0,0.0,0.0,0.3,0.0,0.0,0.0,0.0,0.0,1.835011941781005,stabilize,85.0,2.0,0.0,0.0,-2.0,0.1649880582189951,0.0,0,0
1761126292.4623466,9.781857013702393,0.0,0.0,1.8532278850300492,0.0,0.0,0.20525032102674917,0.0,0.0,0.0,0.8,0.0,0.0,0.0,0.0,0.0,1.8532278850300492,stabilize,85.0,2.0,0.0,0.0,-2.0,0.1467721149699508,0.0,0,0
1761126292.5650184,9.884528875350952,0.0,0.0,1.871001127419475,0.0,0.0,0.19745018391927285,0.0,0.0,0.0,0.7756318671249898,0.0,0.0,0.0,0.0,0.0,1.871001127419475,stabilize,85.0,2.0,0.0,0.0,-2.0,0.1289988725805249,0.0,0,0
1761126292.6678338,9.98734426498413,0.0,0.0,1.887634978762121,0.0,0.0,0.16513906243786786,0.0,0.0,0.0,0.650688558202474,0.0,0.0,0.0,0.0,0.0,1.887634978762121,stabilize,85.0,2.0,0.0,0.0,-2.0,0.11236502123787906,0.0,0,0
1761126292.7728803,10.092390775680542,0.0,0.0,1.9034710274789648,0.0,0.0,0.17990809772175517,0.0,0.0,0.0,0.8,0.0,0.0,0.0,0.0,0.0,1.9034710274789648,stabilize,85.0,2.0,0.0,0.0,-2.0,0.0965289725210352,0.0,0,0
1761126292.876359,10.195869445800781,0.0,0.0,1.9192056100006347,0.0,0.0,0.1293234354601817,0.0,0.0,0.0,0.3,0.0,0.0,0.0,0.0,0.0,1.9192056100006347,stabilize,85.0,2.0,0.0,0.0,-2.0,0.08079438999936528,0.0,0,0
1761126292.9820423,10.301552772521973,0.0,0.0,1.9339009215928764,0.0,0.0,0.11738368906308069,0.0,0.0,0.0,0.3,0.0,0.0,0.0,0.0,0.0,1.9339009215928764,stabilize,85.0,2.0,0.0,0.0,-2.0,0.06609907840712359,0.0,0,0
1761126293.0900197,10.40953016281128,0.0,0.0,1.9473889570550629,0.0,0.0,0.09783867209768117,0.0,0.0,0.0,0.47003557682244446,0.0,0.0,0.0,0.0,0.0,1.9473889570550629,stabilize,85.0,2.0,0.0,0.0,-2.0,0.052611042944937125,0.0,0,0
1761126293.1917636,10.511274099349976,0.0,0.0,1.9598952558232958,0.0,0.0,0.09858669790421003,0.0,0.0,0.0,0.3,0.0,0.0,0.0,0.0,0.0,1.9598952558232958,stabilize,85.0,2.0,0.0,0.0,-2.0,0.04010474417670418,0.0,0,0
1761126293.3004498,10.619960308074951,0.0,0.0,1.9719373198375565,0.0,0.0,0.08171396434239542,0.0,0.0,0.0,0.3,0.0,0.0,0.0,0.0,0.0,1.9719373198375565,stabilize,85.0,2.0,0.0,0.0,-2.0,0.02806268016244351,0.0,0,0
1761126293.4027123,10.722222805023193,0.0,0.0,1.983002133835352,0.0,0.0,0.0764055288809244,0.0,0.0,0.0,0.3,0.0,0.0,0.0,0.0,0.0,1.983002133835352,stabilize,85.0,2.0,0.0,0.0,-2.0,0.016997866164647935,0.0,0,0
1761126293.505389,10.824899435043335,0.0,0.0,1.993593812291704,0.0,0.0,0.08286281186719527,0.0,0.0,0.0,0.3,0.0,0.0,0.0,0.0,0.0,1.993593812291704,stabilize,85.0,2.0,0.0,0.0,-2.0,0.0064061877082959295,0.0,0,0
1761126293.607526,10.92703652381897,0.0,0.0,2.0042441343246185,0.0,0.0,0.09047432003678657,0.0,0.0,0.0,0.3,0.0,0.0,0.0,0.0,0.0,2.0042441343246185,stabilize,85.0,2.0,0.0,0.0,-2.0,0.004244134324618454,0.0,0,0
1761126293.7085447,11.028055191040039,0.0,0.0,2.013462838224542,0.0,0.0,0.04355971356011723,0.0,0.0,0.0,0.3,0.0,0.0,0.0,0.0,0.0,2.013462838224542,stabilize,85.0,2.0,0.0,0.0,-2.0,0.013462838224541862,0.0,0,0
1761126293.8131888,11.132699251174927,0.0,0.0,2.021946607715303,0.0,0.0,0.07336489349644093,0.0,0.0,0.0,0.3,0.0,0.0,0.0,0.0,0.0,2.021946607715303,stabilize,85.0,2.0,0.0,0.0,-2.0,0.021946607715303212,0.0,0,0
1761126293.9161227,11.235633134841919,0.0,0.0,2.029735491550603,0.0,0.0,0.03145204363514741,0.0,0.0,0.0,0.3,0.0,0.0,0.0,0.0,0.0,2.029735491550603,stabilize,85.0,2.0,0.0,0.0,-2.0,0.029735491550602955,0.0,0,0
1761126294.020334,11.339844465255737,0.0,0.0,2.0370973051630608,0.0,0.0,0.05476697881920665,0.0,0.0,0.0,0.3,0.0,0.0,0.0,0.0,0.0,2.0370973051630608,stabilize,85.0,2.0,0.0,0.0,-2.0,0.037097305163060756,0.0,0,0
1761126294.1239634,11.443473815917969,0.0,0.0,2.04429469688437,0.0,0.0,0.05684651145955633,0.0,0.0,0.0,0.3,0.0,0.0,0.0,0.0,0.0,2.04429469688437,stabilize,85.0,2.0,0.0,0.0,-2.0,0.044294696884370044,0.0,0,0
1761126294.2269714,11.546481847763062,0.0,0.0,2.051499512148059,0.0,0.0,0.06787953442910408,0.0,0.0,0.0,0.608543720482774,0.0,0.0,0.0,0.0,0.0,2.051499512148059,stabilize,85.0,2.0,0.0,0.0,-2.0,0.05149951214805881,0.0,0,0
1761126294.3305562,11.650066614151001,0.0,0.0,2.05705638364404,0.0,0.0,0.013265219912248792,0.0,0.0,0.0,0.3,0.0,0.0,0.0,0.0,0.0,2.05705638364404,stabilize,85.0,2.0,0.0,0.0,-2.0,0.057056383644039865,0.0,0,0
1761126294.4329693,11.752479791641235,0.0,0.0,2.0619641243875404,0.0,0.0,0.02023375574524073,0.0,0.0,0.0,0.3,0.0,0.0,0.0,0.0,0.0,2.0619641243875404,stabilize,85.0,2.0,0.0,0.0,-2.0,0.0619641243875404,0.0,0,0
1761126294.539711,11.859221458435059,0.0,0.0,2.06725691457957,0.0,0.0,0.019011479262056333,0.0,0.0,0.0,0.3,0.0,0.0,0.0,0.0,0.0,2.06725691457957,stabilize,85.0,2.0,0.0,0.0,-2.0,0.06725691457956984,0.0,0,0
1761126294.6419501,11.961460590362549,0.0,0.0,2.0723952501913643,0.0,0.0,0.02437432083183115,0.0,0.0,0.0,0.3,0.0,0.0,0.0,0.0,0.0,2.0723952501913643,stabilize,85.0,2.0,0.0,0.0,-2.0,0.07239525019136428,0.0,0,0
1761126294.744062,12.063572406768799,0.0,0.0,2.077049577958274,0.0,0.0,0.011818471470704528,0.0,0.0,0.0,0.3,0.0,0.0,0.0,0.0,0.0,2.077049577958274,stabilize,85.0,2.0,0.0,0.0,-2.0,0.07704957795827383,0.0,0,0
1761126294.844854,12.164364576339722,0.0,0.0,2.079212457807619,0.0,0.0,-0.002632113320827037,0.0,0.0,0.0,0.3,0.0,0.0,0.0,0.0,0.0,2.079212457807619,stabilize,85.0,2.0,0.0,0.0,-2.0,0.07921245780761899,0.0,0,0
1761126294.9467535,12.266263961791992,0.0,0.0,2.0822376657100334,0.0,0.0,0.01580325812916477,0.0,0.0,0.0,0.3,0.0,0.0,0.0,0.0,0.0,2.0822376657100334,stabilize,85.0,2.0,0.0,0.0,-2.0,0.08223766571003344,0.0,0,0
1761126295.0515635,12.371073961257935,0.0,0.0,2.0851116963684353,0.0,0.0,0.017178888164381213,0.0,0.0,0.0,0.3,0.0,0.0,0.0,0.0,0.0,2.0851116963684353,stabilize,85.0,2.0,0.0,0.0,-2.0,0.0851116963684353,0.0,0,0
1761126295.155684,12.475194454193115,0.0,0.0,2.0873406168376527,0.0,0.0,-0.0011866742304995695,0.0,0.0,0.0,0.3,0.0,0.0,0.0,0.0,0.0,2.0873406168376527,stabilize,85.0,2.0,0.0,0.0,-2.0,0.08734061683765271,0.0,0,0
1761126295.2606955,12.580205917358398,0.0,0.0,2.089484097297146,0.0,0.0,0.004047840770062233,0.0,0.0,0.0,0.3,0.0,0.0,0.0,0.0,0.0,2.089484097297146,stabilize,85.0,2.0,0.0,0.0,-2.0,0.08948409729714601,0.0,0,0
1761126295.3629527,12.6824631690979,0.0,0.0,2.0918947513591766,0.0,0.0,0.009031955248716098,0.0,0.0,0.0,0.3,0.0,0.0,0.0,0.0,0.0,2.0918947513591766,stabilize,85.0,2.0,0.0,0.0,-2.0,0.09189475135917657,0.0,0,0
1761126295.464485,12.783995389938354,0.0,0.0,2.095310937178294,0.0,0.0,0.015878492948771424,0.0,0.0,0.0,0.3,0.0,0.0,0.0,0.0,0.0,2.095310937178294,stabilize,85.0,2.0,0.0,0.0,-2.0,0.09531093717829409,0.0,0,0
1761126295.5678184,12.887328863143921,0.0,0.0,2.098175218897772,0.0,0.0,0.004631328347939653,0.0,0.0,0.0,0.3,0.0,0.0,0.0,0.0,0.0,2.098175218897772,stabilize,85.0,2.0,0.0,0.0,-2.0,0.09817521889777181,0.0,0,0
1761126295.671931,12.991441488265991,0.0,0.0,2.101069041822256,0.0,0.0,-0.0059121740673971565,0.0,0.0,0.0,0.3,0.0,0.0,0.0,0.0,0.0,2.101069041822256,stabilize,85.0,2.0,0.0,0.0,-2.0,0.10106904182225618,0.0,0,0
1761126295.7743702,13.093880653381348,0.0,0.0,2.103438280117024,0.0,0.0,-0.003412324801847083,0.0,0.0,0.0,0.3,0.0,0.0,0.0,0.0,0.0,2.103438280117024,stabilize,85.0,2.0,0.0,0.0,-2.0,0.10343828011702394,0.0,0,0
1761126295.8783636,13.197874069213867,0.0,0.0,2.106464189988022,0.0,0.0,0.013108567438636295,0.0,0.0,0.0,0.3,0.0,0.0,0.0,0.0,0.0,2.106464189988022,stabilize,85.0,2.0,0.0,0.0,-2.0,0.1064641899880221,0.0,0,0
1761126295.9816954,13.30120587348938,0.0,0.0,2.1089372948205485,0.0,0.0,0.04101268141578903,0.0,0.0,0.0,0.8,0.0,0.0,0.0,0.0,0.0,2.1089372948205485,stabilize,85.0,2.0,0.0,0.0,-2.0,0.10893729482054848,0.0,0,0
1761126296.0830045,13.402514934539795,0.0,0.0,2.1098883274049425,0.0,0.0,0.03379142453996073,0.0,0.0,0.0,0.8,0.0,0.0,0.0,0.0,0.0,2.1098883274049425,stabilize,85.0,2.0,0.0,0.0,-2.0,0.10988832740494248,0.0,0,0
1761126296.1849751,13.504485607147217,0.0,0.0,2.111692817714544,0.0,0.0,0.03164783906496062,0.0,0.0,0.0,0.8,0.0,0.0,0.0,0.0,0.0,2.111692817714544,stabilize,85.0,2.0,0.0,0.0,-2.0,0.1116928177145442,0.0,0,0
1761126296.2908814,13.610391855239868,0.0,0.0,2.1124266737489656,0.0,0.0,-0.032771191889830416,0.0,0.0,0.0,0.3,0.0,0.0,0.0,0.0,0.0,2.1124266737489656,stabilize,85.0,2.0,0.0,0.0,-2.0,0.11242667374896564,0.0,0,0
1761126296.3944354,13.713945865631104,0.0,0.0,2.112800810067855,0.0,0.0,-0.009771920908815387,0.0,0.0,0.0,0.3,0.0,0.0,0.0,0.0,0.0,2.112800810067855,stabilize,85.0,2.0,0.0,0.0,-2.0,0.11280081006785503,0.0,0,0
1761126296.4974658,13.816976308822632,0.0,0.0,2.1144223817369237,0.0,0.0,-0.005053252068308513,0.0,0.0,0.0,0.3,0.0,0.0,0.0,0.0,0.0,2.1144223817369237,stabilize,85.0,2.0,0.0,0.0,-2.0,0.11442238173692365,0.0,0,0
1761126296.6021273,13.921637773513794,0.0,0.0,2.114914194217175,0.0,0.0,-0.011297793725904233,0.0,0.0,0.0,0.3,0.0,0.0,0.0,0.0,0.0,2.114914194217175,stabilize,85.0,2.0,0.0,0.0,-2.0,0.11491419421717497,0.0,0,0
1761126296.708589,14.028099536895752,0.0,0.0,2.115614117416595,0.0,0.0,-0.04424164809889662,0.0,0.0,0.0,0.3582277997474491,0.0,0.0,0.0,0.0,0.0,2.115614117416595,stabilize,85.0,2.0,0.0,0.0,-2.0,0.115614117416595,0.0,0,0
1761126296.812652,14.13216257095337,0.0,0.0,2.1151256423091267,0.0,0.0,-0.013621324122683097,0.0,0.0,0.0,0.3,0.0,0.0,0.0,0.0,0.0,2.1151256423091267,stabilize,85.0,2.0,0.0,0.0,-2.0,0.1151256423091267,0.0,0,0
1761126296.9159317,14.235442161560059,0.0,0.0,2.116531704448666,0.0,0.0,-0.00020570521197359193,0.0,0.0,0.0,0.3,0.0,0.0,0.0,0.0,0.0,2.116531704448666,stabilize,85.0,2.0,0.0,0.0,-2.0,0.11653170444866578,0.0,0,0
1761126297.0201044,14.339614868164062,0.0,0.0,2.1172189504911025,0.0,0.0,-0.0318181458896723,0.0,0.0,0.0,0.3,0.0,0.0,0.0,0.0,0.0,2.1172189504911025,stabilize,85.0,2.0,0.0,0.0,-2.0,0.11721895049110254,0.0,0,0
1761126297.1225684,14.442078828811646,0.0,0.0,2.1169646154915167,0.0,0.0,-0.03447961779533391,0.0,0.0,0.0,0.3,0.0,0.0,0.0,0.0,0.0,2.1169646154915167,stabilize,85.0,2.0,0.0,0.0,-2.0,0.11696461549151671,0.0,0,0
1761126297.2260265,14.545536994934082,0.0,0.0,2.1161026802601866,0.0,0.0,-0.03895060791289179,0.0,0.0,0.0,0.3,0.0,0.0,0.0,0.0,0.0,2.1161026802601866,stabilize,85.0,2.0,0.0,0.0,-2.0,0.11610268026018655,0.0,0,0
1761126297.330058,14.649568557739258,0.0,0.0,2.1157512083166545,0.0,0.0,-0.01434772490246096,0.0,0.0,0.0,0.3,0.0,0.0,0.0,0.0,0.0,2.1157512083166545,stabilize,85.0,2.0,0.0,0.0,-2.0,0.11575120831665453,0.0,0,0
1761126297.4333687,14.75287914276123,0.0,0.0,2.116561096954517,0.0,0.0,-0.012943684089918535,0.0,0.0,0.0,0.3,0.0,0.0,0.0,0.0,0.0,2.116561096954517,stabilize,85.0,2.0,0.0,0.0,-2.0,0.11656109695451722,0.0,0,0
1761126297.54282,14.862330436706543,0.0,0.0,2.1162259590543613,0.0,0.0,-0.05185827651226323,0.0,0.0,0.0,0.3,0.0,0.0,0.0,0.0,0.0,2.1162259590543613,stabilize,85.0,2.0,0.0,0.0,-2.0,0.11622595905436128,0.0,0,0
1761126297.64646,14.965970516204834,0.0,0.0,2.1148394377245427,0.0,0.0,-0.026116636638438502,0.0,0.0,0.0,0.3,0.0,0.0,0.0,0.0,0.0,2.1148394377245427,stabilize,85.0,2.0,0.0,0.0,-2.0,0.11483943772454275,0.0,0,0
1761126297.7505076,15.07001805305481,0.0,0.0,2.1147218949385818,0.0,0.0,-0.012705912054985918,0.0,0.0,0.0,0.3,0.0,0.0,0.0,0.0,0.0,2.1147218949385818,stabilize,85.0,2.0,0.0,0.0,-2.0,0.11472189493858176,0.0,0,0
1761126297.8544917,15.174002170562744,0.0,0.0,2.114028377459828,0.0,0.0,-0.01523248592805266,0.0,0.0,0.0,0.3,0.0,0.0,0.0,0.0,0.0,2.114028377459828,stabilize,85.0,2.0,0.0,0.0,-2.0,0.11402837745982808,0.0,0,0
1761126297.9570765,15.276587009429932,0.0,0.0,2.1137994922068173,0.0,0.0,-0.012507117790243508,0.0,0.0,0.0,0.3,0.0,0.0,0.0,0.0,0.0,2.1137994922068173,stabilize,85.0,2.0,0.0,0.0,-2.0,0.11379949220681729,0.0,0,0
1761126298.0629056,15.382416009902954,0.0,0.0,2.112207491304709,0.0,0.0,-0.02406970368019242,0.0,0.0,0.0,0.3,0.0,0.0,0.0,0.0,0.0,2.112207491304709,stabilize,85.0,2.0,0.0,0.0,-2.0,0.11220749130470908,0.0,0,0
1761126298.1652954,15.484805822372437,0.0,0.0,2.1115915097044127,0.0,0.0,-0.025278849918199384,0.0,0.0,0.0,0.3,0.0,0.0,0.0,0.0,0.0,2.1115915097044127,stabilize,85.0,2.0,0.0,0.0,-2.0,0.11159150970441267,0.0,0,0
1761126298.270779,15.59028935432434,0.0,0.0,2.1099491406202286,0.0,0.0,-0.03348798862296023,0.0,0.0,0.0,0.3,0.0,0.0,0.0,0.0,0.0,2.1099491406202286,stabilize,85.0,2.0,0.0,0.0,-2.0,0.10994914062022865,0.0,0,0
1761126298.3748877,15.694398164749146,0.0,0.0,2.108634860207806,0.0,0.0,-0.029227006086904393,0.0,0.0,0.0,0.3,0.0,0.0,0.0,0.0,0.0,2.108634860207806,stabilize,85.0,2.0,0.0,0.0,-2.0,0.10863486020780622,0.0,0,0
1761126298.4795976,15.799108028411865,0.0,0.0,2.1075780595083846,0.0,0.0,-0.027192791992635926,0.0,0.0,0.0,0.3,0.0,0.0,0.0,0.0,0.0,2.1075780595083846,stabilize,85.0,2.0,0.0,0.0,-2.0,0.10757805950838462,0.0,0,0
1761126298.5798485,15.899358987808228,0.0,0.0,2.104635968083596,0.0,0.0,-0.04485671590697267,0.0,0.0,0.0,0.3,0.0,0.0,0.0,0.0,0.0,2.104635968083596,stabilize,85.0,2.0,0.0,0.0,-2.0,0.10463596808359599,0.0,0,0
1761126298.6828656,16.002376079559326,0.0,0.0,2.1030714355836504,0.0,0.0,-0.03500638482172695,0.0,0.0,0.0,0.3,0.0,0.0,0.0,0.0,0.0,2.1030714355836504,stabilize,85.0,2.0,0.0,0.0,-2.0,0.1030714355836504,0.0,0,0
1761126298.7882125,16.107722997665405,0.0,0.0,2.1019595407640757,0.0,0.0,-0.03083064093713537,0.0,0.0,0.0,0.3,0.0,0.0,0.0,0.0,0.0,2.1019595407640757,stabilize,85.0,2.0,0.0,0.0,-2.0,0.10195954076407565,0.0,0,0
1761126298.8934667,16.212977170944214,0.0,0.0,2.100277676710798,0.0,0.0,-0.03910306324445433,0.0,0.0,0.0,0.3,0.0,0.0,0.0,0.0,0.0,2.100277676710798,stabilize,85.0,2.0,0.0,0.0,-2.0,0.10027767671079779,0.0,0,0
1761126298.9965456,16.3160560131073,0.0,0.0,2.098106606382313,0.0,0.0,-0.04780121243470462,0.0,0.0,0.0,0.3,0.0,0.0,0.0,0.0,0.0,2.098106606382313,stabilize,85.0,2.0,0.0,0.0,-2.0,0.09810660638231283,0.0,0,0
1761126299.0997975,16.419307947158813,0.0,0.0,2.0967101828461057,0.0,0.0,-0.031139681869228657,0.0,0.0,0.0,0.3,0.0,0.0,0.0,0.0,0.0,2.0967101828461057,stabilize,85.0,2.0,0.0,0.0,-2.0,0.09671018284610566,0.0,0,0
1761126299.205051,16.524561405181885,0.0,0.0,2.0965236740064115,0.0,0.0,-0.04005449896850706,0.0,0.0,0.0,0.3,0.0,0.0,0.0,0.0,0.0,2.0965236740064115,stabilize,85.0,2.0,0.0,0.0,-2.0,0.09652367400641149,0.0,0,0
1761126299.3099165,16.629426956176758,0.0,0.0,2.095826402885338,0.0,0.0,-0.027371133853026024,0.0,0.0,0.0,0.3,0.0,0.0,0.0,0.0,0.0,2.095826402885338,stabilize,85.0,2.0,0.0,0.0,-2.0,0.09582640288533817,0.0,0,0
1761126299.4115515,16.731061935424805,0.0,0.0,2.0961737413859054,0.0,0.0,-0.01000517079006727,0.0,0.0,0.0,0.3,0.0,0.0,0.0,0.0,0.0,2.0961737413859054,stabilize,85.0,2.0,0.0,0.0,-2.0,0.0961737413859054,0.0,0,0
1761126299.5137432,16.833253622055054,0.0,0.0,2.0965097417758383,0.0,0.0,-0.0063137484402533695,0.0,0.0,0.0,0.3,0.0,0.0,0.0,0.0,0.0,2.0965097417758383,stabilize,85.0,2.0,0.0,0.0,-2.0,0.09650974177583826,0.0,0,0
1761126299.6164222,16.935932636260986,0.0,0.0,2.0972601407082196,0.0,0.0,-0.003216750006143597,0.0,0.0,0.0,0.3,0.0,0.0,0.0,0.0,0.0,2.0972601407082196,stabilize,85.0,2.0,0.0,0.0,-2.0,0.09726014070821964,0.0,0,0
1761126299.7199793,17.03948974609375,0.0,0.0,2.0985565795752557,0.0,0.0,-0.01538919920926489,0.0,0.0,0.0,0.3,0.0,0.0,0.0,0.0,0.0,2.0985565795752557,stabilize,85.0,2.0,0.0,0.0,-2.0,0.09855657957525565,0.0,0,0
1761126299.8227713,17.142281770706177,0.0,0.0,2.100248203414513,0.0,0.0,-0.024547669773912262,0.0,0.0,0.0,0.33427962488364815,0.0,0.0,0.0,0.0,0.0,2.100248203414513,stabilize,85.0,2.0,0.0,0.0,-2.0,0.1002482034145129,0.0,0,0
1761126299.9283056,17.24781608581543,0.0,0.0,2.1008530072249645,0.0,0.0,-0.01325192045512276,0.0,0.0,0.0,0.3,0.0,0.0,0.0,0.0,0.0,2.1008530072249645,stabilize,85.0,2.0,0.0,0.0,-2.0,0.10085300722496449,0.0,0,0
1761126300.0314274,17.350937843322754,0.0,0.0,2.0999085868132674,0.0,0.0,-0.007329627167811284,0.0,0.0,0.0,0.8,0.0,0.0,0.0,0.0,0.0,2.0999085868132674,stabilize,85.0,2.0,0.0,0.0,-2.0,0.09990858681326742,0.0,0,0
1761126300.1350543,17.454564809799194,0.0,0.0,2.0979618921752996,0.0,0.0,0.011707376471850488,0.0,0.0,0.0,0.8,0.0,0.0,0.0,0.0,0.0,2.0979618921752996,stabilize,85.0,2.0,0.0,0.0,-2.0,0.0979618921752996,0.0,0,0
1761126300.238706,17.55821657180786,0.0,0.0,2.0971308239718356,0.0,0.0,0.023704961147896955,0.0,0.0,0.0,0.7875516145062245,0.0,0.0,0.0,0.0,0.0,2.0971308239718356,stabilize,85.0,2.0,0.0,0.0,-2.0,0.09713082397183559,0.0,0,0
1761126300.3442464,17.663756847381592,0.0,0.0,2.0968864568137353,0.0,0.0,-0.01461701304648854,0.0,0.0,0.0,0.3,0.0,0.0,0.0,0.0,0.0,2.0968864568137353,stabilize,85.0,2.0,0.0,0.0,-2.0,0.09688645681373531,0.0,0,0
1761126300.4464643,17.765974760055542,0.0,0.0,2.095626753172617,0.0,0.0,0.023661822300074575,0.0,0.0,0.0,0.8,0.0,0.0,0.0,0.0,0.0,2.095626753172617,stabilize,85.0,2.0,0.0,0.0,-2.0,0.09562675317261693,0.0,0,0
1761126300.5509958,17.870506286621094,0.0,0.0,2.09591354633944,0.0,0.0,0.036274900649134655,0.0,0.0,0.0,0.8,0.0,0.0,0.0,0.0,0.0,2.09591354633944,stabilize,85.0,2.0,0.0,0.0,-2.0,0.09591354633943983,0.0,0,0
1761126300.6532664,17.972776889801025,0.0,0.0,2.0974989879078048,0.0,0.0,0.04247115691097515,0.0,0.0,0.0,0.7892015145852886,0.0,0.0,0.0,0.0,0.0,2.0974989879078048,stabilize,85.0,2.0,0.0,0.0,-2.0,0.09749898790780476,0.0,0,0
1761126300.7612813,18.08079171180725,0.0,0.0,2.09756929837853,0.0,0.0,0.02550020347296223,0.0,0.0,0.0,0.8,0.0,0.0,0.0,0.0,0.0,2.09756929837853,stabilize,85.0,2.0,0.0,0.0,-2.0,0.0975692983785299,0.0,0,0
1761126300.8628595,18.18236994743347,0.0,0.0,2.0983786733037437,0.0,0.0,0.03347519190636758,0.0,0.0,0.0,0.8,0.0,0.0,0.0,0.0,0.0,2.0983786733037437,stabilize,85.0,2.0,0.0,0.0,-2.0,0.09837867330374372,0.0,0,0
1761126300.9643066,18.283817052841187,0.0,0.0,2.0998081281555008,0.0,0.0,0.015078089592059715,0.0,0.0,0.0,0.6377554325898969,0.0,0.0,0.0,0.0,0.0,2.0998081281555008,stabilize,85.0,2.0,0.0,0.0,-2.0,0.09980812815550077,0.0,0,0
1761126301.0662823,18.38579273223877,0.0,0.0,2.1002531287517683,0.0,0.0,0.023066570397144773,0.0,0.0,0.0,0.7049476004984111,0.0,0.0,0.0,0.0,0.0,2.1002531287517683,stabilize,85.0,2.0,0.0,0.0,-2.0,0.10025312875176828,0.0,0,0
1761126301.1697435,18.489253997802734,0.0,0.0,2.1010810148135057,0.0,0.0,0.03882689626134535,0.0,0.0,0.0,0.8,0.0,0.0,0.0,0.0,0.0,2.1010810148135057,stabilize,85.0,2.0,0.0,0.0,-2.0,0.10108101481350573,0.0,0,0
1761126301.273821,18.593331575393677,0.0,0.0,2.1004683780601026,0.0,0.0,0.025428118672259636,0.0,0.0,0.0,0.8,0.0,0.0,0.0,0.0,0.0,2.1004683780601026,stabilize,85.0,2.0,0.0,0.0,-2.0,0.10046837806010256,0.0,0,0
1761126301.376307,18.695817470550537,0.0,0.0,2.101327679404142,0.0,0.0,0.03973251111223712,0.0,0.0,0.0,0.8,0.0,0.0,0.0,0.0,0.0,2.101327679404142,stabilize,85.0,2.0,0.0,0.0,-2.0,0.10132767940414178,0.0,0,0
1761126301.479726,18.799236536026,0.0,0.0,2.102464989368514,0.0,0.0,0.03684078458652972,0.0,0.0,0.0,0.7599024775932594,0.0,0.0,0.0,0.0,0.0,2.102464989368514,stabilize,85.0,2.0,0.0,0.0,-2.0,0.10246498936851411,0.0,0,0
1761126301.5835214,18.903031826019287,0.0,0.0,2.1032143402299077,0.0,0.0,0.017446060495666146,0.0,0.0,0.0,0.8,0.0,0.0,0.0,0.0,0.0,2.1032143402299077,stabilize,85.0,2.0,0.0,0.0,-2.0,0.10321434022990772,0.0,0,0
1761126301.6860285,19.005538940429688,0.0,0.0,2.103993495033924,0.0,0.0,0.04161409618250337,0.0,0.0,0.0,0.8,0.0,0.0,0.0,0.0,0.0,2.103993495033924,stabilize,85.0,2.0,0.0,0.0,-2.0,0.10399349503392408,0.0,0,0
1761126301.7945912,19.11410164833069,0.0,0.0,2.1036121293445698,0.0,0.0,0.020048420879803658,0.0,0.0,0.0,0.8,0.0,0.0,0.0,0.0,0.0,2.1036121293445698,stabilize,85.0,2.0,0.0,0.0,-2.0,0.10361212934456976,0.0,0,0
1761126301.9011953,19.22070574760437,0.0,0.0,2.1036174748432837,0.0,0.0,0.010682266016476316,0.0,0.0,0.0,0.8,0.0,0.0,0.0,0.0,0.0,2.1036174748432837,stabilize,85.0,2.0,0.0,0.0,-2.0,0.10361747484328365,0.0,0,0
1761126302.00401,19.32352042198181,0.0,0.0,2.103235345285622,0.0,0.0,0.02005596254816504,0.0,0.0,0.0,0.8,0.0,0.0,0.0,0.0,0.0,2.103235345285622,stabilize,85.0,2.0,0.0,0.0,-2.0,0.10323534528562206,0.0,0,0
1761126302.1084802,19.427990674972534,0.0,0.0,2.103882377701077,0.0,0.0,0.03821512256719198,0.0,0.0,0.0,0.8,0.0,0.0,0.0,0.0,0.0,2.103882377701077,stabilize,85.0,2.0,0.0,0.0,-2.0,0.10388237770107711,0.0,0,0
1761126302.2114174,19.530927896499634,0.0,0.0,2.104156727765771,0.0,0.0,-0.05142126686335937,0.0,0.0,0.0,0.3,0.0,0.0,0.0,0.0,0.0,2.104156727765771,stabilize,85.0,2.0,0.0,0.0,-2.0,0.1041567277657709,0.0,0,0
1761126302.314064,19.63357448577881,0.0,0.0,2.1051301998305756,0.0,0.0,0.021341388184310348,0.0,0.0,0.0,0.6650395103427422,0.0,0.0,0.0,0.0,0.0,2.1051301998305756,stabilize,85.0,2.0,0.0,0.0,-2.0,0.10513019983057559,0.0,0,0
1761126302.4173272,19.73683762550354,0.0,0.0,2.1060672931373783,0.0,0.0,0.04515014151104602,0.0,0.0,0.0,0.8,0.0,0.0,0.0,0.0,0.0,2.1060672931373783,stabilize,85.0,2.0,0.0,0.0,-2.0,0.10606729313737828,0.0,0,0
1761126302.522586,19.84209656715393,0.0,0.0,2.107785199666289,0.0,0.0,0.023631947579569046,0.0,0.0,0.0,0.6664763781274013,0.0,0.0,0.0,0.0,0.0,2.107785199666289,stabilize,85.0,2.0,0.0,0.0,-2.0,0.10778519966628908,0.0,0,0
1761126302.6259298,19.9454402923584,0.0,0.0,2.1083068133431726,0.0,0.0,0.015692675125737972,0.0,0.0,0.0,0.8,0.0,0.0,0.0,0.0,0.0,2.1083068133431726,stabilize,85.0,2.0,0.0,0.0,-2.0,0.1083068133431726,0.0,0,0
1761126302.7287583,20.048268795013428,0.0,0.0,2.1086330837357705,0.0,0.0,0.01504978210586078,0.0,0.0,0.0,0.6914552632057002,0.0,0.0,0.0,0.0,0.0,2.1086330837357705,stabilize,85.0,2.0,0.0,0.0,-2.0,0.10863308373577052,0.0,0,0
1761126302.8316658,20.15117621421814,0.0,0.0,2.1089873546056275,0.0,0.0,0.018768531035606807,0.0,0.0,0.0,0.6952714417124534,0.0,0.0,0.0,0.0,0.0,2.1089873546056275,stabilize,85.0,2.0,0.0,0.0,-2.0,0.10898735460562747,0.0,0,0
1761126302.9350336,20.254544019699097,0.0,0.0,2.1095009572870116,0.0,0.0,0.035132044859169154,0.0,0.0,0.0,0.8,0.0,0.0,0.0,0.0,0.0,2.1095009572870116,stabilize,85.0,2.0,0.0,0.0,-2.0,0.10950095728701159,0.0,0,0
1761126303.0430326,20.3625431060791,0.0,0.0,2.1105479859555842,0.0,0.0,0.00428402090233846,0.0,0.0,0.0,0.6267531782760516,0.0,0.0,0.0,0.0,0.0,2.1105479859555842,stabilize,85.0,2.0,0.0,0.0,-2.0,0.11054798595558424,0.0,0,0
1761126303.14532,20.46483039855957,0.0,0.0,2.110005266086541,0.0,0.0,0.01963677653438826,0.0,0.0,0.0,0.8,0.0,0.0,0.0,0.0,0.0,2.110005266086541,stabilize,85.0,2.0,0.0,0.0,-2.0,0.11000526608654093,0.0,0,0
1761126303.2486656,20.56817603111267,0.0,0.0,2.1100890862825863,0.0,0.0,0.0296700226180243,0.0,0.0,0.0,0.8,0.0,0.0,0.0,0.0,0.0,2.1100890862825863,stabilize,85.0,2.0,0.0,0.0,-2.0,0.11008908628258629,0.0,0,0
1761126303.3578458,20.677356243133545,0.0,0.0,2.110629012068968,0.0,0.0,0.03513705170798832,0.0,0.0,0.0,0.7700957351169186,0.0,0.0,0.0,0.0,0.0,2.110629012068968,stabilize,85.0,2.0,0.0,0.0,-2.0,0.11062901206896791,0.0,0,0
1761126303.4626093,20.782119750976562,0.0,0.0,2.1119823275412246,0.0,0.0,0.030269937986196406,0.0,0.0,0.0,0.8,0.0,0.0,0.0,0.0,0.0,2.1119823275412246,stabilize,85.0,2.0,0.0,0.0,-2.0,0.11198232754122461,0.0,0,0
1761126303.5667899,20.886300325393677,0.0,0.0,2.1131169325830967,0.0,0.0,0.02670687219977338,0.0,0.0,0.0,0.8,0.0,0.0,0.0,0.0,0.0,2.1131169325830967,stabilize,85.0,2.0,0.0,0.0,-2.0,0.11311693258309674,0.0,0,0
1761126303.6710346,20.99054503440857,0.0,0.0,2.1137303677800974,0.0,0.0,0.03373036397732912,0.0,0.0,0.0,0.8,0.0,0.0,0.0,0.0,0.0,2.1137303677800974,stabilize,85.0,2.0,0.0,0.0,-2.0,0.11373036778009737,0.0,0,0
1761126303.7752678,21.094778299331665,0.0,0.0,2.1138817692388314,0.0,0.0,0.03125237646221926,0.0,0.0,0.0,0.8,0.0,0.0,0.0,0.0,0.0,2.1138817692388314,stabilize,85.0,2.0,0.0,0.0,-2.0,0.11388176923883142,0.0,0,0
1761126303.8804033,21.19991374015808,0.0,0.0,2.1139953145685952,0.0,0.0,0.006625688326331321,0.0,0.0,0.0,0.8,0.0,0.0,0.0,0.0,0.0,2.1139953145685952,stabilize,85.0,2.0,0.0,0.0,-2.0,0.11399531456859524,0.0,0,0
1761126303.984126,21.30363655090332,0.0,0.0,2.113453640265824,0.0,0.0,0.02988994268729612,0.0,0.0,0.0,0.8,0.0,0.0,0.0,0.0,0.0,2.113453640265824,stabilize,85.0,2.0,0.0,0.0,-2.0,0.11345364026582416,0.0,0,0
1761126304.0874453,21.40695571899414,0.0,0.0,2.1143850932496755,0.0,0.0,0.04077878324991862,0.0,0.0,0.0,0.8,0.0,0.0,0.0,0.0,0.0,2.1143850932496755,stabilize,85.0,2.0,0.0,0.0,-2.0,0.1143850932496755,0.0,0,0
1761126304.1925342,21.512044668197632,0.0,0.0,2.114434333264014,0.0,0.0,0.029198971811206217,0.0,0.0,0.0,0.8,0.0,0.0,0.0,0.0,0.0,2.114434333264014,stabilize,85.0,2.0,0.0,0.0,-2.0,0.11443433326401387,0.0,0,0
1761126304.300095,21.619605541229248,0.0,0.0,2.1134515983377082,0.0,0.0,-0.0359717044729679,0.0,0.0,0.0,0.3,0.0,0.0,0.0,0.0,0.0,2.1134515983377082,stabilize,85.0,2.0,0.0,0.0,-2.0,0.11345159833770824,0.0,0,0
1761126304.4041083,21.723618745803833,0.0,0.0,2.1123291710415364,0.0,0.0,-0.042688057422341275,0.0,0.0,0.0,0.3,0.0,0.0,0.0,0.0,0.0,2.1123291710415364,stabilize,85.0,2.0,0.0,0.0,-2.0,0.11232917104153639,0.0,0,0
1761126304.5080113,21.827521800994873,0.0,0.0,2.110520968630252,0.0,0.0,-0.05036426794717386,0.0,0.0,0.0,0.3,0.0,0.0,0.0,0.0,0.0,2.110520968630252,stabilize,85.0,2.0,0.0,0.0,-2.0,0.11052096863025218,0.0,0,0
1761126304.6127279,21.932238340377808,0.0,0.0,2.1089017991503245,0.0,0.0,-0.02437554037443155,0.0,0.0,0.0,0.3,0.0,0.0,0.0,0.0,0.0,2.1089017991503245,stabilize,85.0,2.0,0.0,0.0,-2.0,0.1089017991503245,0.0,0,0
1761126304.7179775,22.037487983703613,0.0,0.0,2.106899912670578,0.0,0.0,-0.030050444790786286,0.0,0.0,0.0,0.3,0.0,0.0,0.0,0.0,0.0,2.106899912670578,stabilize,85.0,2.0,0.0,0.0,-2.0,0.10689991267057808,0.0,0,0
1761126304.822574,22.14208436012268,0.0,0.0,2.1065239700357856,0.0,0.0,-0.030383165773607182,0.0,0.0,0.0,0.3,0.0,0.0,0.0,0.0,0.0,2.1065239700357856,stabilize,85.0,2.0,0.0,0.0,-2.0,0.10652397003578562,0.0,0,0
1761126304.9268327,22.24634313583374,0.0,0.0,2.106609320758163,0.0,0.0,-0.03642740153573876,0.0,0.0,0.0,0.3,0.0,0.0,0.0,0.0,0.0,2.106609320758163,stabilize,85.0,2.0,0.0,0.0,-2.0,0.10660932075816287,0.0,0,0
1761126305.031891,22.351401567459106,0.0,0.0,2.1059691981191158,0.0,0.0,-0.03043267374423854,0.0,0.0,0.0,0.3,0.0,0.0,0.0,0.0,0.0,2.1059691981191158,stabilize,85.0,2.0,0.0,0.0,-2.0,0.10596919811911576,0.0,0,0
1761126305.1367152,22.456225633621216,0.0,0.0,2.1061112697530824,0.0,0.0,-0.017614669461107763,0.0,0.0,0.0,0.3,0.0,0.0,0.0,0.0,0.0,2.1061112697530824,stabilize,85.0,2.0,0.0,0.0,-2.0,0.10611126975308238,0.0,0,0
1761126305.241416,22.56092643737793,0.0,0.0,2.106383157559612,0.0,0.0,-0.010630690759884869,0.0,0.0,0.0,0.3,0.0,0.0,0.0,0.0,0.0,2.106383157559612,stabilize,85.0,2.0,0.0,0.0,-2.0,0.10638315755961214,0.0,0,0
1761126305.3488004,22.66831088066101,0.0,0.0,2.104251940519267,0.0,0.0,-0.044422033394052075,0.0,0.0,0.0,0.3,0.0,0.0,0.0,0.0,0.0,2.104251940519267,stabilize,85.0,2.0,0.0,0.0,-2.0,0.104251940519267,0.0,0,0
1761126305.4537892,22.77329969406128,0.0,0.0,2.1031111723995517,0.0,0.0,-0.0295695862009301,0.0,0.0,0.0,0.3,0.0,0.0,0.0,0.0,0.0,2.1031111723995517,stabilize,85.0,2.0,0.0,0.0,-2.0,0.1031111723995517,0.0,0,0
1761126305.555752,22.87526249885559,-0.0002909583973958495,0.0,2.1074664557535048,-0.02284488088023055,0.0,0.18427920104761958,0.0,0.10135782589245369,0.0,0.8,0.0,-0.4,0.0,-0.0002909583973958495,0.0,2.1074664557535048,auto,85.0,5,10.0,0.0,-5.0,10.41021467392464,0.1013578258924537,0,0
1761126305.659915,22.97942543029785,-0.024250084735352805,0.0,2.1410131756540296,-0.6056437034648867,0.0,0.3722435617871265,0.0,0.9400501650395934,0.0,0.8,0.0,-0.4,0.0,-0.024250084735352805,0.0,2.1410131756540296,auto,85.0,5,10.0,0.0,-5.0,10.423981745144252,0.9400501650395934,0,0
1761126305.7639909,23.08350133895874,-0.15329994595519286,0.0,2.1364185404277265,-1.8113906172740533,0.0,-0.8156160719748262,0.0,2.625087591111213,0.0,0.8,0.0,-0.4,0.0,-0.15329994595519286,0.0,2.1364185404277265,auto,85.0,5,10.0,0.0,-5.0,10.549388540012155,2.625087591111213,0,0
1761126305.8677063,23.187216758728027,-0.3284419744660494,0.0,1.937814367418916,-1.2020982213015694,0.0,-2.806651906710847,0.0,-1.6729569309680181,0.0,0.8,0.0,0.4,0.0,-0.3284419744660494,0.0,1.937814367418916,auto,85.0,5,10.0,0.0,-5.0,10.772822028990275,1.6729569309680181,0,0
1761126305.9722354,23.291745901107788,-0.3892074959630031,0.0,1.6178770470542567,-0.1289756009775716,0.0,-3.069163641902481,0.0,-0.27897035049316343,0.0,0.8,0.0,-0.4,0.0,-0.3892074959630031,0.0,1.6178770470542567,auto,85.0,5,10.0,0.0,-5.0,10.925858687673765,0.27897035049316343,0,0
1761126306.0770278,23.396538257598877,-0.4229756558485847,0.0,1.3066939198595668,-0.8404604369272275,0.0,-3.14212735956041,0.0,1.7578957938812438,0.0,0.8,0.0,-0.4,0.0,-0.4229756558485847,0.0,1.3066939198595668,auto,85.0,5,10.0,0.0,-5.0,11.057980436047739,1.7578957938812438,0,0
1761126306.1818745,23.501384973526,-0.5398696886351441,0.0,0.8756533743807202,-0.8613908452332477,0.0,-5.089121556749639,0.0,-1.8357063365196242,0.0,0.8,0.0,0.4,0.0,-0.5398696886351441,0.0,0.8756533743807202,auto,85.0,5,10.0,0.0,-5.0,11.318086770371883,1.8357063365196242,0,0
1761126306.2924378,23.611948251724243,-0.5739570208094313,0.0,0.2947053792376639,-0.14743944595795663,0.0,-5.122343103494133,0.0,0.5228938443939294,0.0,0.8,0.0,-0.4,0.0,-0.5739570208094313,0.0,0.2947053792376639,auto,85.0,5,10.0,0.0,-5.0,11.573606375978926,0.5228938443939294,0,0
1761126306.3959503,23.715460777282715,-0.6449530467167303,0.0,-0.2702125357158909,-1.0520894590793346,0.0,-6.283366777554629,0.0,-2.929400359741993,0.0,0.8,0.0,-0.4,0.0,-0.6449530467167303,0.0,-0.2702125357158909,auto,85.0,5.083510875701904,10.0,0.0,-5.0,11.878138134338258,2.929400359741993,0,0
1761126306.5005312,23.82004165649414,-0.7009329278089472,0.0,-0.9909927655043576,-0.08532023260767627,0.0,-6.962811489747144,0.0,-0.06545611215742708,0.0,0.8,0.0,-0.4,0.0,-0.7009329278089472,0.0,-0.9909927655043576,auto,85.0,5.292672634124756,10.0,0.0,-5.0,12.263847676883113,0.06545611215742708,0,0
1761126306.603378,23.92288851737976,-0.7497342303205501,0.0,-1.7107378456301172,-0.9639032562319925,0.0,-7.555489969112059,0.0,2.9006684604129918,0.0,0.8,0.0,-0.4,0.0,-0.7497342303205501,0.0,-1.7107378456301172,auto,85.0,5.498366355895996,10.0,0.0,-5.0,12.67244208727338,2.9006684604129918,0,0
1761126306.7073953,24.02690577507019,-0.8093319965654419,0.0,-2.570812069885032,-0.08239631055668452,0.0,-8.419700611999335,0.0,-0.21298882047899376,0.0,0.8,0.0,-0.4,0.0,-0.8093319965654419,0.0,-2.570812069885032,auto,85.0,5.7064008712768555,10.0,0.0,-5.0,13.196925915132294,0.21298882047899376,0,0
1761126306.811591,24.131101369857788,-0.8547544680694542,0.0,-3.448057153195598,-0.8740842342372527,0.0,-8.981224058941036,0.0,3.130996982184117,0.0,0.8,0.0,-0.4,0.0,-0.8547544680694542,0.0,-3.448057153195598,auto,85.0,5.914792060852051,10.0,0.0,-5.0,13.754830577863657,3.130996982184117,0,0
1761126306.9139435,24.23345398902893,-0.8989490254077392,0.0,-4.419830087052641,-0.10493329653445402,0.0,-9.439772782971893,0.0,0.33491045936052266,0.0,0.8,0.0,-0.4,0.0,-0.8989490254077392,0.0,-4.419830087052641,auto,85.0,6.119497299194336,10.0,0.0,-5.0,14.405564505682465,0.33491045936052266,0,0
1761126307.0226378,24.342148303985596,-0.9594771113124837,0.0,-5.478827924896248,-0.5832613582000516,0.0,-10.498082872526181,0.0,-1.947903270051876,0.0,0.8,0.0,0.4,0.0,-0.9594771113124837,0.0,-5.478827924896248,auto,85.0,6.336885929107666,10.0,0.0,-5.0,15.162980354566434,1.947903270051876,0,0
1761126307.1284933,24.4480037689209,-0.9860727478269083,0.0,-6.583833701469607,-0.5196454522202121,0.0,-10.342495479584922,0.0,1.8042339936425384,0.0,0.8,0.0,-0.4,0.0,-0.9860727478269083,0.0,-6.583833701469607,auto,85.0,6.5485968589782715,10.0,0.0,-5.0,15.96493024237338,1.8042339936425384,0,0
1761126307.23233,24.55184054374695,-1.0425683228124778,0.0,-7.728999531360996,-0.10455869900925392,0.0,-11.314373737313646,0.0,-0.4564428497333572,0.0,0.8,0.0,0.4,0.0,-1.0425683228124778,0.0,-7.728999531360996,auto,85.0,6.756270408630371,10.0,0.0,-5.0,16.851283162814934,0.4564428497333572,0,0
1761126307.3401768,24.659687280654907,-1.0858662010437723,0.0,-8.94189112406994,-0.6856212434666416,0.0,-11.79519587394893,0.0,-2.5785316430430156,0.0,0.8,0.0,0.4,0.0,-1.0858662010437723,0.0,-8.94189112406994,auto,85.0,6.971963882446289,10.0,0.0,-5.0,17.812151962715365,2.5785316430430156,0,0
1761126307.444623,24.76413345336914,-1.112898634525363,0.0,-10.184195103173458,-0.3521589638815148,0.0,-11.69088648331561,0.0,1.501482269323866,0.0,0.8,0.0,-0.4,0.0,-1.112898634525363,0.0,-10.184195103173458,auto,85.0,7.180856227874756,10.0,0.0,-5.0,18.81638373844646,1.501482269323866,0,0
1761126307.550865,24.870375394821167,-1.160323663326459,0.0,-11.487484563183168,-0.044420355373999604,0.0,-12.470552242552415,0.0,-0.2944356145826761,0.0,0.8,0.0,0.4,0.0,-1.160323663326459,0.0,-11.487484563183168,auto,85.0,7.393340110778809,10.0,0.0,-5.0,19.90954473340382,0.2944356145826761,0,0
1761126307.6556723,24.97518277168274,-1.1988110129765883,0.0,-12.79243098379909,-0.4719460370372828,0.0,-12.984037163915081,0.0,-2.0534597558936465,0.0,0.8,0.0,0.4,0.0,-1.1988110129765883,0.0,-12.79243098379909,auto,85.0,7.602954864501953,10.0,0.0,-5.0,21.02341476586569,2.0534597558936465,0,0
1761126307.7610555,25.080565929412842,-1.2215508202516736,0.0,-14.14627139593614,-0.5479545825248076,0.0,-12.842884350333808,0.0,2.4989941111083698,0.0,0.8,0.0,-0.4,0.0,-1.2215508202516736,0.0,-14.14627139593614,auto,85.0,7.813721179962158,10.0,0.0,-5.0,22.19240661078319,2.4989941111083698,0,0
1761126307.8651357,25.184646129608154,-1.2512465382753348,0.0,-15.523503466142706,-0.1317516560429176,0.0,-13.036246077493411,0.0,0.9651311287981614,0.0,0.8,0.0,-0.4,0.0,-1.2512465382753348,0.0,-15.523503466142706,auto,85.0,8.021881580352783,10.0,0.0,-5.0,23.405228971104393,0.9651311287981614,0,0
1761126307.969885,25.289395570755005,-1.2872452263980547,0.0,-16.929297924096094,-0.011151612696175789,0.0,-13.598266213776945,0.0,-0.2980873823992226,0.0,0.8,0.0,0.4,0.0,-1.2872452263980547,0.0,-16.929297924096094,auto,85.0,8.231380462646484,10.0,0.0,-5.0,24.66365772233735,0.2980873823992226,0,0
1761126308.0745347,25.394045114517212,-1.3194430495182803,0.0,-18.348813011161415,-0.26969849562618536,0.0,-14.006194996195065,0.0,-1.5830055244333194,0.0,0.8,0.0,0.4,0.0,-1.3194430495182803,0.0,-18.348813011161415,auto,85.0,8.440679550170898,10.0,0.0,-5.0,25.94796446701491,1.5830055244333194,0,0
1761126308.1783595,25.497869968414307,-1.340933153178864,0.0,-19.778855215737604,-0.5174738668515381,0.0,-13.982979543863253,0.0,-2.9312301603513964,0.0,0.8,0.0,-0.4,0.0,-1.340933153178864,0.0,-19.778855215737604,auto,85.0,8.648329257965088,10.0,0.0,-5.0,27.25084275003909,2.9312301603513964,0,0
1761126308.2828178,25.602328300476074,-1.3601060711791955,0.0,-21.244089164458256,-0.38141572745840013,0.0,-13.85583093213841,0.0,2.1149323195181817,0.0,0.8,0.0,-0.4,0.0,-1.3601060711791955,0.0,-21.244089164458256,auto,85.0,8.857245922088623,10.0,0.0,-5.0,28.59727654900861,2.1149323195181817,0,0
1761126308.385916,25.705426454544067,-1.3835773349178675,0.0,-22.710575828180957,-0.05359698062139617,0.0,-14.023008772885083,0.0,0.8796252624381038,0.0,0.8,0.0,-0.4,0.0,-1.3835773349178675,0.0,-22.710575828180957,auto,85.0,9.06344223022461,10.0,0.0,-5.0,29.95766756056657,0.8796252624381038,0,0
1761126308.4906704,25.81018090248108,-1.4111272374242128,0.0,-24.211282179349958,0.04762190684304044,0.0,-14.412936121817665,0.0,-0.14331549832516566,0.0,0.8,0.0,0.4,0.0,-1.4111272374242128,0.0,-24.211282179349958,auto,85.0,9.272951126098633,10.0,0.0,-5.0,31.361008137339798,0.14331549832516566,0,0
1761126308.598283,25.91779351234436,-1.4363289118808094,0.0,-25.763813928681095,-0.043256081988488876,0.0,-14.716150703710875,0.0,-0.9230760108611109,0.0,0.8,0.0,0.4,0.0,-1.4363289118808094,0.0,-25.763813928681095,auto,85.0,9.488176345825195,10.0,0.0,-5.0,32.82075359310377,0.9230760108611109,0,0
1761126308.7032015,26.022711992263794,-1.4566263250880658,0.0,-27.288474596106088,-0.22681162825272475,0.0,-14.87123464159188,0.0,-1.7259254755334792,0.0,0.8,0.0,0.4,0.0,-1.4566263250880658,0.0,-27.288474596106088,auto,85.0,9.698013305664062,10.0,0.0,-5.0,34.26076295846444,1.7259254755334792,0,0
