timestamp,simulation_time,position_x,position_y,position_z,velocity_x,velocity_y,velocity_z,attitude_roll,attitude_pitch,attitude_yaw,control_throttle,control_roll,control_pitch,control_yaw,flight_mode
1761301945.587481,0.10510373115539551,0.0,0.0,-0.0,0.0,0.0,-0.0,0.0,0.0,0.0,0.0,0.0,0.0,0.0,manual
1761301945.6912122,0.20883488655090332,0.0,0.0,-0.0,0.0,0.0,-0.0,0.0,0.0,0.0,0.0,0.0,0.0,0.0,manual
1761301945.7944407,0.31206345558166504,0.0,0.0,-0.0,0.0,0.0,-0.0,0.0,0.0,0.0,0.0,0.0,0.0,0.0,manual
1761301945.8965929,0.4142155647277832,0.0,0.0,-0.0,0.0,0.0,-0.0,0.0,0.0,0.0,0.0,0.0,0.0,0.0,manual
1761301946.0012643,0.5188870429992676,0.0,0.0,-0.0,0.0,0.0,-0.0,0.0,0.0,0.0,0.0,0.0,0.0,0.0,manual
1761301946.106104,0.6237266063690186,0.0,0.0,-0.0,0.0,0.0,-0.0,0.0,0.0,0.0,0.0,0.0,0.0,0.0,manual
1761301946.2104495,0.7280721664428711,0.0,0.0,-0.0,0.0,0.0,-0.0,0.0,0.0,0.0,0.0,0.0,0.0,0.0,manual
1761301946.3167388,0.8343615531921387,0.0,0.0,-0.0,0.0,0.0,-0.0,0.0,0.0,0.0,0.0,0.0,0.0,0.0,manual
1761301946.4226189,0.9402415752410889,0.0,0.0,-0.0,0.0,0.0,-0.0,0.0,0.0,0.0,0.0,0.0,0.0,0.0,manual
1761301946.5256772,1.043299913406372,0.0,0.0,-0.0,0.0,0.0,-0.0,0.0,0.0,0.0,0.0,0.0,0.0,0.0,manual
1761301946.6290965,1.146719217300415,0.0,0.0,-0.0,0.0,0.0,-0.0,0.0,0.0,0.0,0.0,0.0,0.0,0.0,manual
1761301946.7760217,1.2936444282531738,0.0,0.0,-0.0,0.0,0.0,-0.0,0.0,0.0,0.0,0.0,0.0,0.0,0.0,manual
1761301946.8823817,1.4000043869018555,0.0,0.0,-0.0,0.0,0.0,-0.0,0.0,0.0,0.0,0.0,0.0,0.0,0.0,manual
1761301946.9851136,1.5027363300323486,0.0,0.0,-0.0,0.0,0.0,-0.0,0.0,0.0,0.0,0.0,0.0,0.0,0.0,manual
1761301947.0883148,1.6059374809265137,0.0,0.0,-0.0,0.0,0.0,-0.0,0.0,0.0,0.0,0.0,0.0,0.0,0.0,manual
1761301947.1952841,1.712906837463379,0.0,0.0,-0.0,0.0,0.0,-0.0,0.0,0.0,0.0,0.0,0.0,0.0,0.0,manual
1761301947.2998695,1.8174922466278076,0.0,0.0,-0.0,0.0,0.0,-0.0,0.0,0.0,0.0,0.0,0.0,0.0,0.0,manual
1761301947.404438,1.9220607280731201,0.0,0.0,-0.0,0.0,0.0,-0.0,0.0,0.0,0.0,0.0,0.0,0.0,0.0,manual
1761301947.5079033,2.0255260467529297,0.0,0.0,-0.0,0.0,0.0,-0.0,0.0,0.0,0.0,0.0,0.0,0.0,0.0,manual
1761301947.6108553,2.1284780502319336,0.0,0.0,-0.0,0.0,0.0,-0.0,0.0,0.0,0.0,0.0,0.0,0.0,0.0,manual
1761301947.7196429,2.2372655868530273,0.0,0.0,0.0240941032877921,0.0,0.0,0.8516127318167867,0.0,0.0,0.0,1.0,0.0,0.0,0.0,stabilize
1761301947.825192,2.3428146839141846,0.0,0.0,0.1717984850244409,0.0,0.0,1.6145602766086142,0.0,0.0,0.0,0.5349584963481877,0.0,0.0,0.0,stabilize
1761301947.9290388,2.4466614723205566,0.0,0.0,0.3442432298608701,0.0,0.0,1.6812387699701457,0.0,0.0,0.0,0.43948117598952474,0.0,0.0,0.0,stabilize
1761301948.0309563,2.548578977584839,0.0,0.0,0.5139990986009673,0.0,0.0,1.6360307608184603,0.0,0.0,0.0,0.4165019694658542,0.0,0.0,0.0,stabilize
1761301948.1365645,2.6541872024536133,0.0,0.0,0.681697160238741,0.0,0.0,1.5339532233710307,0.0,0.0,0.0,0.39435898792342017,0.0,0.0,0.0,stabilize
1761301948.240933,2.7585556507110596,0.0,0.0,0.8352358534293338,0.0,0.0,1.405861926625959,0.0,0.0,0.0,0.37953005250007077,0.0,0.0,0.0,stabilize
1761301948.3453429,2.8629655838012695,0.0,0.0,0.9749892052504805,0.0,0.0,1.2706998540561287,0.0,0.0,0.0,0.3816648842259942,0.0,0.0,0.0,stabilize
1761301948.4542644,2.9718871116638184,0.0,0.0,1.1057504280411616,0.0,0.0,1.1314154677492652,0.0,0.0,0.0,0.3827025267347878,0.0,0.0,0.0,stabilize
1761301948.5582058,3.0758285522460938,0.0,0.0,1.2167930713716282,0.0,0.0,1.0067545211226272,0.0,0.0,0.0,0.3868325755256499,0.0,0.0,0.0,stabilize
1761301948.6606505,3.1782732009887695,0.0,0.0,1.3140503563798538,0.0,0.0,0.8936940723935113,0.0,0.0,0.0,0.39132311175677204,0.0,0.0,0.0,stabilize
1761301948.7646272,3.282249927520752,0.0,0.0,1.401470484643208,0.0,0.0,0.7896412712297409,0.0,0.0,0.0,0.39621450266935193,0.0,0.0,0.0,stabilize
1761301948.869361,3.386983633041382,0.0,0.0,1.4791597003767198,0.0,0.0,0.6956747375260276,0.0,0.0,0.0,0.4010211132783006,0.0,0.0,0.0,stabilize
1761301948.9738932,3.491515874862671,0.0,0.0,1.5474311780075676,0.0,0.0,0.6121897349208998,0.0,0.0,0.0,0.40562935757638885,0.0,0.0,0.0,stabilize
1761301949.0784361,3.5960588455200195,0.0,0.0,1.6074835817451238,0.0,0.0,0.5381677764034535,0.0,0.0,0.0,0.4097688769904523,0.0,0.0,0.0,stabilize
1761301949.1830301,3.700652837753296,0.0,0.0,1.6602786768582398,0.0,0.0,0.4727275503624181,0.0,0.0,0.0,0.41373121785204175,0.0,0.0,0.0,stabilize
1761301949.2937298,3.811352491378784,0.0,0.0,1.7091622748158313,0.0,0.0,0.4118231942650114,0.0,0.0,0.0,0.41701197725605543,0.0,0.0,0.0,stabilize
1761301949.398628,3.916250705718994,0.0,0.0,1.749651841441825,0.0,0.0,0.3612232858660031,0.0,0.0,0.0,0.42011813812305887,0.0,0.0,0.0,stabilize
1761301949.504941,4.022563695907593,0.0,0.0,1.7856055494319172,0.0,0.0,0.31614855556827537,0.0,0.0,0.0,0.42282860208083434,0.0,0.0,0.0,stabilize
1761301949.609125,4.1267476081848145,0.0,0.0,1.8164765942513992,0.0,0.0,0.2773143215992307,0.0,0.0,0.0,0.4250191108128311,0.0,0.0,0.0,stabilize
1761301949.7138078,4.231430530548096,0.0,0.0,1.8436731241628173,0.0,0.0,0.24301507942954056,0.0,0.0,0.0,0.42702684338442465,0.0,0.0,0.0,stabilize
1761301949.81888,4.33650279045105,0.0,0.0,1.8675849043857415,0.0,0.0,0.21279011375470286,0.0,0.0,0.0,0.4289472347155223,0.0,0.0,0.0,stabilize
1761301949.9246144,4.442237138748169,0.0,0.0,1.88845339651847,0.0,0.0,0.18631681126173713,0.0,0.0,0.0,0.43051994824191275,0.0,0.0,0.0,stabilize
1761301950.0284452,4.546067953109741,0.0,0.0,1.9067405588662207,0.0,0.0,0.1630444301408492,0.0,0.0,0.0,0.4318268526250565,0.0,0.0,0.0,stabilize
1761301950.133736,4.651358604431152,0.0,0.0,1.9228049909073521,0.0,0.0,0.14254461968539134,0.0,0.0,0.0,0.43316932618386755,0.0,0.0,0.0,stabilize
1761301950.240897,4.758519649505615,0.0,0.0,1.937077734100338,0.0,0.0,0.12425000203285909,0.0,0.0,0.0,0.43422230467411804,0.0,0.0,0.0,stabilize
1761301950.3468833,4.864506006240845,0.0,0.0,1.9493878073366842,0.0,0.0,0.10839626715149382,0.0,0.0,0.0,0.4351542923747792,0.0,0.0,0.0,stabilize
1761301950.4521706,4.969793319702148,0.0,0.0,1.9600581011417426,0.0,0.0,0.09458279172215896,0.0,0.0,0.0,0.43592684048666774,0.0,0.0,0.0,stabilize
1761301950.5554285,5.07305121421814,0.0,0.0,1.969198493065577,0.0,0.0,0.0826976503260633,0.0,0.0,0.0,0.4366280309830419,0.0,0.0,0.0,stabilize
1761301950.6605887,5.178211450576782,0.0,0.0,1.9773236931422162,0.0,0.0,0.07205501382850793,0.0,0.0,0.0,0.43727532446353307,0.0,0.0,0.0,stabilize
1761301950.76556,5.283182621002197,0.0,0.0,1.984388593908936,0.0,0.0,0.062748975598427,0.0,0.0,0.0,0.43787900164525323,0.0,0.0,0.0,stabilize
1761301950.870565,5.388187646865845,0.0,0.0,1.9905388263752133,0.0,0.0,0.05457691975215347,0.0,0.0,0.0,0.43840905157777776,0.0,0.0,0.0,stabilize
1761301950.97649,5.494112730026245,0.0,0.0,1.9959281293287692,0.0,0.0,0.04734216915331355,0.0,0.0,0.0,0.43877231888368384,0.0,0.0,0.0,stabilize
1761301951.0821867,5.599809408187866,0.0,0.0,2.0005908738286706,0.0,0.0,0.04101994706478332,0.0,0.0,0.0,0.4391620775935231,0.0,0.0,0.0,stabilize
1761301951.186121,5.7037436962127686,0.0,0.0,2.0045653256790823,0.0,0.0,0.035569667788195494,0.0,0.0,0.0,0.43949979148325435,0.0,0.0,0.0,stabilize
1761301951.2904284,5.808051109313965,0.0,0.0,2.0080199749911376,0.0,0.0,0.03077202620443793,0.0,0.0,0.0,0.4398094093681191,0.0,0.0,0.0,stabilize
1761301951.3977268,5.91534948348999,0.0,0.0,2.0110842273768648,0.0,0.0,0.02643291539602515,0.0,0.0,0.0,0.44000505843049365,0.0,0.0,0.0,stabilize
1761301951.5026207,6.020243406295776,0.0,0.0,2.013659784505462,0.0,0.0,0.022750242871317754,0.0,0.0,0.0,0.44036500600644923,0.0,0.0,0.0,stabilize
1761301951.6088803,6.126502990722656,0.0,0.0,2.015898038314041,0.0,0.0,0.019458188581908932,0.0,0.0,0.0,0.44051494797925433,0.0,0.0,0.0,stabilize
1761301951.714228,6.231850624084473,0.0,0.0,2.0177945196837026,0.0,0.0,0.016605131705216762,0.0,0.0,0.0,0.4406478732797895,0.0,0.0,0.0,stabilize
1761301951.8204606,6.338083267211914,0.0,0.0,2.0194223162973186,0.0,0.0,0.014091804912276597,0.0,0.0,0.0,0.44080972631373716,0.0,0.0,0.0,stabilize
1761301951.9244573,6.442080020904541,0.0,0.0,2.0207735995987868,0.0,0.0,0.011938913055818587,0.0,0.0,0.0,0.4409468219875475,0.0,0.0,0.0,stabilize
1761301952.0275404,6.545163154602051,0.0,0.0,2.021905754165821,0.0,0.0,0.010067292536503368,0.0,0.0,0.0,0.4410738160037562,0.0,0.0,0.0,stabilize
1761301952.1329813,6.650604009628296,0.0,0.0,2.022876648323278,0.0,0.0,0.00838719602713364,0.0,0.0,0.0,0.4411564797692794,0.0,0.0,0.0,stabilize
1761301952.2388868,6.75650954246521,0.0,0.0,2.023685178519282,0.0,0.0,0.00691390315957747,0.0,0.0,0.0,0.4412684172315807,0.0,0.0,0.0,stabilize
1761301952.3445022,6.862124919891357,0.0,0.0,2.0243462323628205,0.0,0.0,0.005629148725944101,0.0,0.0,0.0,0.4413141310885908,0.0,0.0,0.0,stabilize
1761301952.4549658,6.972588539123535,0.0,0.0,2.024902194247014,0.0,0.0,0.004470098004717792,0.0,0.0,0.0,0.44146210812416214,0.0,0.0,0.0,stabilize
1761301952.5603597,7.077982425689697,0.0,0.0,2.0253207205516195,0.0,0.0,0.003497014424375689,0.0,0.0,0.0,0.4414880191728924,0.0,0.0,0.0,stabilize
1761301952.664146,7.1817686557769775,0.0,0.0,2.0256395269883947,0.0,0.0,0.0026606910608396343,0.0,0.0,0.0,0.4415163763305108,0.0,0.0,0.0,stabilize
1761301952.7686172,7.286239862442017,0.0,0.0,2.0258787670641776,0.0,0.0,0.0019331095300709283,0.0,0.0,0.0,0.4415780140718437,0.0,0.0,0.0,stabilize
1761301952.8723185,7.389941215515137,0.0,0.0,2.026045601867035,0.0,0.0,0.0013017486883479539,0.0,0.0,0.0,0.4416418517757644,0.0,0.0,0.0,stabilize
1761301952.9786844,7.496307134628296,0.0,0.0,2.026152948837542,0.0,0.0,0.0007296557721274848,0.0,0.0,0.0,0.4416240741155067,0.0,0.0,0.0,stabilize
1761301953.0844245,7.6020472049713135,0.0,0.0,2.0262041510359055,0.0,0.0,0.0002462427547058608,0.0,0.0,0.0,0.4416969379326042,0.0,0.0,0.0,stabilize
1761301953.1887665,7.7063891887664795,0.0,0.0,2.026207741085611,0.0,0.0,-0.00016951452046117432,0.0,0.0,0.0,0.44168921704599284,0.0,0.0,0.0,stabilize
1761301953.2971292,7.814751863479614,0.0,0.0,2.0261682074629324,0.0,0.0,-0.0005453843121837593,0.0,0.0,0.0,0.44173554396749604,0.0,0.0,0.0,stabilize
1761301953.4001083,7.917731046676636,0.0,0.0,2.026095967064676,0.0,0.0,-0.0008529246153247305,0.0,0.0,0.0,0.4417412393616448,0.0,0.0,0.0,stabilize
1761301953.5061624,8.02378511428833,0.0,0.0,2.025990688362784,0.0,0.0,-0.0011267901476513574,0.0,0.0,0.0,0.44175444013404186,0.0,0.0,0.0,stabilize
1761301953.6104164,8.128039121627808,0.0,0.0,2.0258617965602714,0.0,0.0,-0.0013553536318117675,0.0,0.0,0.0,0.44178163749991134,0.0,0.0,0.0,stabilize
1761301953.7150476,8.232670307159424,0.0,0.0,2.0257083842670274,0.0,0.0,-0.0015605185838357676,0.0,0.0,0.0,0.4417860134670151,0.0,0.0,0.0,stabilize
1761301953.820299,8.337921619415283,0.0,0.0,2.0255353097627498,0.0,0.0,-0.0017264781132783629,0.0,0.0,0.0,0.4418209250179474,0.0,0.0,0.0,stabilize
1761301953.9264464,8.444069147109985,0.0,0.0,2.025343869433145,0.0,0.0,-0.0018732040914268475,0.0,0.0,0.0,0.44184513826922034,0.0,0.0,0.0,stabilize
1761301954.030677,8.548299789428711,0.0,0.0,2.0251419823936883,0.0,0.0,-0.001998255986458132,0.0,0.0,0.0,0.44182734537910373,0.0,0.0,0.0,stabilize
1761301954.1351306,8.652753353118896,0.0,0.0,2.024927924552078,0.0,0.0,-0.0020988337718251347,0.0,0.0,0.0,0.44184446572784536,0.0,0.0,0.0,stabilize
1761301954.2400184,8.757641077041626,0.0,0.0,2.0247030410293334,0.0,0.0,-0.0021846611845889596,0.0,0.0,0.0,0.4418604365590586,0.0,0.0,0.0,stabilize
1761301954.3435347,8.861157417297363,0.0,0.0,2.0244730177873986,0.0,0.0,-0.002256817418540843,0.0,0.0,0.0,0.4418526204216431,0.0,0.0,0.0,stabilize
1761301954.4472802,8.964902877807617,0.0,0.0,2.024235800315564,0.0,0.0,-0.002314406283234784,0.0,0.0,0.0,0.441883348031971,0.0,0.0,0.0,stabilize
1761301954.5520017,9.069624423980713,0.0,0.0,2.0239908164383333,0.0,0.0,-0.002364074524651254,0.0,0.0,0.0,0.4418585684357914,0.0,0.0,0.0,stabilize
1761301954.656064,9.173686742782593,0.0,0.0,2.023742995742476,0.0,0.0,-0.002399050826124368,0.0,0.0,0.0,0.4418851685941627,0.0,0.0,0.0,stabilize
1761301954.7572443,9.274867057800293,0.0,0.0,2.023498434880868,0.0,0.0,-0.002426400377987976,0.0,0.0,0.0,0.4418986443462942,0.0,0.0,0.0,stabilize
1761301954.8630772,9.380699872970581,0.0,0.0,2.0232403611147354,0.0,0.0,-0.002450437581446803,0.0,0.0,0.0,0.4418721633176663,0.0,0.0,0.0,stabilize
1761301954.972763,9.49038577079773,0.0,0.0,2.0229706977759734,0.0,0.0,-0.0024706929538379314,0.0,0.0,0.0,0.44178973326370613,0.0,0.0,0.0,stabilize
1761301955.0770762,9.594698905944824,0.0,0.0,2.0227132303406234,0.0,0.0,-0.0024717293939528046,0.0,0.0,0.0,0.44188767099181325,0.0,0.0,0.0,stabilize
1761301955.1837015,9.701324224472046,0.0,0.0,2.0224492830934215,0.0,0.0,-0.002474329090618533,0.0,0.0,0.0,0.4419185335202721,0.0,0.0,0.0,stabilize
1761301955.2890697,9.806692361831665,0.0,0.0,2.0221883099938878,0.0,0.0,-0.0024803122529959394,0.0,0.0,0.0,0.4418725895966434,0.0,0.0,0.0,stabilize
1761301955.4008825,9.918505191802979,0.0,0.0,2.0219138336152516,0.0,0.0,-0.0025086572960507036,0.0,0.0,0.0,0.44179262271795045,0.0,0.0,0.0,stabilize
1761301955.5056202,10.023242950439453,0.0,0.0,2.021653029014327,0.0,0.0,-0.0024645967881002442,0.0,0.0,0.0,0.4418703781561513,0.0,0.0,0.0,stabilize
1761301955.6098785,10.127501249313354,0.0,0.0,2.0213968366113706,0.0,0.0,-0.0024527555839243837,0.0,0.0,0.0,0.44188414938816856,0.0,0.0,0.0,stabilize
1761301955.7141957,10.231818437576294,0.0,0.0,2.0211416415195274,0.0,0.0,-0.0024419513490399466,0.0,0.0,0.0,0.44188231210399753,0.0,0.0,0.0,stabilize
1761301955.8189907,10.336613416671753,0.0,0.0,2.020886699897239,0.0,0.0,-0.0024250197997814776,0.0,0.0,0.0,0.4419097904477318,0.0,0.0,0.0,stabilize
1761301955.9228115,10.440434217453003,0.0,0.0,2.0206357513115942,0.0,0.0,-0.002408565792384739,0.0,0.0,0.0,0.44190430951289406,0.0,0.0,0.0,stabilize
1761301956.027687,10.545309782028198,0.0,0.0,2.020384019324382,0.0,0.0,-0.002391111155069303,0.0,0.0,0.0,0.44190794921347926,0.0,0.0,0.0,stabilize
1761301956.1326294,10.650252103805542,0.0,0.0,2.020134100164489,0.0,0.0,-0.0023752360906833165,0.0,0.0,0.0,0.44188322120330337,0.0,0.0,0.0,stabilize
1761301956.2392166,10.756839275360107,0.0,0.0,2.019882374676223,0.0,0.0,-0.002344133969747425,0.0,0.0,0.0,0.4419596256806824,0.0,0.0,0.0,stabilize
1761301956.3449247,10.862547397613525,0.0,0.0,2.0196351605215965,0.0,0.0,-0.002327887482745019,0.0,0.0,0.0,0.4419099973235506,0.0,0.0,0.0,stabilize
1761301956.4521117,10.96973443031311,0.0,0.0,2.0193867378790262,0.0,0.0,-0.0023069689905245035,0.0,0.0,0.0,0.4418951445143249,0.0,0.0,0.0,stabilize
1761301956.5581243,11.075747013092041,0.0,0.0,2.019143469069903,0.0,0.0,-0.002283007439415625,0.0,0.0,0.0,0.4419097441002433,0.0,0.0,0.0,stabilize
1761301956.6647024,11.1823251247406,0.0,0.0,2.018903516188726,0.0,0.0,-0.002256747090267926,0.0,0.0,0.0,0.4419249004802021,0.0,0.0,0.0,stabilize
1761301956.7704203,11.288043022155762,0.0,0.0,2.0186637676581127,0.0,0.0,-0.002236398346857265,0.0,0.0,0.0,0.4419036946349398,0.0,0.0,0.0,stabilize
1761301956.876648,11.394270658493042,0.0,0.0,2.0184275417358055,0.0,0.0,-0.0022102071628368482,0.0,0.0,0.0,0.44191250705604934,0.0,0.0,0.0,stabilize
1761301956.9808674,11.49849009513855,0.0,0.0,2.018198349190722,0.0,0.0,-0.002187319959138247,0.0,0.0,0.0,0.44189655800517147,0.0,0.0,0.0,stabilize
1761301957.087612,11.605234622955322,0.0,0.0,2.0179661541217877,0.0,0.0,-0.002160767647665885,0.0,0.0,0.0,0.4419211792179377,0.0,0.0,0.0,stabilize
1761301957.1923323,11.709954977035522,0.0,0.0,2.017741019915279,0.0,0.0,-0.0021412053226951455,0.0,0.0,0.0,0.44188096716772673,0.0,0.0,0.0,stabilize
1761301957.302771,11.820393800735474,0.0,0.0,2.0175061979792166,0.0,0.0,-0.0021135997659166663,0.0,0.0,0.0,0.4419089938352924,0.0,0.0,0.0,stabilize
1761301957.4069533,11.924576044082642,0.0,0.0,2.0172874618410366,0.0,0.0,-0.0020865210230189275,0.0,0.0,0.0,0.44191045135434504,0.0,0.0,0.0,stabilize
1761301957.5176528,12.03527545928955,0.0,0.0,2.017057724271726,0.0,0.0,-0.002058297141714071,0.0,0.0,0.0,0.44191848554986135,0.0,0.0,0.0,stabilize
1761301957.62252,12.140142679214478,0.0,0.0,2.016843021777319,0.0,0.0,-0.0020323159104943204,0.0,0.0,0.0,0.4419361890439379,0.0,0.0,0.0,stabilize
1761301957.7343147,12.25193738937378,0.0,0.0,2.0166187052301625,0.0,0.0,-0.0020293177423134855,0.0,0.0,0.0,0.44184769976433674,0.0,0.0,0.0,stabilize
1761301957.8342226,12.351845264434814,0.0,0.0,2.016416387539323,0.0,0.0,-0.001990856352623917,0.0,0.0,0.0,0.441904520229283,0.0,0.0,0.0,stabilize
1761301957.9442973,12.461920022964478,0.0,0.0,2.016197813560111,0.0,0.0,-0.0019725344958035442,0.0,0.0,0.0,0.4418753905674622,0.0,0.0,0.0,stabilize
1761301958.0840285,12.601651191711426,0.0,0.0,2.0159198508172755,0.0,0.0,-0.002195294676553191,0.0,0.0,0.0,0.44165178261573734,0.0,0.0,0.0,stabilize
1761301958.1888788,12.706501483917236,0.0,0.0,2.015706506358789,0.0,0.0,-0.0018662964484404132,0.0,0.0,0.0,0.4436903900268002,0.0,0.0,0.0,stabilize
1761301958.302749,12.820371627807617,0.0,0.0,2.015478722058743,0.0,0.0,-0.0018970250460767365,0.0,0.0,0.0,0.44206787888333254,0.0,0.0,0.0,stabilize
1761301958.4571238,12.974746465682983,0.0,0.0,2.0151772425591505,0.0,0.0,-0.002078530064178425,0.0,0.0,0.0,0.44175492898514296,0.0,0.0,0.0,stabilize
1761301958.5809734,13.098596096038818,0.0,0.0,2.0148863928961758,0.0,0.0,-0.0037175326828645014,0.0,0.0,0.0,0.44064647945532454,0.0,0.0,0.0,stabilize
1761301958.6963587,13.21398138999939,0.0,0.0,2.0146842581873967,0.0,0.0,-0.001480612041731912,0.0,0.0,0.0,0.4431891694694503,0.0,0.0,0.0,stabilize
1761301958.7966435,13.314266204833984,0.0,0.0,2.014498867537443,0.0,0.0,-0.0017985179614111958,0.0,0.0,0.0,0.44201689248740794,0.0,0.0,0.0,stabilize
1761301958.8972166,13.414839267730713,0.0,0.0,2.0143195750635474,0.0,0.0,-0.001690246176730237,0.0,0.0,0.0,0.4421975918319723,0.0,0.0,0.0,stabilize
1761301959.008458,13.52608060836792,0.0,0.0,2.0141333461216204,0.0,0.0,-0.0016149948280672905,0.0,0.0,0.0,0.442220408373463,0.0,0.0,0.0,stabilize
1761301959.129176,13.646798610687256,0.0,0.0,2.013931631618836,0.0,0.0,-0.0010614585662016443,0.0,0.0,0.0,0.44295155930155317,0.0,0.0,0.0,stabilize
1761301959.2384295,13.756052255630493,0.0,0.0,2.013770611371464,0.0,0.0,-0.0010828787890877082,0.0,0.0,0.0,0.4457866765540405,0.0,0.0,0.0,stabilize
1761301959.3621519,13.879774570465088,0.0,0.0,2.01360401181021,0.0,0.0,-0.0011102893651523701,0.0,0.0,0.0,0.44223081615705817,0.0,0.0,0.0,stabilize
1761301959.470354,13.987976789474487,0.0,0.0,2.0134387918242784,0.0,0.0,-0.001238894794040942,0.0,0.0,0.0,0.44328015812332283,0.0,0.0,0.0,stabilize
1761301959.5800793,14.097702026367188,0.0,0.0,2.0070402397325346,0.0,0.0,-0.1521792988570586,0.0,0.0,0.0,0.35,0.0,0.0,0.0,auto
1761301959.6862824,14.20390510559082,0.0,0.0,1.9806244634000398,0.0,0.0,-0.3452105391449933,0.0,0.0,0.0,0.35,0.0,0.0,0.0,auto
1761301959.7960575,14.313680171966553,0.0,0.0,1.9318032960392453,0.0,0.0,-0.5441364093546548,0.0,0.0,0.0,0.35,0.0,0.0,0.0,auto
1761301959.9003253,14.417948007583618,0.0,0.0,1.8652536641425783,0.0,0.0,-0.7322098670172941,0.0,0.0,0.0,0.35,0.0,0.0,0.0,auto
1761301960.0040622,14.521684885025024,0.0,0.0,1.7796389922886082,0.0,0.0,-0.9181899233692872,0.0,0.0,0.0,0.35,0.0,0.0,0.0,auto
1761301960.1101375,14.627760171890259,0.0,0.0,1.6722186243889123,0.0,0.0,-1.1069006739290392,0.0,0.0,0.0,0.35,0.0,0.0,0.0,auto
1761301960.2178698,14.735492467880249,0.0,0.0,1.542725434555196,0.0,0.0,-1.296752421678834,0.0,0.0,0.0,0.35,0.0,0.0,0.0,auto
1761301960.3244183,14.842041015625,0.0,0.0,1.4013011645112718,0.0,0.0,-1.3286600721349635,0.0,0.0,0.0,0.4568818751001846,0.0,0.0,0.0,auto
1761301960.4300885,14.94771122932434,0.0,0.0,1.2632017989744517,0.0,0.0,-1.2758077707713356,0.0,0.0,0.0,0.46943103045282697,0.0,0.0,0.0,auto
1761301960.5364275,15.054050207138062,0.0,0.0,1.1322376243687664,0.0,0.0,-1.1836606227612425,0.0,0.0,0.0,0.48407106205078543,0.0,0.0,0.0,auto
1761301960.6411502,15.158772945404053,0.0,0.0,1.0136750714730638,0.0,0.0,-1.0792898542387677,0.0,0.0,0.0,0.48803433819046915,0.0,0.0,0.0,auto
1761301960.7459414,15.263564109802246,0.0,0.0,0.9060025441460412,0.0,0.0,-0.9515641799080012,0.0,0.0,0.0,0.6789451799379687,0.0,0.0,0.0,auto
1761301960.8503182,15.367940902709961,0.0,0.0,0.8066851111344786,0.0,0.0,-0.9129846967773021,0.0,0.0,0.0,0.47681378494854215,0.0,0.0,0.0,auto
1761301960.957801,15.475423812866211,0.0,0.0,0.7134767896999341,0.0,0.0,-0.8215557024211534,0.0,0.0,0.0,0.4808488483537028,0.0,0.0,0.0,auto
1761301961.063002,15.58062481880188,0.0,0.0,0.6316502464729422,0.0,0.0,-0.7347843463062157,0.0,0.0,0.0,0.4783313624029865,0.0,0.0,0.0,auto
1761301961.1664479,15.684070587158203,0.0,0.0,0.5598469404329023,0.0,0.0,-0.6545302157105057,0.0,0.0,0.0,0.47634715566015273,0.0,0.0,0.0,auto
1761301961.269996,15.787618637084961,0.0,0.0,0.4959460885103996,0.0,0.0,-0.5808361080441289,0.0,0.0,0.0,0.47335913359826864,0.0,0.0,0.0,auto
1761301961.373583,15.891205787658691,0.0,0.0,0.5019984811251635,0.0,0.0,0.830883986897581,0.0,0.0,0.0,1.0,0.0,0.0,0.0,auto
1761301961.4779491,15.995571851730347,0.0,0.0,0.6703310782078659,0.0,0.0,2.3914252197940713,0.0,0.0,0.0,1.0,0.0,0.0,0.0,auto
1761301961.58345,16.101072788238525,0.0,0.0,0.9953912791482856,0.0,0.0,3.488637387819028,0.0,0.0,0.0,0.5606566887217495,0.0,0.0,0.0,auto
1761301961.6891763,16.206799030303955,0.00018363440403750743,0.0,1.3757617847197918,0.015319798566079635,0.0,3.6473430372331146,0.0,-0.08562893074434255,0.0,0.4175298787692497,0.0,-0.3,0.0,auto
1761301961.795466,16.3130886554718,0.011316130423545854,0.0,1.759688179398135,0.23481222688890413,0.0,3.547777602471382,0.0,-0.35586675951774616,0.0,0.3714350101183423,0.0,-0.3,0.0,auto
1761301961.9026709,16.42029356956482,0.05795315833640619,0.0,2.127713421156703,0.6557840500603608,0.0,3.3063182792986723,0.0,-0.49732356928871907,0.0,0.38764873701665614,0.0,0.060490304288408306,0.0,auto
1761301962.003581,16.521203756332397,0.14433913251886382,0.0,2.4477598351946024,1.0583227974180842,0.0,3.031180991366223,0.0,-0.5211509555009555,0.0,0.38200972684365336,0.0,0.05458434620573147,0.0,auto
1761301962.1102943,16.627917051315308,0.28009657079990996,0.0,2.7551925447074717,1.4842524268481856,0.0,2.7304015746395196,0.0,-0.5204943748886345,0.0,0.37528926951024705,0.0,0.007078189170657846,0.0,auto
1761301962.2137015,16.731324195861816,0.454948324899152,0.0,3.0228163520103006,1.8892683037161357,0.0,2.449676446918869,0.0,-0.4512134537644224,0.0,0.35,0.0,0.16933734732467418,0.0,auto
1761301962.3178835,16.835506200790405,0.6672783478211137,0.0,3.263587047640868,2.1727802537866965,0.0,2.178050911907418,0.0,-0.33755509382572196,0.0,0.35,0.0,0.0853966247989883,0.0,auto
1761301962.4594977,16.977120399475098,0.9928232187270385,0.0,3.5463342472096047,2.4377190142062215,0.0,1.8478140017827922,0.0,-0.2472327995345245,0.0,0.35,0.0,-0.0056573094796694085,0.0,auto
1761301962.5621357,17.079758405685425,1.2529562425068226,0.0,3.727120685239834,2.5666026878775803,0.0,1.6370358524408035,0.0,-0.1702305953514422,0.0,0.35,0.0,-0.029923377083599222,0.0,auto
1761301962.6678069,17.185429573059082,1.5298709817273872,0.0,3.88934118220989,2.6654744638888546,0.0,1.438189184024333,0.0,-0.12386274120357885,0.0,0.3641883251271365,0.0,-0.04391418867416022,0.0,auto
1761301962.7725701,17.29019284248352,1.812989663419336,0.0,4.030731940283038,2.736146075999193,0.0,1.264566961164007,0.0,-0.10115781611507706,0.0,0.37376879289372705,0.0,-0.0019238433418228614,0.0,auto
1761301962.878845,17.396467685699463,2.1065296475533475,0.0,4.156696109331047,2.7866529634513078,0.0,1.1092194172792282,0.0,-0.08584286146130818,0.0,0.38138200164505515,0.0,0.017486892448636274,0.0,auto
1761301962.9841633,17.50178599357605,2.4019509514592734,0.0,4.266225035868269,2.822071184887073,0.0,0.9736174636853359,0.0,-0.072934387346535,0.0,0.38869203641093647,0.0,0.015095477101893847,0.0,auto
1761301963.0895462,17.607168912887573,2.7006700291451544,0.0,4.362419814663422,2.8412932044750385,0.0,0.8544138262432039,0.0,-0.030476049409572853,0.0,0.3932334861144939,0.0,0.036113432686957,0.0,auto
1761301963.1955595,17.71318221092224,3.000701097744952,0.0,4.447279470916961,2.8148668570268622,0.0,0.7488760471827148,0.0,0.004670809939443641,0.0,0.39923178311548846,0.0,0.03577148389939073,0.0,auto
1761301963.2978501,17.815472841262817,3.286102822924475,0.0,4.519194986013988,2.761792201687796,0.0,0.659200008109705,0.0,0.03028187788657393,0.0,0.40521192480985263,0.0,0.015537225640079744,0.0,auto
1761301963.4037013,17.921324014663696,3.574779140041661,0.0,4.584559659024005,2.689411354100855,0.0,0.5775631046388893,0.0,0.04934875520261587,0.0,0.4098206216550368,0.0,0.0014879853093238357,0.0,auto
1761301963.5057878,18.02341055870056,3.845295918025304,0.0,4.639916231930719,2.608481235735034,0.0,0.5084715552165764,0.0,0.06129209848403052,0.0,0.41481324332864106,0.0,-0.0018847466144602276,0.0,auto
1761301963.6111462,18.128768920898438,4.115390309353703,0.0,4.690100644992242,2.5179739840227158,0.0,0.44557733444424996,0.0,0.06740316707262597,0.0,0.4178395570594059,0.0,0.0011723102299055505,0.0,auto
1761301963.718361,18.2359836101532,4.380228551841677,0.0,4.734800213347755,2.4221591936206615,0.0,0.3894968945796485,0.0,0.07090495227988042,0.0,0.42102107001924177,0.0,0.0021199953987049115,0.0,auto
1761301963.8240256,18.34164834022522,4.631108877042363,0.0,4.773342141228188,2.3265035460877104,0.0,0.3410685892579683,0.0,0.07257454003637576,0.0,0.4238098604146993,0.0,0.0015071344325311164,0.0,auto
1761301963.9319692,18.449591875076294,4.876983125696224,0.0,4.807766123836996,2.2293010261971404,0.0,0.29772258049173767,0.0,0.07307382021131789,0.0,0.4262279565281676,0.0,0.0004767415411921617,0.0,auto
1761301964.0383518,18.55597448348999,5.109115175126691,0.0,4.837404709731606,2.135117419172329,0.0,0.2603177307435748,0.0,0.07259196680740344,0.0,0.42827587095109976,0.0,-0.00030346654698927236,0.0,auto
1761301964.1448822,18.66250491142273,5.331649876717607,0.0,4.8633480915826075,2.0431540082638953,0.0,0.22747357941880855,0.0,0.07145590134531693,0.0,0.43000376901768517,0.0,-0.0008439346190956742,0.0,auto
1761301964.2507281,18.768350839614868,5.5431950682880125,0.0,4.885878602366302,1.954541984746634,0.0,0.19887277150294375,0.0,0.06989379125480234,0.0,0.43147708651793076,0.0,-0.0010248360915283536,0.0,auto
1761301964.3578265,18.875449180603027,5.747858271035649,0.0,4.90578917091069,1.8679522054174569,0.0,0.1735054927183144,0.0,0.06800655469808184,0.0,0.43284169977630227,0.0,-0.0010363557614951565,0.0,auto
1761301964.462404,18.980026721954346,5.938917549567373,0.0,4.922774260067104,1.78649603190357,0.0,0.1517891395359017,0.0,0.06598594595668815,0.0,0.4339722035203671,0.0,-0.0009682900459021756,0.0,auto
1761301964.5684848,19.0861074924469,6.124189154404129,0.0,4.937828187808389,1.7070827396495374,0.0,0.13244577045434208,0.0,0.06380231512562752,0.0,0.4349276647381779,0.0,-0.0010243740766727508,0.0,auto
1761301964.6734312,19.191053867340088,6.299359237618773,0.0,4.9508293508500465,1.6317246239789183,0.0,0.1156633167583541,0.0,0.0616168824579307,0.0,0.4357672444297578,0.0,-0.000996866376359206,0.0,auto
1761301964.7743294,19.29195213317871,6.460466736094188,0.0,4.961769329832511,1.5621972707744316,0.0,0.10147802611891127,0.0,0.059624224157110585,0.0,0.43652709816869906,0.0,-0.001392728842631877,0.0,auto
1761301964.8803656,19.397988319396973,6.6223760047167834,0.0,4.97181948306101,1.4921757009088539,0.0,0.08836120329563849,0.0,0.05740010971167846,0.0,0.4372845320560761,0.0,-0.0010121220584090793,0.0,auto
1761301964.986942,19.50456476211548,6.777790140345799,0.0,4.980607057621583,1.4248180735396188,0.0,0.07679921719936182,0.0,0.05523453588207285,0.0,0.43786668544956625,0.0,-0.0008598763083869517,0.0,auto
1761301965.09192,19.60954260826111,6.924006735580617,0.0,4.988134260785935,1.3613227219102888,0.0,0.06681654236218786,0.0,0.053157614260302244,0.0,0.43840881243987073,0.0,-0.0008381624070318033,0.0,auto
1761301965.1987236,19.716346263885498,7.06607621520275,0.0,4.994784958268155,1.2995266582404332,0.0,0.05791912062120949,0.0,0.05112528959280982,0.0,0.43889712214598,0.0,-0.0008642463175009736,0.0,auto
1761301965.3035333,19.82115602493286,7.199217362856216,0.0,5.000445697376302,1.2415233007595425,0.0,0.05026930366138705,0.0,0.0491863600461955,0.0,0.43929811256883816,0.0,-0.0008559485400655554,0.0,auto
1761301965.4108813,19.92850399017334,7.329420735354938,0.0,5.005464523867718,1.1847242265486027,0.0,0.04339803121163404,0.0,0.04725393899949883,0.0,0.439661640283234,0.0,-0.0008599852538845784,0.0,auto
1761301965.5153344,20.032957077026367,7.4503885630906845,0.0,5.009685079505906,1.1318778630412942,0.0,0.037544932100796694,0.0,0.045433190608807045,0.0,0.43993457761449795,0.0,-0.0008549573041193949,0.0,auto
1761301965.62038,20.138002634048462,7.566597915968875,0.0,5.013351472828947,1.0810509941509119,0.0,0.032375877457343216,0.0,0.04365540260894496,0.0,0.4401496313795784,0.0,-0.0008297503054831276,0.0,auto
1761301965.726623,20.244245767593384,7.678821800664315,0.0,5.01654275316957,1.0319079069230819,0.0,0.027797787943564942,0.0,0.041909216112395786,0.0,0.44039749304682146,0.0,-0.0007976888672916383,0.0,auto
1761301965.8327105,20.350333213806152,7.785787755652608,0.0,5.019275084511114,0.9850104038427788,0.0,0.023805018706953684,0.0,0.04021518885269294,0.0,0.44068468299693153,0.0,-0.0007297347141066404,0.0,auto
1761301965.9391375,20.45676016807556,7.888209168470226,0.0,5.021617032933984,0.9400559342549778,0.0,0.020292911669545322,0.0,0.03858944622385845,0.0,0.4408179142137998,0.0,-0.0007110385388116857,0.0,auto
1761301966.0443628,20.5619854927063,7.984875427677937,0.0,5.023588582402893,0.8975829556493252,0.0,0.017251246587278404,0.0,0.03702691497175039,0.0,0.44095917703354054,0.0,-0.0006942578785013139,0.0,auto
1761301966.1500266,20.667649269104004,8.077547773393393,0.0,5.025267111285749,0.8568226714101265,0.0,0.014578467736242546,0.0,0.03552115588163443,0.0,0.4410636130540265,0.0,-0.0006943548109240224,0.0,auto
1761301966.2543159,20.77193856239319,8.164885196136515,0.0,5.026664730449023,0.8183708150694006,0.0,0.012274174206708873,0.0,0.03408445890926514,0.0,0.44118582709854504,0.0,-0.0006516392071038425,0.0,auto
1761301966.358441,20.87606382369995,8.248173106348732,0.0,5.027835219109452,0.7816675049216772,0.0,0.010258092644924726,0.0,0.03269806308183777,0.0,0.44132536571534897,0.0,-0.0006245309063728775,0.0,auto
1761301966.4629405,20.980563163757324,8.328003195376777,0.0,5.028812014734631,0.7464554300964666,0.0,0.008477407222530377,0.0,0.03135656942345144,0.0,0.44132256333176967,0.0,-0.0006012809479608957,0.0,auto
1761301966.5702431,21.087865829467773,8.406232578196319,0.0,5.0296344985923005,0.7119177509114168,0.0,0.0068856054789440645,0.0,0.030033510975445255,0.0,0.4414311943731302,0.0,-0.0006222875709847311,0.0,auto
1761301966.6745937,21.192216396331787,8.478835101398673,0.0,5.030281363868804,0.6798362874443895,0.0,0.005534142719908283,0.0,0.028789913999071475,0.0,0.44148276157876115,0.0,-0.000599444564378476,0.0,auto
1761301966.7792034,21.296826124191284,8.548332860927436,0.0,5.03079749982117,0.6491022730150698,0.0,0.004355912400420725,0.0,0.027588968776210143,0.0,0.44155670333865155,0.0,-0.0005383208057131664,0.0,auto
1761301966.8827863,21.40040898323059,8.614050955909585,0.0,5.031194515703116,0.620016068418693,0.0,0.0033329066596612797,0.0,0.026443420597899846,0.0,0.4416195401340382,0.0,-0.0005166518521230278,0.0,auto
1761301966.9926066,21.510229349136353,8.680511842581087,0.0,5.0315072551921425,0.590569798704973,0.0,0.0023981862484834947,0.0,0.025280236884240057,0.0,0.4417359764618412,0.0,-0.0005451132934540023,0.0,auto
1761301967.0959516,21.613574266433716,8.740167850395377,0.0,5.031713562594883,0.5641278059692701,0.0,0.0016153974221322193,0.0,0.02422921700784642,0.0,0.4416831156852357,0.0,-0.0005547784451849525,0.0,auto
1761301967.2018464,21.71946907043457,8.798525080237706,0.0,5.031847367210821,0.5382446407753356,0.0,0.0009203780155020641,0.0,0.023188637224983467,0.0,0.44168733941416966,0.0,-0.0005050412709031567,0.0,auto
1761301967.3065119,21.824134588241577,8.853572153188964,0.0,5.031912695704987,0.5138094769950406,0.0,0.0003351314376644717,0.0,0.022198478943784326,0.0,0.44175117778990475,0.0,-0.0004434197773455305,0.0,auto
1761301967.412563,21.930185794830322,8.90679882743741,0.0,5.031919920307363,0.4901664749756839,0.0,-0.00019001221540943577,0.0,0.0212349866267386,0.0,0.4417720785462426,0.0,-0.0004457862175354812,0.0,auto
1761301967.515553,22.033175706863403,8.956143058601729,0.0,5.031877839454577,0.46823295542747595,0.0,-0.0006242974281072535,0.0,0.020337075333144394,0.0,0.44177154218184655,0.0,-0.00040025852436806494,0.0,auto
1761301967.6217294,22.139352083206177,9.004702979477061,0.0,5.031790386657259,0.4466363129170079,0.0,-0.0010169355225511491,0.0,0.01945555083868301,0.0,0.44177809255620804,0.0,-0.0004114797689385237,0.0,auto
1761301967.7276287,22.245251417160034,9.050904330313864,0.0,5.031664807535905,0.42607559509686616,0.0,-0.0013456096717990571,0.0,0.018604264498514333,0.0,0.44186640078307526,0.0,-0.0003714937884891736,0.0,auto
1761301967.8342624,22.351885080337524,9.095276637067034,0.0,5.0315050459703174,0.4063169891693305,0.0,-0.0016386324683267544,0.0,0.017783128567574708,0.0,0.4418570092838542,0.0,-0.0003618541569635826,0.0,auto
1761301967.9369032,22.4545259475708,9.136042219414268,0.0,5.03132427729541,0.38815428037447297,0.0,-0.001880915014552375,0.0,0.017024441253915112,0.0,0.4418472726592756,0.0,-0.00035363315734194753,0.0,auto
1761301968.042497,22.56011962890625,9.176079350470191,0.0,5.031114396156871,0.3703073327901723,0.0,-0.002090710006082028,0.0,0.016282105663581736,0.0,0.4418622637412252,0.0,-0.0003547122528652481,0.0,auto
1761301968.1465058,22.66412854194641,9.213715026884046,0.0,5.030887568952511,0.35352251555684805,0.0,-0.0022664750641197156,0.0,0.01557229105137507,0.0,0.44188220395725386,0.0,-0.0003161111313540948,0.0,auto
1761301968.249851,22.767473697662354,9.249420370945948,0.0,5.030645320491909,0.3375907612162852,0.0,-0.0024199703017234384,0.0,0.014899510108418175,0.0,0.44186331373143795,0.0,-0.0003181687736324641,0.0,auto
1761301968.3557882,22.873410940170288,9.284351444803788,0.0,5.030382111865405,0.3219979868072664,0.0,-0.00254821682609711,0.0,0.01423821226518853,0.0,0.4418794995466346,0.0,-0.0002955709570700176,0.0,auto
1761301968.4656706,22.983293294906616,9.318879302245238,0.0,5.03009573470852,0.3065769561850075,0.0,-0.0026599829919098064,0.0,0.013588805959819117,0.0,0.4418720861715271,0.0,-0.00030791808659139157,0.0,auto
1761301968.5708046,23.088427305221558,9.35036564049418,0.0,5.0298115210218075,0.2925083966684953,0.0,-0.002744558730965143,0.0,0.012984331126281185,0.0,0.44189986151282856,0.0,-0.00027570702302759197,0.0,auto
1761301968.6766624,23.19428515434265,9.38060881080163,0.0,5.029516822006526,0.27899060375571905,0.0,-0.0028199324404943205,0.0,0.012402028481224254,0.0,0.4418940127817854,0.0,-0.00025669632094022497,0.0,auto
1761301968.7832692,23.300891876220703,9.409653302302551,0.0,5.029213017211041,0.26600271919109797,0.0,-0.0028794346128008575,0.0,0.011841889276412552,0.0,0.44188495045073006,0.0,-0.00024180154705579962,0.0,auto
1761301968.8897245,23.407347202301025,9.437307078960563,0.0,5.028904081016751,0.253631989435651,0.0,-0.002920654908122144,0.0,0.01130944569449778,0.0,0.44192525493612095,0.0,-0.00023296382140941074,0.0,auto
1761301968.994276,23.51189875602722,9.463213960514505,0.0,5.02859655026497,0.24203904700143575,0.0,-0.00296210972824174,0.0,0.010806282216266542,0.0,0.4418913894084721,0.0,-0.00022873342295409393,0.0,auto
1761301969.0994248,23.617047548294067,9.488074429552565,0.0,5.028284084036209,0.2309100384085154,0.0,-0.002982350121067964,0.0,0.010324915580757934,0.0,0.4419092172752517,0.0,-0.00021507027966335217,0.0,auto
1761301969.2090466,23.726669311523438,9.51218453475612,0.0002621120697479581,5.03874348099387,0.19243137827865386,0.022504555184174345,0.48400639084247027,0.06748142250105353,0.07749166221880407,0.003349755584315433,1.0,0.3,0.3,-0.005421858244138277,auto
1761301969.3128307,23.830453395843506,9.514737019692733,0.018957800138152327,5.145698050213856,-0.22338062233642328,0.4139447229106288,1.5140962534437943,0.30755999513825133,0.31795776427878353,0.024096154120933178,1.0,0.3,0.3,-0.056624822961967525,auto
1761301969.4178414,23.93546414375305,9.449426027110196,0.10399074906166196,5.347260074132683,-1.1015011382327573,1.3014718543648114,2.325116702409199,0.5095757633416604,0.5068567393970556,0.04221318646517492,1.0,-0.09705041326155416,-0.07930750839291624,-0.09673996050612789,auto
1761301969.522922,24.040544748306274,9.281039242589905,0.2942929288237749,5.626935135743535,-2.0714530653531975,2.2424105135723136,2.9683110498358376,0.3797830162822424,0.46367809729205656,0.04567005580245225,1.0,-0.3,-0.3,-0.09548094067785785,auto
1761301969.628185,24.14580774307251,9.024754409338906,0.558367584480642,5.978525713240896,-2.7239890077322575,2.695038585725118,3.7555655009096687,0.14646610551161857,0.22573970500422397,0.05631748278375606,1.0,-0.20831708568210724,-0.3,-0.11894919459124387,auto
1761301969.7331822,24.250804901123047,8.727311337693079,0.8478807818291222,6.409067385165802,-2.8626662221448176,2.794546200099952,4.335844447337836,0.08750143322653904,0.041015786920102555,0.055925954165072685,0.6067562732306547,-0.00959001807020865,0.15375203593428166,-0.11626318135260298,auto
1761301969.8381317,24.355754375457764,8.425525142555184,1.1433273281106304,6.880939988639083,-2.8782425223024344,2.8262554776939863,4.630497185913219,0.07044251339674715,0.032882533404932586,0.039822670056125956,0.5856742628860561,0.025597864481517144,0.10733279241591541,-0.07498862369793571,auto
1761301969.9437325,24.461355209350586,8.1216584108032,1.442805654570544,7.379656598605617,-2.875808914439182,2.838440772710191,4.799872946597978,0.0600102792552313,0.03903986459332398,0.025292467815177924,0.5441619516317729,0.04649517938271117,0.052332915014932535,-0.04420609027164962,auto
1761301970.049252,24.566874742507935,7.818729275138604,1.7427648833988336,7.892000698595199,-2.8683848142877175,2.8430541876707016,4.900904295753716,0.05608250968441257,0.048258388739475716,0.015602129424568153,0.5306339092710837,0.04365358050145375,0.011646487319258141,-0.02688162801453957,auto
1761301970.153853,24.671475648880005,7.519269446836552,2.0402375711332503,8.408012873069119,-2.860456910086984,2.8441022882611215,4.960130643574082,0.05741428670241519,0.05625357173351756,0.009585683411027569,0.5242201872715013,0.022811174864714796,-0.012179853240408062,-0.017179480582632668,auto
1761301970.259381,24.7770037651062,7.218465036896486,2.3402634002170712,8.933405834448855,-2.8316374421772643,2.8432619937400387,4.994593689388232,0.06092488234981358,0.016004432223750427,0.0057768571399005415,0.5156387425219666,0.0029934855548306135,0.012330465841045102,-0.011187413308717616,auto
1761301970.3634574,24.881080150604248,6.926892776785881,2.636026598375947,9.45434097841056,-2.768285655933533,2.839759401910482,5.014658382845234,0.04799977886524145,-0.003116080124716794,0.003350640720848885,0.5068540945611258,-0.06796058280560542,-0.0012070271750295783,-0.007303983029703527,auto
1761301970.4696803,24.987303018569946,6.6371932334998345,2.935344276666731,9.987673091407881,-2.6853412355210455,2.792304749168817,5.026291398842095,0.01813455755220474,-0.013899463775068592,0.0017453660353170615,0.5042725359105993,-0.04734202524263501,-0.009019358115252016,-0.004727215241413944,auto
1761301970.5729494,25.090572118759155,6.364496246551608,3.220231696962888,10.50709716272373,-2.595783391298398,2.7217355669172605,5.032828020314908,-0.002048014148564408,-0.02030475292515541,0.0007387060623272573,0.5029294220164507,-0.018333108032888828,-0.010262019669117368,-0.0031243422766251763,auto
1761301970.676038,25.193660736083984,6.101693450913293,3.496695394386163,11.026141526509566,-2.502658907584547,2.638935913071551,5.03666707905573,-0.01614414308096892,-0.02495196851977879,8.189562804742121e-05,0.5017990635011852,0.0020059117159170526,-0.006260910172634335,-0.002074382290426116,auto
1761301970.778998,25.2966206073761,5.848848847976353,3.7639118384378616,11.54483407807713,-2.4086575510566757,2.549846360570438,5.038749138853117,-0.02518148065643848,-0.02834661916279823,-0.00034917742446644674,0.5004831310520329,0.010201979930896127,-0.0006436628805886158,-0.0013620501709922322,auto
1761301970.8838902,25.40151286125183,5.601166024116753,4.0264766056303545,12.073431320974088,-2.313911641472412,2.4560009778830043,5.039977973525026,-0.02920541156094248,-0.030439369668746937,-0.0006363140818185351,0.4997514541093975,0.005884079547715419,0.001586879790222384,-0.0008982720440741684,auto
1761301970.9871445,25.504767179489136,5.366976685081187,4.275250312565022,12.59386596554838,-2.222473686786588,2.3629347652830694,5.040586559671394,-0.03083635689179967,-0.03137586665094418,-0.0008221120319916463,0.4989669690540661,0.0005271688201888476,0.0015942177207310753,-0.000592865123403425,auto
1761301971.090578,25.608200788497925,5.141735864777357,4.514849130392805,13.115247245730885,-2.1332256760244923,2.2705300565560838,5.040837570200796,-0.03147503785947432,-0.031560341909339734,-0.0009446793848121053,0.49820097118415624,-0.0021158063805378235,0.0007807930715201111,-0.00038710001934041136,auto
1761301971.1949568,25.712579488754272,4.923658530391797,4.747045407479134,13.641406561281999,-2.04588066177991,2.1791450091230504,5.040873474245544,-0.03177937635917739,-0.03133931764655414,-0.0010253342002045029,0.4975304261165343,-0.0020574263432019974,0.000199957698255586,-0.0002488122046374546,auto
1761301971.3002088,25.81783151626587,4.712832733046933,4.971663364195693,14.171964287201147,-1.9607831187494202,2.089541369681139,5.040775497429363,-0.03187502323632842,-0.03092561954509349,-0.0010775463366716758,0.4969137836575278,-0.0011017693981219116,-7.673337326820432e-05,-0.00015455902283970674,auto
1761301971.4003031,25.91792583465576,4.520501308974758,5.176663653094863,14.676508671650156,-1.8827173579234753,2.00700980157493,5.040571125967251,-0.03173812470344372,-0.030369263997144676,-0.0011091388003263657,0.4962895908839552,0.0008331290374900727,0.00029389067414504366,-9.948360577020267e-05,auto
1761301971.5057898,26.023412466049194,4.326109378540139,5.383919744188824,15.208212679129838,-1.8034245643289035,1.9229644155547734,5.04036678080135,-0.03133101949348918,-0.02971859089234985,-0.0011297685985281352,0.495816955674066,0.0005007184685334552,-4.98768294191403e-05,-5.396336666957752e-05,auto
1761301971.6121304,26.12975311279297,4.138439766797832,5.58404885155451,15.74419408211766,-1.726653812277254,1.841427654675462,5.0400944742537614,-0.03077830627424135,-0.029072569385257967,-0.0011417953026508065,0.49533366965175074,0.0007860657966860969,0.00035823352267708066,-2.6550121788182507e-05,auto
1761301971.7186654,26.23628807067871,3.958140174356484,5.776343135593071,16.27059109898126,-1.6598872303854886,1.7703938622959254,4.793097651589914,-0.033319991691208646,-0.031434851943085734,-0.0011487317082040564,0.35,-0.0007083008221314428,-0.0007355920236172718,-6.735578818038787e-06,auto
1761301971.8230784,26.34070110321045,3.7881063921473666,5.957701821612076,16.755687269858424,-1.5974437506507695,1.703892601149441,4.500801287150712,-0.03528137018573484,-0.033276018397700946,-0.0011518028297122646,0.35,-0.0026833797923171885,-0.0024038169911368215,6.474705889470448e-06,auto
1761301971.9264512,26.444073915481567,3.6261052361899906,6.130501609430374,17.20648381520312,-1.5371551432918567,1.6396501434262614,4.222751431996426,-0.03724512588525717,-0.03509766517513947,-0.0011520334685561056,0.35,-0.001756802509740839,-0.0015724208843923616,1.4605931899707031e-05,auto
1761301972.0302663,26.54788899421692,3.4695947852409637,6.297450488910074,17.630823702684655,-1.478266211921551,1.5768782936440213,3.9537970581736412,-0.03901515986921345,-0.03673052894629812,-0.0011504837382983531,0.35,-0.0005243972483825246,-0.0004899234784127854,1.9800654419185966e-05,auto
1761301972.1360323,26.65365505218506,3.316340350751247,6.460930023740638,18.03493722690817,-1.4199931923494054,1.514747929497717,3.6893848701814735,-0.04037193299131508,-0.037986826693217804,-0.0011477719997177384,0.35,-0.00022820806028279103,-0.00023029587947690644,2.333529377170891e-05,auto
1761301972.240815,26.758437633514404,3.1704998775565945,6.616503354723007,18.408177941477497,-1.3639696301105113,1.4550045675046699,3.4360772657297343,-0.04135251167674238,-0.03890024854549859,-0.001144387568746037,0.35,-0.00032647821336947666,-0.00031166788998034144,2.5620569796823597e-05,auto
1761301972.346543,26.864165782928467,3.0292022486504893,6.767232175316284,18.758307102262204,-1.3091738971244744,1.396562685920917,3.188376010737188,-0.04208014125814662,-0.03958035397016844,-0.0011405185014524025,0.35,-0.00033976785987969966,-0.00031502178541343716,2.7209219305075798e-05,auto
1761301972.4499857,26.96760845184326,2.896478395177531,6.908815831547788,19.07588953698481,-1.2572428791784012,1.3411714779399808,2.952972131618476,-0.04256574160409377,-0.04003418179242397,-0.001136442588699176,0.35,-0.0002800145004406717,-0.00025846698868956593,2.8290892516608232e-05,auto
1761301972.5560157,27.073638439178467,2.765919055619305,7.04809102799853,19.37648776244981,-1.2057319846292982,1.286225842767036,2.718120561911798,-0.042898626292797434,-0.040344842373793086,-0.0011320621502209551,0.35,-8.457453569401056e-05,-7.823777981382218e-05,2.902142501385696e-05,auto
1761301972.6600628,27.177685499191284,2.6430231301054348,7.179191556355983,19.647561903499636,-1.1568571235885903,1.2340908575745537,2.4933815874248837,-0.04303182448567224,-0.04046878107653823,-0.0011276340975623625,0.35,9.15289220277222e-06,8.13192335856438e-06,2.9475850803265965e-05,auto
1761301972.7650719,27.282694578170776,2.5240598249092314,7.306097183901349,19.89770911919067,-1.1091915578677138,1.1832455282487004,2.271735748313291,-0.043006961986926974,-0.04044491026918549,-0.0011230816407157072,0.35,1.4236683215529125e-05,1.3207765279769274e-05,2.9749693413243172e-05,auto
1761301972.8702219,27.387844562530518,2.4098658990646267,7.427915281290423,20.125120283785787,-1.0631000000571782,1.1340794252995767,2.0544634109622613,-0.042848470560776494,-0.040295751780336946,-0.0011184699457760503,0.35,0.00013564558345427206,0.0001283645350595717,2.9949801288584347e-05,auto
1761301972.9740975,27.49172019958496,2.3017312184417644,7.54326941175474,20.327560909610916,-1.0191685180749221,1.0872040575291533,1.8439277813112063,-0.04254911015791457,-0.03999515162574593,-0.0011138870557173487,0.35,0.0002719987986631622,0.00020771880098506112,2.9991849553714556e-05,auto
1761301973.079093,27.596715688705444,2.197520846626977,7.654436169932481,20.50925757700308,-0.9765820361350729,1.0417689511995587,1.6358956200241717,-0.04211906018190588,-0.039593737921643675,-0.0011092672041996868,0.35,0.0003258798622805216,0.0002781461874753595,3.0124652726228483e-05,auto
1761301973.1857436,27.70336627960205,2.095102230976869,7.763690982568142,20.673333244571282,-0.9344764248690183,0.9968496425155979,1.4257457467347798,-0.04159235796053121,-0.03910556626921504,-0.0011045170551055425,0.35,0.00031163555669260856,0.00029305389944984326,3.0102376872107294e-05,auto
1761301973.290586,27.80820870399475,1.9992215431660747,7.865971293777262,20.812166005857204,-0.8948155753727002,0.9545409989162018,1.2231055796648445,-0.04099255076724721,-0.038545845647849464,-0.0010998753942773256,0.35,0.0003024271669073286,0.000292327847619086,3.0006974095302524e-05,auto
1761301973.3976984,27.915321111679077,1.905478506489479,7.965971395545543,20.932203530768742,-0.8558011853236239,0.9129246376149208,1.0186298729123808,-0.04031208823701975,-0.03790702247147196,-0.0010951415966753651,0.35,0.00034666959745182003,0.0003293625058967858,2.9952297437775402e-05,auto
1761301973.5015073,28.019129991531372,1.8189608654492013,8.058264174514886,21.027331048333366,-0.8195657750796662,0.8742748128400031,0.823531498291774,-0.039585667575991405,-0.03722380758359567,-0.0010905913193877772,0.35,0.00044200989990551213,0.00041431120708069384,2.9971909331239327e-05,auto
1761301973.607632,28.12525463104248,1.7334971670261006,8.149433215531705,21.104493530623955,-0.7835399133896094,0.8358502986796049,0.6239387146825988,-0.03877831727740371,-0.036464534080466036,-0.0010859057817724962,0.35,0.0004856708682343289,0.000455141576281939,2.9876901369338618e-05,auto
1761301973.7148576,28.23248028755188,1.6521121087239228,8.236252065835554,21.160280593651542,-0.7489887005649267,0.798999996876894,0.4266456593166448,-0.03787891778660541,-0.03561879808663628,-0.0010812511317752098,0.35,0.0006801324148959153,0.000638979963909632,3.091599643635067e-05,auto
1761301973.820689,28.338311672210693,1.573896203047944,8.319691042946081,21.19531843357638,-0.7154955258370689,0.7632791325469661,0.22948969290474314,-0.03692535270119119,-0.03472189480842621,-0.001076589812817836,0.35,0.0005810874210888135,0.0005467552661892979,2.9649885272453604e-05,auto
1761301973.92491,28.442532777786255,1.5009758056634892,8.397481853063095,21.209258316428464,-0.6840235521621671,0.7297150056229466,0.038169365483760216,-0.03594153736203301,-0.033796106174271937,-0.0010720759717303434,0.35,0.0006782390922328898,0.0006377476473760758,2.9550918586022487e-05,auto
1761301974.0305033,28.548125982284546,1.4303815694773891,8.472792210653326,21.20309408205761,-0.6532569712244847,0.6969039907686627,-0.15478135258837822,-0.034829119211502335,-0.03274939711687346,-0.001067516711687845,0.35,0.0006354238366072833,0.0005977117119677725,2.9573107250734267e-05,auto
1761301974.134379,28.65200161933899,1.3640507665827835,8.543555447470291,21.177335351750745,-0.62451131538385,0.6662472412135788,-0.331372952019262,-0.018894226784591413,-0.01773884885525729,-0.001197762751689202,0.35,0.15057198037196967,0.14188878612298378,0.00015716658437901483,auto
1761301974.2386212,28.75624394416809,1.2988542317352978,8.613105751018134,21.13362588336773,-0.6251314796215662,0.6668416979786045,-0.508665540244351,-0.012271775900778752,-0.011480324999965185,-0.0021678565666173885,0.35,0.056825765633057246,0.05345356324728941,0.0027265319054657986,auto
1761301974.3437178,28.861340522766113,1.2334246357815544,8.682897982574282,21.070475656530366,-0.6221720568462099,0.6636270382659222,-0.6941036645327074,-0.0013149480460065656,-0.0011585499753386345,-0.0024287731646934147,0.35,-0.006557671759390783,-0.006229646760871988,0.003068283168246884,auto
1761301974.4479022,28.965524911880493,1.1688542906418962,8.751767315620732,20.988932930039976,-0.6184360839535925,0.6595800181807557,-0.8479151437771016,0.0016337580489430574,0.0016089756237382593,-0.002214140571858162,0.4115446829268544,-0.01344805636308611,-0.012660154219436911,0.002361770547920647,auto
1761301974.5533848,29.07100749015808,1.1038137701707615,8.821130973940129,20.897906822359367,-0.6148626310729229,0.6556955158412326,-0.8659276089075244,0.0009528114435466288,0.0009633575266059656,-0.0018937001636415724,0.4479603367374181,-0.005390397482298559,-0.005058402773000776,0.0016119016773612107,auto
1761301974.6584265,29.17604923248291,1.0393902612510812,8.889828795789859,20.808298504235303,-0.6116003740018675,0.6521403288000098,-0.833968235219594,0.0002108876194184816,0.0002641552260449397,-0.0016190264474469497,0.4615121350279895,-0.0005196228624362593,-0.00047699077566893224,0.0010707526255060613,auto
1761301974.7636108,29.281233549118042,0.9752151285513055,8.958253687130677,20.72347809007355,-0.6085157185280871,0.648773445532083,-0.7764331529966768,-0.00013056456906299785,-5.6690312495864446e-05,-0.0014175969857873978,0.46751641865084126,0.0008483189157912688,0.0008032928909160245,0.0007129362726004392,auto
1761301974.8690865,29.386709213256836,0.9111859581530347,9.02651472323493,20.645169302146332,-0.605549948107698,0.645533088167812,-0.7079431301675426,-0.00019675617676344635,-0.00011845758754901699,-0.0012777239361411385,0.4707175170945979,0.0007130917923094611,0.0006717349825316464,0.0004789918039666699,auto
1761301974.975178,29.49280071258545,0.8470949108772797,9.094833388085359,20.573846009512117,-0.6026858914307843,0.642401174141711,-0.6368116722663129,-0.0001637135418330471,-8.718947680320232e-05,-0.001181889778768898,0.47260496954162673,0.00032604559874553824,0.00030611884524308453,0.0003247947496719227,auto
1761301975.0790172,29.59663987159729,0.7846537010694068,9.161385310905143,20.51122141410084,-0.5999941159923899,0.6394553078341613,-0.5698907939938298,-0.00012407279525334145,-4.9954688283043315e-05,-0.0011177485957028482,0.47045655809403203,5.90170967542557e-05,5.4729433054436085e-05,0.00022662721136945636,auto
1761301975.1849356,29.702558279037476,0.7212444154735513,9.228960855480466,20.454283918331978,-0.5973546346639957,0.6365644599234987,-0.5060575094010445,-0.00010415560218449318,-3.141317444529805e-05,-0.0010725107877346738,0.4685919881445652,-3.125282192215149e-05,-2.9852443444450483e-05,0.00015938480723738825,auto
1761301975.291584,29.80920672416687,0.6579821314524642,9.296371505732667,20.403719992384094,-0.5948072529200324,0.6337725063388899,-0.4477169026041948,-9.871051805760682e-05,-2.650390858798329e-05,-0.001040865007066434,0.4659622214409318,-3.5910638248414853e-05,-3.396234952603822e-05,0.00011432674436119763,auto
1761301975.3948429,29.912465572357178,0.5963815574467696,9.362003570366562,20.359973299315705,-0.5923975859344074,0.6311298981610255,-0.39629900083803443,-9.921545266334067e-05,-2.7174772328623115e-05,-0.0010187861481861015,0.46352820830968233,-1.8613915953060983e-05,-1.756675212762012e-05,8.505120850867929e-05,auto
1761301975.4985757,30.01619839668274,0.5350523956279213,9.427338701572108,20.32129528935968,-0.5900570192393084,0.6285617944460136,-0.3502942726047592,-0.00010100594160059022,-2.9038827916220676e-05,-0.001002577822962976,0.46125367957040014,-3.916209065980134e-06,-3.72012744434546e-06,6.516437953536192e-05,auto
1761301975.6036184,30.121241092681885,0.47319307839115143,9.493230770577975,20.286718746625805,-0.5877453040198497,0.6260243208706447,-0.3088613071021931,-0.00010188327136677219,-3.003717799887076e-05,-0.0009901795329002147,0.45911609091819555,1.6929011885331342e-06,1.5343681715854208e-06,5.1677530240405714e-05,auto
1761301975.709081,30.226703643798828,0.41241228725866025,9.558025529024533,20.257922195866396,-0.5384150972074684,0.5756762564780794,-0.2626093254722549,-0.15167478859188846,-0.14931337998980926,-0.00569967038156216,0.35,-0.1281904437889338,-0.08491938187108106,0.010774628434774246,auto
1761301975.8148308,30.33245348930359,0.3639050796116928,9.609719124833646,20.232203976296674,-0.4027976838921779,0.42646964135010784,-0.2307010570991607,-0.07949506733786782,-0.07670199804774148,-0.012083624705960458,0.43420058538457906,-0.13796395304817766,-0.13872979326301157,0.026263337881260795,auto
1761301975.9208586,30.438481330871582,0.3268670270369834,9.64904732803589,20.214375764797566,-0.2777707398742639,0.3089199874023249,0.13039602759185526,-0.028282145917577956,-0.09645448410486737,-0.013939645635762587,1.0,0.3,-0.3,0.02638505858116032,auto
1761301976.0274768,30.54509949684143,0.3172932760712072,9.687629477727937,20.286408478015826,0.1818721928034651,0.4982071050810691,1.185218503747705,0.21543502720653224,-0.3356606577760866,-0.0311598233674515,1.0,0.3,-0.3,0.06759519581640129,auto
1761301976.1317935,30.649416208267212,0.37933830828383197,9.769862130796362,20.45299096374468,1.0649186547860483,1.1569460817291897,1.982756617509838,0.41615573719029686,-0.5026144229153809,-0.046814757039871285,1.0,-0.3,0.041160030952162086,0.10275666209289526,auto
1761301976.2364345,30.75405716896057,0.5432964758818855,9.92570572958207,20.695836297816996,2.06504087575422,1.7351565170189116,2.665363650398244,0.19287955337109153,-0.4823049464015359,-0.050725385772646146,1.0,-0.3,0.3,0.10393926053723154,auto
1761301976.3417473,30.85936999320984,0.802187509896238,10.11768736368552,21.020589960146932,2.7727140012580915,1.858330592770764,3.5486842336066142,0.04790965360024492,-0.23755358891801615,-0.05769748391542226,1.0,-0.023299684482245786,0.3,0.11997922253526284,auto
1761301976.4441257,30.961748361587524,1.0988137762196515,10.309792018898515,21.423468819547637,2.9346883281635363,1.87234685155947,4.2218642961271815,-0.018867387379209687,-0.012962656860145156,-0.05490455457057085,0.6924826666653012,0.07423123888569008,-0.09858746587344033,0.11098001541176614,auto
1761301976.5502906,31.0679132938385,1.409547761176463,10.505809959971462,21.891322421321846,2.924056312263276,1.8222573039142074,4.559808797927829,-0.026510736537091417,-0.017349595999591717,-0.039230551094519145,0.5663777148577394,0.04229883263749744,-0.043619987622429815,0.07275288641771988,auto
1761301976.6564198,31.174042463302612,1.7184674691478876,10.695678148945467,22.387313907657816,2.906009235433953,1.760724801445159,4.765012619941968,-0.025235217238808033,-0.031727105748267606,-0.024157983431463477,0.5630518553912793,0.005132428153621326,0.004619668437807728,0.04066552290733692,auto
1761301976.7584243,31.276046991348267,2.013652540550735,10.871771529365096,22.879646747210977,2.8910961719225376,1.6987769969476152,4.879071124476505,-0.015592340343985399,-0.051793824683534787,-0.014542709751463809,0.553567129554473,-0.05821087772319222,0.07145940625899683,0.023071899716937294,auto
1761301976.863428,31.38105082511902,2.316167065554716,11.046372021956495,23.39574490907518,2.8765655518068076,1.6315666252936334,4.947761685316402,-0.0126455761736003,-0.06013802007288823,-0.008527267984851941,0.5220750714577215,-0.056983198847590504,0.06296406766893703,0.0136588288010592,auto
1761301976.9666624,31.48428511619568,2.6125227232690484,11.211369109186858,23.90876520792832,2.866090620954064,1.566324218829033,4.988259192166127,-0.014098675682756658,-0.06159791215480125,-0.005045814743451885,0.5114198009971501,-0.03291062563248981,0.03148925241176353,0.008521126835746044,auto
1761301977.073314,31.5909366607666,2.9178824878806644,11.374984807030891,24.442190971632208,2.8592451198313897,1.5012717121283399,5.012716544055061,-0.01743144870906966,-0.06030730543769791,-0.0029175294682578868,0.5067621161104013,-0.009478320921709792,0.005759172422856984,0.005387163221724945,auto
1761301977.1788783,31.69650101661682,3.2195718417789103,11.530247115476156,24.972161705656713,2.855073129337914,1.4391683761671779,5.026703542054138,-0.020387688052573266,-0.05865369671982186,-0.0016481738105038936,0.50344246735722,0.00513664259260152,-0.008632622815190324,0.003476396352355478,auto
1761301977.2827075,31.80033016204834,3.51593335279509,11.676654619050007,25.49453259512307,2.852654966189764,1.3802797004159908,5.034674546247236,-0.0218220410494962,-0.058058861401688665,-0.0008700422140105096,0.5012606255426614,0.009884541191103349,-0.01175667184619264,0.0022959525850065853,auto
1761301977.3883088,31.90593147277832,3.8170182264058004,11.819396133399865,26.02492475703893,2.8455892142021013,1.3245874767135013,4.942519548390397,-0.0218953696163053,-0.05918918412381083,-0.0003676975969610467,0.35,0.004172217359951119,-0.015796888364321946,0.0015190379683185655,auto
1761301977.4931133,32.01073598861694,4.1144498747865885,11.955608321155847,26.526711002992588,2.8323072417405952,1.2749695873299571,4.635136527881173,-0.02354067125586663,-0.06755401737710641,-6.695855031369535e-05,0.35,0.00043613560866098244,0.0009713326656676396,0.0010487546146232714,auto
1761301977.5987003,32.11632299423218,4.413078428489425,12.087625802587365,27.000306916171617,2.8255061157322023,1.2259912519419387,4.337489227619425,-0.024646920140656656,-0.07119395469563147,0.0001265179421732241,0.35,-0.0016357480951613946,0.004255325921755407,0.0007472848611001877,auto
1761301977.703708,32.221330642700195,4.706787898876703,12.212669798740611,27.436636615249892,2.8232778989656273,1.1789278669349814,4.055087338200514,-0.025744796211563194,-0.07171657092800227,0.00025643421128867773,0.35,-0.0012929763512002034,0.0013564632718806179,0.0005322071813909715,auto
1761301977.8092048,32.32682752609253,5.007505266202596,12.33572308733188,27.85356805806927,2.824111357740641,1.1320586455909716,3.775985227269841,-0.026794459938211206,-0.07095358139898933,0.0003492546818365887,0.35,-0.0003979495472079628,-0.00022575030611884776,0.00037182123668301936,auto
