timestamp,simulation_time,position_x,position_y,position_z,velocity_x,velocity_y,velocity_z,attitude_roll,attitude_pitch,attitude_yaw,control_throttle,control_roll,control_pitch,control_yaw,estimated_position_x,estimated_position_y,estimated_position_z,flight_mode,battery_level,setpoint_altitude,setpoint_position_x,setpoint_position_y,setpoint_position_z,position_error,attitude_error,waypoint_index,mission_complete
1761258514.2640517,0.11878418922424316,0.0,0.0,-0.0,0.0,0.0,-0.0,0.0,0.0,0.0,0.0,0.0,0.0,0.0,0.0,0.0,-0.0,manual,85.0,0.0,0.0,0.0,0.0,0.0,0.0,0,0
1761258514.3670623,0.22179484367370605,0.0,0.0,-0.0,0.0,0.0,-0.0,0.0,0.0,0.0,0.0,0.0,0.0,0.0,0.0,0.0,-0.0,manual,85.0,0.0,0.0,0.0,0.0,0.0,0.0,0,0
1761258514.4721916,0.32692408561706543,0.0,0.0,-0.0,0.0,0.0,-0.0,0.0,0.0,0.0,0.0,0.0,0.0,0.0,0.0,0.0,-0.0,manual,85.0,0.0,0.0,0.0,0.0,0.0,0.0,0,0
1761258514.5809221,0.4356546401977539,0.0,0.0,-0.0,0.0,0.0,-0.0,0.0,0.0,0.0,0.0,0.0,0.0,0.0,0.0,0.0,-0.0,manual,85.0,0.0,0.0,0.0,0.0,0.0,0.0,0,0
1761258514.6848798,0.5396122932434082,0.0,0.0,-0.0,0.0,0.0,-0.0,0.0,0.0,0.0,0.0,0.0,0.0,0.0,0.0,0.0,-0.0,manual,85.0,0.0,0.0,0.0,0.0,0.0,0.0,0,0
1761258514.7882102,0.6429426670074463,0.0,0.0,-0.0,0.0,0.0,-0.0,0.0,0.0,0.0,0.0,0.0,0.0,0.0,0.0,0.0,-0.0,manual,85.0,0.0,0.0,0.0,0.0,0.0,0.0,0,0
1761258514.889159,0.7438914775848389,0.0,0.0,-0.0,0.0,0.0,-0.0,0.0,0.0,0.0,0.0,0.0,0.0,0.0,0.0,0.0,-0.0,manual,85.0,0.0,0.0,0.0,0.0,0.0,0.0,0,0
1761258514.9940732,0.8488056659698486,0.0,0.0,-0.0,0.0,0.0,-0.0,0.0,0.0,0.0,0.0,0.0,0.0,0.0,0.0,0.0,-0.0,manual,85.0,0.0,0.0,0.0,0.0,0.0,0.0,0,0
1761258515.0979671,0.9526996612548828,0.0,0.0,-0.0,0.0,0.0,-0.0,0.0,0.0,0.0,0.0,0.0,0.0,0.0,0.0,0.0,-0.0,manual,85.0,0.0,0.0,0.0,0.0,0.0,0.0,0,0
1761258515.203742,1.0584745407104492,0.0,0.0,-0.0,0.0,0.0,-0.0,0.0,0.0,0.0,0.0,0.0,0.0,0.0,0.0,0.0,-0.0,manual,85.0,0.0,0.0,0.0,0.0,0.0,0.0,0,0
1761258515.3072379,1.1619703769683838,0.0,0.0,-0.0,0.0,0.0,-0.0,0.0,0.0,0.0,0.0,0.0,0.0,0.0,0.0,0.0,-0.0,manual,85.0,0.0,0.0,0.0,0.0,0.0,0.0,0,0
1761258515.4126506,1.267383098602295,0.0,0.0,-0.0,0.0,0.0,-0.0,0.0,0.0,0.0,0.0,0.0,0.0,0.0,0.0,0.0,-0.0,manual,85.0,0.0,0.0,0.0,0.0,0.0,0.0,0,0
1761258515.5165257,1.37125825881958,0.0,0.0,-0.0,0.0,0.0,-0.0,0.0,0.0,0.0,0.0,0.0,0.0,0.0,0.0,0.0,-0.0,manual,85.0,0.0,0.0,0.0,0.0,0.0,0.0,0,0
1761258515.6197684,1.4745008945465088,0.0,0.0,-0.0,0.0,0.0,-0.0,0.0,0.0,0.0,0.0,0.0,0.0,0.0,0.0,0.0,-0.0,manual,85.0,0.0,0.0,0.0,0.0,0.0,0.0,0,0
1761258515.724289,1.5790214538574219,0.0,0.0,-0.0,0.0,0.0,-0.0,0.0,0.0,0.0,0.0,0.0,0.0,0.0,0.0,0.0,-0.0,manual,85.0,0.0,0.0,0.0,0.0,0.0,0.0,0,0
1761258515.8301003,1.6848328113555908,0.0,0.0,-0.0,0.0,0.0,-0.0,0.0,0.0,0.0,0.0,0.0,0.0,0.0,0.0,0.0,-0.0,manual,85.0,0.0,0.0,0.0,0.0,0.0,0.0,0,0
1761258515.9358711,1.7906036376953125,0.0,0.0,-0.0,0.0,0.0,-0.0,0.0,0.0,0.0,0.0,0.0,0.0,0.0,0.0,0.0,-0.0,manual,85.0,0.0,0.0,0.0,0.0,0.0,0.0,0,0
1761258516.0405374,1.8952698707580566,0.0,0.0,-0.0,0.0,0.0,-0.0,0.0,0.0,0.0,0.0,0.0,0.0,0.0,0.0,0.0,-0.0,manual,85.0,0.0,0.0,0.0,0.0,0.0,0.0,0,0
1761258516.1449616,1.9996941089630127,0.0,0.0,-0.0,0.0,0.0,-0.0,0.0,0.0,0.0,0.0,0.0,0.0,0.0,0.0,0.0,-0.0,manual,85.0,0.0,0.0,0.0,0.0,0.0,0.0,0,0
1761258516.2488084,2.1035408973693848,0.0,0.0,-0.0,0.0,0.0,-0.0,0.0,0.0,0.0,0.0,0.0,0.0,0.0,0.0,0.0,-0.0,manual,85.0,0.0,0.0,0.0,0.0,0.0,0.0,0,0
1761258516.3536315,2.2083640098571777,0.0,0.0,-0.0,0.0,0.0,-0.0,0.0,0.0,0.0,0.0,0.0,0.0,0.0,0.0,0.0,-0.0,manual,85.0,0.0,0.0,0.0,0.0,0.0,0.0,0,0
1761258516.4584467,2.3131792545318604,0.0,0.0,-0.0,0.0,0.0,-0.0,0.0,0.0,0.0,0.0,0.0,0.0,0.0,0.0,0.0,-0.0,manual,85.0,0.0,0.0,0.0,0.0,0.0,0.0,0,0
1761258516.5656602,2.4203927516937256,0.0,0.0,-0.0,0.0,0.0,-0.0,0.0,0.0,0.0,0.0,0.0,0.0,0.0,0.0,0.0,-0.0,manual,85.0,0.0,0.0,0.0,0.0,0.0,0.0,0,0
1761258516.6690805,2.523813009262085,0.0,0.0,-0.0,0.0,0.0,-0.0,0.0,0.0,0.0,0.0,0.0,0.0,0.0,0.0,0.0,-0.0,manual,85.0,0.0,0.0,0.0,0.0,0.0,0.0,0,0
1761258516.7739453,2.6286778450012207,0.0,0.0,-0.0,0.0,0.0,-0.0,0.0,0.0,0.0,0.0,0.0,0.0,0.0,0.0,0.0,-0.0,manual,85.0,0.0,0.0,0.0,0.0,0.0,0.0,0,0
1761258516.878905,2.733637571334839,0.0,0.0,-0.0,0.0,0.0,-0.0,0.0,0.0,0.0,0.0,0.0,0.0,0.0,0.0,0.0,-0.0,manual,85.0,0.0,0.0,0.0,0.0,0.0,0.0,0,0
1761258516.9827487,2.8374812602996826,0.0,0.0,-0.0,0.0,0.0,-0.0,0.0,0.0,0.0,0.0,0.0,0.0,0.0,0.0,0.0,-0.0,manual,85.0,0.0,0.0,0.0,0.0,0.0,0.0,0,0
1761258517.0877113,2.94244384765625,0.0,0.0,-0.0,0.0,0.0,-0.0,0.0,0.0,0.0,0.0,0.0,0.0,0.0,0.0,0.0,-0.0,manual,85.0,0.0,0.0,0.0,0.0,0.0,0.0,0,0
1761258517.1931593,3.047891855239868,0.0,0.0,-0.0,0.0,0.0,-0.0,0.0,0.0,0.0,0.0,0.0,0.0,0.0,0.0,0.0,-0.0,manual,85.0,0.0,0.0,0.0,0.0,0.0,0.0,0,0
1761258517.2970252,3.1517577171325684,0.0,0.0,-0.0,0.0,0.0,-0.0,0.0,0.0,0.0,0.0,0.0,0.0,0.0,0.0,0.0,-0.0,manual,85.0,0.0,0.0,0.0,0.0,0.0,0.0,0,0
1761258517.4027762,3.2575087547302246,0.0,0.0,-0.0,0.0,0.0,-0.0,0.0,0.0,0.0,0.0,0.0,0.0,0.0,0.0,0.0,-0.0,manual,85.0,0.0,0.0,0.0,0.0,0.0,0.0,0,0
1761258517.505434,3.360166549682617,0.0,0.0,-0.0,0.0,0.0,-0.0,0.0,0.0,0.0,0.0,0.0,0.0,0.0,0.0,0.0,-0.0,manual,85.0,0.0,0.0,0.0,0.0,0.0,0.0,0,0
1761258517.6093674,3.464099884033203,0.0,0.0,-0.0,0.0,0.0,-0.0,0.0,0.0,0.0,0.0,0.0,0.0,0.0,0.0,0.0,-0.0,manual,85.0,0.0,0.0,0.0,0.0,0.0,0.0,0,0
1761258517.7146058,3.569338321685791,0.0,0.0,-0.0,0.0,0.0,-0.0,0.0,0.0,0.0,0.0,0.0,0.0,0.0,0.0,0.0,-0.0,manual,85.0,0.0,0.0,0.0,0.0,0.0,0.0,0,0
1761258517.8173056,3.6720380783081055,0.0,0.0,-0.0,0.0,0.0,-0.0,0.0,0.0,0.0,0.0,0.0,0.0,0.0,0.0,0.0,-0.0,manual,85.0,0.0,0.0,0.0,0.0,0.0,0.0,0,0
1761258517.9221184,3.776850938796997,0.0,0.0,-0.0,0.0,0.0,-0.0,0.0,0.0,0.0,0.0,0.0,0.0,0.0,0.0,0.0,-0.0,manual,85.0,0.0,0.0,0.0,0.0,0.0,0.0,0,0
1761258518.024822,3.879554510116577,0.0,0.0,-0.0,0.0,0.0,-0.0,0.0,0.0,0.0,0.0,0.0,0.0,0.0,0.0,0.0,-0.0,manual,85.0,0.0,0.0,0.0,0.0,0.0,0.0,0,0
1761258518.1278212,3.982553720474243,0.0,0.0,-0.0,0.0,0.0,-0.0,0.0,0.0,0.0,0.0,0.0,0.0,0.0,0.0,0.0,-0.0,manual,85.0,0.0,0.0,0.0,0.0,0.0,0.0,0,0
1761258518.2328649,4.087597370147705,0.0,0.0,0.07979063966305047,0.0,0.0,1.315268187455704,0.0,0.0,0.0,0.7176991659272967,0.0,0.0,0.0,0.0,0.0,0.07979063966305047,stabilize,85.0,2.0,0.0,0.0,-2.0,1.9202093603369494,0.0,0,0
1761258518.3361514,4.1908838748931885,0.0,0.0,0.21404766426775612,0.0,0.0,1.3075778334715438,0.0,0.0,0.0,0.46915591558614556,0.0,0.0,0.0,0.0,0.0,0.21404766426775612,stabilize,85.0,2.0,0.0,0.0,-2.0,1.7859523357322438,0.0,0,0
1761258518.4400172,4.294749736785889,0.0,0.0,0.3497132715426961,0.0,0.0,1.3568718157109967,0.0,0.0,0.0,0.6812110234920887,0.0,0.0,0.0,0.0,0.0,0.3497132715426961,stabilize,85.0,2.0,0.0,0.0,-2.0,1.650286728457304,0.0,0,0
1761258518.5441546,4.3988871574401855,0.0,0.0,0.48821544302204484,0.0,0.0,1.3296160224802185,0.0,0.0,0.0,0.6331379004312521,0.0,0.0,0.0,0.0,0.0,0.48821544302204484,stabilize,85.0,2.0,0.0,0.0,-2.0,1.511784556977955,0.0,0,0
1761258518.647161,4.501893520355225,0.0,0.0,0.620461553373728,0.0,0.0,1.2542064256559196,0.0,0.0,0.0,0.35,0.0,0.0,0.0,0.0,0.0,0.620461553373728,stabilize,85.0,2.0,0.0,0.0,-2.0,1.3795384466262721,0.0,0,0
1761258518.752366,4.607098579406738,0.0,0.0,0.7500222993799475,0.0,0.0,1.1849479918251096,0.0,0.0,0.0,0.37018299829699686,0.0,0.0,0.0,0.0,0.0,0.7500222993799475,stabilize,85.0,2.0,0.0,0.0,-2.0,1.2499777006200525,0.0,0,0
1761258518.855194,4.709926605224609,0.0,0.0,0.869737063949009,0.0,0.0,1.137244476699334,0.0,0.0,0.0,0.48800326300569186,0.0,0.0,0.0,0.0,0.0,0.869737063949009,stabilize,85.0,2.0,0.0,0.0,-2.0,1.130262936050991,0.0,0,0
1761258518.9593782,4.81411075592041,0.0,0.0,0.9837203226368034,0.0,0.0,1.0664048721657815,0.0,0.0,0.0,0.4885774163244848,0.0,0.0,0.0,0.0,0.0,0.9837203226368034,stabilize,85.0,2.0,0.0,0.0,-2.0,1.0162796773631966,0.0,0,0
1761258519.0639877,4.918720245361328,0.0,0.0,1.0905607654432086,0.0,0.0,0.9939633970761562,0.0,0.0,0.0,0.35,0.0,0.0,0.0,0.0,0.0,1.0905607654432086,stabilize,85.0,2.0,0.0,0.0,-2.0,0.9094392345567914,0.0,0,0
1761258519.1687806,5.023513078689575,0.0,0.0,1.1901221289159605,0.0,0.0,0.9306410067600555,0.0,0.0,0.0,0.5409233045556842,0.0,0.0,0.0,0.0,0.0,1.1901221289159605,stabilize,85.0,2.0,0.0,0.0,-2.0,0.8098778710840395,0.0,0,0
1761258519.273415,5.128147602081299,0.0,0.0,1.2817512506535733,0.0,0.0,0.837251205748656,0.0,0.0,0.0,0.43086296879143093,0.0,0.0,0.0,0.0,0.0,1.2817512506535733,stabilize,85.0,2.0,0.0,0.0,-2.0,0.7182487493464267,0.0,0,0
1761258519.378282,5.2330145835876465,0.0,0.0,1.3656605514683078,0.0,0.0,0.7568253835130223,0.0,0.0,0.0,0.37215590503911855,0.0,0.0,0.0,0.0,0.0,1.3656605514683078,stabilize,85.0,2.0,0.0,0.0,-2.0,0.6343394485316922,0.0,0,0
1761258519.4831583,5.337890863418579,0.0,0.0,1.4432567953984157,0.0,0.0,0.6910295735820882,0.0,0.0,0.0,0.35,0.0,0.0,0.0,0.0,0.0,1.4432567953984157,stabilize,85.0,2.0,0.0,0.0,-2.0,0.5567432046015843,0.0,0,0
1761258519.5904422,5.445174694061279,0.0,0.0,1.515040315071806,0.0,0.0,0.6482280530638845,0.0,0.0,0.0,0.5166406167740759,0.0,0.0,0.0,0.0,0.0,1.515040315071806,stabilize,85.0,2.0,0.0,0.0,-2.0,0.4849596849281941,0.0,0,0
1761258519.694158,5.548890590667725,0.0,0.0,1.5782619581424446,0.0,0.0,0.5917620143739055,0.0,0.0,0.0,0.35,0.0,0.0,0.0,0.0,0.0,1.5782619581424446,stabilize,85.0,2.0,0.0,0.0,-2.0,0.42173804185755537,0.0,0,0
1761258519.7986028,5.653335332870483,0.0,0.0,1.6359332816406948,0.0,0.0,0.52400732498056,0.0,0.0,0.0,0.4506340216116196,0.0,0.0,0.0,0.0,0.0,1.6359332816406948,stabilize,85.0,2.0,0.0,0.0,-2.0,0.36406671835930515,0.0,0,0
1761258519.9033973,5.758129835128784,0.0,0.0,1.6882413990859573,0.0,0.0,0.4720300040451,0.0,0.0,0.0,0.35,0.0,0.0,0.0,0.0,0.0,1.6882413990859573,stabilize,85.0,2.0,0.0,0.0,-2.0,0.3117586009140427,0.0,0,0
1761258520.0058908,5.860623359680176,0.0,0.0,1.7346291471646254,0.0,0.0,0.43266744511206096,0.0,0.0,0.0,0.35,0.0,0.0,0.0,0.0,0.0,1.7346291471646254,stabilize,85.0,2.0,0.0,0.0,-2.0,0.26537085283537465,0.0,0,0
1761258520.111255,5.96598744392395,0.0,0.0,1.7773732773778965,0.0,0.0,0.3852658982320484,0.0,0.0,0.0,0.35,0.0,0.0,0.0,0.0,0.0,1.7773732773778965,stabilize,85.0,2.0,0.0,0.0,-2.0,0.22262672262210348,0.0,0,0
1761258520.2152412,6.069973707199097,0.0,0.0,1.8150662698305933,0.0,0.0,0.32581421700587604,0.0,0.0,0.0,0.35,0.0,0.0,0.0,0.0,0.0,1.8150662698305933,stabilize,85.0,2.0,0.0,0.0,-2.0,0.18493373016940673,0.0,0,0
1761258520.3215795,6.17631196975708,0.0,0.0,1.850503107833913,0.0,0.0,0.3261974760108507,0.0,0.0,0.0,0.35,0.0,0.0,0.0,0.0,0.0,1.850503107833913,stabilize,85.0,2.0,0.0,0.0,-2.0,0.14949689216608708,0.0,0,0
1761258520.4244273,6.279159784317017,0.0,0.0,1.8817000939482396,0.0,0.0,0.26720155775759696,0.0,0.0,0.0,0.35,0.0,0.0,0.0,0.0,0.0,1.8817000939482396,stabilize,85.0,2.0,0.0,0.0,-2.0,0.11829990605176044,0.0,0,0
1761258520.5276413,6.382373809814453,0.0,0.0,1.909709209350798,0.0,0.0,0.286074993594328,0.0,0.0,0.0,0.6416032526367483,0.0,0.0,0.0,0.0,0.0,1.909709209350798,stabilize,85.0,2.0,0.0,0.0,-2.0,0.09029079064920209,0.0,0,0
1761258520.6316473,6.486379861831665,0.0,0.0,1.9352621214962524,0.0,0.0,0.24268602884189266,0.0,0.0,0.0,0.35,0.0,0.0,0.0,0.0,0.0,1.9352621214962524,stabilize,85.0,2.0,0.0,0.0,-2.0,0.06473787850374757,0.0,0,0
1761258520.73647,6.5912024974823,0.0,0.0,1.958052680637675,0.0,0.0,0.19469662451474998,0.0,0.0,0.0,0.35,0.0,0.0,0.0,0.0,0.0,1.958052680637675,stabilize,85.0,2.0,0.0,0.0,-2.0,0.041947319362324986,0.0,0,0
1761258520.8407664,6.695498943328857,0.0,0.0,1.9774202054443428,0.0,0.0,0.1555231900714288,0.0,0.0,0.0,0.35635031634237646,0.0,0.0,0.0,0.0,0.0,1.9774202054443428,stabilize,85.0,2.0,0.0,0.0,-2.0,0.022579794555657173,0.0,0,0
1761258520.9458823,6.800614833831787,0.0,0.0,1.9955733218528076,0.0,0.0,0.14567250467530984,0.0,0.0,0.0,0.4020593184235651,0.0,0.0,0.0,0.0,0.0,1.9955733218528076,stabilize,85.0,2.0,0.0,0.0,-2.0,0.004426678147192442,0.0,0,0
1761258521.0495565,6.90428900718689,0.0,0.0,2.0104816395422285,0.0,0.0,0.12859647220301873,0.0,0.0,0.0,0.43939120610335125,0.0,0.0,0.0,0.0,0.0,2.0104816395422285,stabilize,85.0,2.0,0.0,0.0,-2.0,0.010481639542228471,0.0,0,0
1761258521.154158,7.008890628814697,0.0,0.0,2.02372426509814,0.0,0.0,0.11256303995156917,0.0,0.0,0.0,0.35,0.0,0.0,0.0,0.0,0.0,2.02372426509814,stabilize,85.0,2.0,0.0,0.0,-2.0,0.023724265098139963,0.0,0,0
1761258521.255861,7.110593557357788,0.0,0.0,2.0357810669797263,0.0,0.0,0.17970648667038266,0.0,0.0,0.0,0.35,0.0,0.0,0.0,0.0,0.0,2.0357810669797263,stabilize,85.0,2.0,0.0,0.0,-2.0,0.03578106697972627,0.0,0,0
1761258521.3609562,7.215688705444336,0.0,0.0,2.049105311245952,0.0,0.0,0.1065619802904499,0.0,0.0,0.0,0.35,0.0,0.0,0.0,0.0,0.0,2.049105311245952,stabilize,85.0,2.0,0.0,0.0,-2.0,0.04910531124595208,0.0,0,0
1761258521.4671037,7.321836233139038,0.0,0.0,2.060702512652319,0.0,0.0,0.12287941262428455,0.0,0.0,0.0,0.6071228166107971,0.0,0.0,0.0,0.0,0.0,2.060702512652319,stabilize,85.0,2.0,0.0,0.0,-2.0,0.06070251265231885,0.0,0,0
1761258521.573293,7.428025484085083,0.0,0.0,2.070419934112471,0.0,0.0,0.08665151908841504,0.0,0.0,0.0,0.4946862000925807,0.0,0.0,0.0,0.0,0.0,2.070419934112471,stabilize,85.0,2.0,0.0,0.0,-2.0,0.07041993411247116,0.0,0,0
1761258521.6786015,7.533334016799927,0.0,0.0,2.07883360663431,0.0,0.0,0.07800890941908856,0.0,0.0,0.0,0.35,0.0,0.0,0.0,0.0,0.0,2.07883360663431,stabilize,85.0,2.0,0.0,0.0,-2.0,0.07883360663430983,0.0,0,0
1761258521.7835376,7.638270139694214,0.0,0.0,2.0852417947754747,0.0,0.0,0.07870142131829233,0.0,0.0,0.0,0.6167769059661119,0.0,0.0,0.0,0.0,0.0,2.0852417947754747,stabilize,85.0,2.0,0.0,0.0,-2.0,0.08524179477547467,0.0,0,0
1761258521.8869898,7.741722345352173,0.0,0.0,2.090556032335541,0.0,0.0,0.025663115569541033,0.0,0.0,0.0,0.35,0.0,0.0,0.0,0.0,0.0,2.090556032335541,stabilize,85.0,2.0,0.0,0.0,-2.0,0.09055603233554121,0.0,0,0
1761258521.9903278,7.845060348510742,0.0,0.0,2.0961384257918954,0.0,0.0,0.05617295549958689,0.0,0.0,0.0,0.35,0.0,0.0,0.0,0.0,0.0,2.0961384257918954,stabilize,85.0,2.0,0.0,0.0,-2.0,0.09613842579189535,0.0,0,0
1761258522.103506,7.95823860168457,0.0,0.0,2.101858175877311,0.0,0.0,0.032345938166580136,0.0,0.0,0.0,0.35,0.0,0.0,0.0,0.0,0.0,2.101858175877311,stabilize,85.0,2.0,0.0,0.0,-2.0,0.10185817587731094,0.0,0,0
1761258522.206437,8.061169624328613,0.0,0.0,2.10544794839238,0.0,0.0,0.01624623055598875,0.0,0.0,0.0,0.4063039399954901,0.0,0.0,0.0,0.0,0.0,2.10544794839238,stabilize,85.0,2.0,0.0,0.0,-2.0,0.10544794839238003,0.0,0,0
1761258522.313088,8.167820453643799,0.0,0.0,2.107483425040205,0.0,0.0,0.007555059412264599,0.0,0.0,0.0,0.42492575710876757,0.0,0.0,0.0,0.0,0.0,2.107483425040205,stabilize,85.0,2.0,0.0,0.0,-2.0,0.10748342504020503,0.0,0,0
1761258522.415515,8.270247459411621,0.0,0.0,2.1094759096602567,0.0,0.0,-0.005160070889767339,0.0,0.0,0.0,0.35,0.0,0.0,0.0,0.0,0.0,2.1094759096602567,stabilize,85.0,2.0,0.0,0.0,-2.0,0.10947590966025667,0.0,0,0
1761258522.5184677,8.373200178146362,0.0,0.0,2.1116851858346437,0.0,0.0,0.03935313228985759,0.0,0.0,0.0,0.6259300233020035,0.0,0.0,0.0,0.0,0.0,2.1116851858346437,stabilize,85.0,2.0,0.0,0.0,-2.0,0.11168518583464371,0.0,0,0
1761258522.62346,8.478192567825317,0.0,0.0,2.1132325382698816,0.0,0.0,0.004145753563043496,0.0,0.0,0.0,0.35,0.0,0.0,0.0,0.0,0.0,2.1132325382698816,stabilize,85.0,2.0,0.0,0.0,-2.0,0.11323253826988156,0.0,0,0
1761258522.7324533,8.587185859680176,0.0,0.0,2.1144473868067735,0.0,0.0,0.013096777814407521,0.0,0.0,0.0,0.35,0.0,0.0,0.0,0.0,0.0,2.1144473868067735,stabilize,85.0,2.0,0.0,0.0,-2.0,0.11444738680677347,0.0,0,0
1761258522.836677,8.691409587860107,0.0,0.0,2.1164933563645647,0.0,0.0,0.008745837716074178,0.0,0.0,0.0,0.35,0.0,0.0,0.0,0.0,0.0,2.1164933563645647,stabilize,85.0,2.0,0.0,0.0,-2.0,0.1164933563645647,0.0,0,0
1761258522.9422812,8.797013759613037,0.0,0.0,2.1173114730571414,0.0,0.0,0.03229262239465198,0.0,0.0,0.0,0.628118072388778,0.0,0.0,0.0,0.0,0.0,2.1173114730571414,stabilize,85.0,2.0,0.0,0.0,-2.0,0.1173114730571414,0.0,0,0
1761258523.0483918,8.903124332427979,0.0,0.0,2.117493023028362,0.0,0.0,-0.0013001939107491964,0.0,0.0,0.0,0.5004104452830129,0.0,0.0,0.0,0.0,0.0,2.117493023028362,stabilize,85.0,2.0,0.0,0.0,-2.0,0.11749302302836195,0.0,0,0
1761258523.1542497,9.008982181549072,0.0,0.0,2.1176055372763023,0.0,0.0,0.013447889776295907,0.0,0.0,0.0,0.35,0.0,0.0,0.0,0.0,0.0,2.1176055372763023,stabilize,85.0,2.0,0.0,0.0,-2.0,0.1176055372763023,0.0,0,0
1761258523.2593014,9.114033937454224,0.0,0.0,2.1173903744356912,0.0,0.0,-0.014588181870933385,0.0,0.0,0.0,0.42692418922015885,0.0,0.0,0.0,0.0,0.0,2.1173903744356912,stabilize,85.0,2.0,0.0,0.0,-2.0,0.11739037443569122,0.0,0,0
1761258523.3648722,9.219604730606079,0.0,0.0,2.1171449667594553,0.0,0.0,-0.010928260794496686,0.0,0.0,0.0,0.4665314427084652,0.0,0.0,0.0,0.0,0.0,2.1171449667594553,stabilize,85.0,2.0,0.0,0.0,-2.0,0.1171449667594553,0.0,0,0
1761258523.469939,9.324671506881714,0.0,0.0,2.117216532162901,0.0,0.0,0.021860655361404017,0.0,0.0,0.0,0.622032061965366,0.0,0.0,0.0,0.0,0.0,2.117216532162901,stabilize,85.0,2.0,0.0,0.0,-2.0,0.11721653216290084,0.0,0,0
1761258523.5759976,9.430730104446411,0.0,0.0,2.1165078031340734,0.0,0.0,-0.010894655509104647,0.0,0.0,0.0,0.4724696825085946,0.0,0.0,0.0,0.0,0.0,2.1165078031340734,stabilize,85.0,2.0,0.0,0.0,-2.0,0.11650780313407338,0.0,0,0
1761258523.6796079,9.534340381622314,0.0,0.0,2.1160008979793017,0.0,0.0,-0.024937979343802995,0.0,0.0,0.0,0.35,0.0,0.0,0.0,0.0,0.0,2.1160008979793017,stabilize,85.0,2.0,0.0,0.0,-2.0,0.11600089797930169,0.0,0,0
1761258523.7847867,9.639519214630127,0.0,0.0,2.115333617181789,0.0,0.0,-0.011616959004216262,0.0,0.0,0.0,0.35,0.0,0.0,0.0,0.0,0.0,2.115333617181789,stabilize,85.0,2.0,0.0,0.0,-2.0,0.11533361718178892,0.0,0,0
1761258523.889485,9.74421739578247,0.0,0.0,2.1147948772249947,0.0,0.0,0.01525522504563348,0.0,0.0,0.0,0.6161013794408059,0.0,0.0,0.0,0.0,0.0,2.1147948772249947,stabilize,85.0,2.0,0.0,0.0,-2.0,0.1147948772249947,0.0,0,0
1761258523.9936776,9.84841012954712,0.0,0.0,2.1140380990576872,0.0,0.0,-0.007785935517721724,0.0,0.0,0.0,0.35,0.0,0.0,0.0,0.0,0.0,2.1140380990576872,stabilize,85.0,2.0,0.0,0.0,-2.0,0.11403809905768725,0.0,0,0
1761258524.0990627,9.953795194625854,0.0,0.0,2.1129720663167033,0.0,0.0,-0.025056154247984786,0.0,0.0,0.0,0.35,0.0,0.0,0.0,0.0,0.0,2.1129720663167033,stabilize,85.0,2.0,0.0,0.0,-2.0,0.11297206631670331,0.0,0,0
1761258524.2047365,10.059468984603882,1.2695336203679364e-06,0.0,2.1119746878658074,0.0004385727476406889,0.0,0.10005641502699272,0.0,-0.005869824940859694,0.0,1.0,0.0,-0.3,0.0,1.2695336203679364e-06,0.0,2.1119746878658074,auto,85.0,5,10.0,0.0,0.0,10.220587639246341,0.005869824940859694,0,0
1761258524.309149,10.163881540298462,0.008605814685213032,0.0,2.179565480742513,0.2497887417915849,0.0,1.183405167851928,0.0,-0.2412213769998972,0.0,1.0,0.0,-0.3,0.0,0.008605814685213032,0.0,2.179565480742513,auto,85.0,5,10.0,0.0,0.0,10.226361202851505,0.2412213769998972,0,0
1761258524.413116,10.267848491668701,0.06055463686305838,0.0,2.329864320937208,0.740971012906714,0.0,1.5291677563011112,0.0,-0.4286001593448809,0.0,0.35,0.0,0.07855453356192005,0.0,0.06055463686305838,0.0,2.329864320937208,auto,85.0,5,10.0,0.0,0.0,10.20886094923232,0.4286001593448809,0,0
1761258524.5181522,10.372884750366211,0.1649002971502915,0.0,2.502048053193795,1.1734350051008398,0.0,1.691221182096476,0.0,-0.2666529321339742,0.0,0.35,0.0,0.004785329191447349,0.0,0.1649002971502915,0.0,2.502048053193795,auto,85.0,5,10.0,0.0,0.0,10.148370836025125,0.2666529321339742,0,0
1761258524.6254046,10.48013710975647,0.3083902072571595,0.0,2.6861395093875076,1.4971613764672926,0.0,1.7711978385304448,0.0,-0.22494547673603354,0.0,0.6922649231792523,0.0,-0.24375985805409095,0.0,0.3083902072571595,0.0,2.6861395093875076,auto,85.0,5,10.0,0.0,0.0,10.05697001281606,0.22494547673603354,0,0
1761258524.7288141,10.58354663848877,0.4754436857645853,0.0,2.866473032092567,1.7326921641016657,0.0,1.7247532125515332,0.0,-0.18334703630485477,0.0,0.35,0.0,0.3,0.0,0.4754436857645853,0.0,2.866473032092567,auto,85.0,5,10.0,0.0,0.0,9.946549181839684,0.18334703630485477,0,0
1761258524.8357759,10.690508365631104,0.665627655587175,0.0,3.049893724282712,1.7903346368301014,0.0,1.6949965327301073,0.0,-0.022903741340281395,0.0,0.35,0.0,-0.3,0.0,0.665627655587175,0.0,3.049893724282712,auto,85.0,5,10.0,0.0,0.0,9.8199979019121,0.022903741340281395,0,0
1761258524.9406374,10.795369863510132,0.8567368818993943,0.0,3.223834932221739,1.8589671871148603,0.0,1.6357278081416209,0.0,-0.049179148743046526,0.0,0.509674701616988,0.0,0.11604153172975928,0.0,0.8567368818993943,0.0,3.223834932221739,auto,85.0,5,10.0,0.0,0.0,9.694966328824044,0.049179148743046526,0,0
1761258525.0451584,10.899890899658203,1.0528057766473524,0.0,3.389399397903553,1.9008707716746178,0.0,1.5393074807042497,0.0,-0.036769847722173774,0.0,0.35,0.0,0.22174696585941367,0.0,1.0528057766473524,0.0,3.389399397903553,auto,85.0,5,10.0,0.0,0.0,9.567670183953037,0.036769847722173774,0,0
1761258525.1506479,11.005380392074585,1.2541759592542667,0.0,3.547508156398083,1.926042455017746,0.0,1.4602998888465653,0.0,-0.025559721887602308,0.0,0.35,0.0,0.3,0.0,1.2541759592542667,0.0,3.547508156398083,auto,85.0,5,10.0,0.0,0.0,9.43791567409865,0.025559721887602308,0,0
1761258525.2593527,11.11408519744873,1.4635816047694066,0.0,3.7006763078741782,1.9439144190580562,0.0,1.377671596969914,0.0,-0.07316633844255915,0.0,0.35,0.0,0.3,0.0,1.4635816047694066,0.0,3.7006763078741782,auto,85.0,5,10.0,0.0,0.0,9.304055253172809,0.07316633844255915,0,0
1761258525.3638146,11.218547105789185,1.666304439827886,0.0,3.8386167486730125,1.931004035815634,0.0,1.260884713860224,0.0,-0.038261931999856974,0.0,0.35,0.0,0.052187702844148524,0.0,1.666304439827886,0.0,3.8386167486730125,auto,85.0,5,10.0,0.0,0.0,9.175263496642772,0.038261931999856974,0,0
1761258525.4664006,11.321133136749268,1.8643456344771994,0.0,3.9637416930941693,1.91975187537875,0.0,1.1675121475549628,0.0,-0.023671243609096927,0.0,0.35,0.0,-0.00462439043957962,0.0,1.8643456344771994,0.0,3.9637416930941693,auto,85.0,5,10.0,0.0,0.0,9.049868516438414,0.023671243609096927,0,0
1761258525.5715485,11.426280975341797,2.0648152751984687,0.0,4.081292621920941,1.8976861516070946,0.0,1.0713074649722782,0.0,0.0025311847082695876,0.0,0.35,0.0,-0.13553439970413222,0.0,2.0648152751984687,0.0,4.081292621920941,auto,85.0,5,10.0,0.0,0.0,8.923234059603606,0.0025311847082695876,0,0
1761258525.6779044,11.532636880874634,2.267106216788518,0.0,4.191335943681221,1.8733978303803942,0.0,0.9858265275634568,0.0,0.019034195089672953,0.0,0.35,0.0,-0.3,0.0,2.267106216788518,0.0,4.191335943681221,auto,85.0,5,10.0,0.0,0.0,8.795734378391888,0.019034195089672953,0,0
1761258525.782623,11.63735556602478,2.4621327424742003,0.0,4.289550517449213,1.840856146308603,0.0,0.893824744808432,0.0,0.01527120358479515,0.0,0.35,0.0,-0.3,0.0,2.4621327424742003,0.0,4.289550517449213,auto,85.0,5,10.0,0.0,0.0,8.672928365542306,0.01527120358479515,0,0
1761258525.885952,11.740684509277344,2.6510113885586666,0.0,4.378090108925493,1.8071983363363733,0.0,0.8304115274525843,0.0,0.004933952647311848,0.0,0.35,0.0,-0.28809595255098114,0.0,2.6510113885586666,0.0,4.378090108925493,auto,85.0,5,10.0,0.0,0.0,8.554256637076401,0.004933952647311848,0,0
1761258525.9908185,11.845551013946533,2.8394078669979326,0.0,4.4598207700721595,1.7704908485247568,0.0,0.7410918143928683,0.0,0.02871964623358688,0.0,0.35,0.0,-0.240584152918834,0.0,2.8394078669979326,0.0,4.4598207700721595,auto,85.0,5,10.0,0.0,0.0,8.435880570300775,0.028719646233586884,0,0
1761258526.0909944,11.945726871490479,3.0162979534511853,0.0,4.530013264128086,1.757365450579244,0.0,0.6658561329371158,0.0,0.05693186587498156,0.0,0.3740278258378991,0.0,0.3,0.0,3.0162979534511853,0.0,4.530013264128086,auto,85.0,5,10.0,0.0,0.0,8.324248581592604,0.05693186587498156,0,0
1761258526.1964397,12.051172256469727,3.198641422775134,0.0,4.597253781648348,1.7197898798557951,0.0,0.5931513878065858,0.0,0.019254627104058248,0.0,0.3525380376430041,0.0,0.21648659153212063,0.0,3.198641422775134,0.0,4.597253781648348,auto,85.0,5,10.0,0.0,0.0,8.209337417165303,0.019254627104058245,0,0
1761258526.3026447,12.157377243041992,3.377063779866098,0.0,4.657043841685829,1.6798260125003168,0.0,0.5314991591580913,0.0,0.028364692701853392,0.0,0.35,0.0,-0.03627216038531096,0.0,3.377063779866098,0.0,4.657043841685829,auto,85.0,5,10.0,0.0,0.0,8.096378296457338,0.028364692701853392,0,0
1761258526.4063623,12.261094808578491,3.5506094417836476,0.0,4.710578191043867,1.6425594332450255,0.0,0.4749322416766433,0.0,0.03478519256344971,0.0,0.35,0.0,0.12719160004905503,0.0,3.5506094417836476,0.0,4.710578191043867,auto,85.0,5,10.0,0.0,0.0,7.986500201361566,0.03478519256344971,0,0
1761258526.5108912,12.365623712539673,3.719550776811634,0.0,4.759435600736083,1.6014167914120019,0.0,0.4484686119824927,0.0,0.037973916536386154,0.0,0.35,0.0,0.1801044890998814,0.0,3.719550776811634,0.0,4.759435600736083,auto,85.0,5,10.0,0.0,0.0,7.88011863378981,0.037973916536386154,0,0
1761258526.616805,12.471537590026855,3.886654679426178,0.0,4.803634882694286,1.5591146557596454,0.0,0.41342197039403183,0.0,0.04586822033653524,0.0,0.5631076670189501,0.0,0.07613879698454336,0.0,3.886654679426178,0.0,4.803634882694286,auto,85.0,5,10.0,0.0,0.0,7.774824698655218,0.04586822033653524,0,0
1761258526.720876,12.575608491897583,4.04671437923173,0.0,4.842333001678921,1.526728519373305,0.0,0.33967122231449975,0.0,0.04225797870090964,0.0,0.35,0.0,0.21022439958797123,0.0,4.04671437923173,0.0,4.842333001678921,auto,85.0,5,10.0,0.0,0.0,7.673968893707808,0.04225797870090964,0,0
1761258526.8284392,12.68317174911499,4.207424182275561,0.0,4.877844339409687,1.4774003897342374,0.0,0.3262298733225935,0.0,-0.01904179252269597,0.0,0.5019385730985036,0.0,0.3,0.0,4.207424182275561,0.0,4.877844339409687,auto,85.0,5,10.0,0.0,0.0,7.572800010801624,0.01904179252269597,0,0
1761258526.9335353,12.788267850875854,4.360604002148195,0.0,4.909478932559033,1.4385580325928382,0.0,0.3038857860037049,0.0,-0.01849971054979716,0.0,0.5781292293985091,0.0,0.12431078076446286,0.0,4.360604002148195,0.0,4.909478932559033,auto,85.0,5,10.0,0.0,0.0,7.47701615685214,0.01849971054979716,0,0
1761258527.0393786,12.894111156463623,4.511353456508206,0.0,4.937929522978719,1.398500288947013,0.0,0.23080648922358554,0.0,0.009244635383656394,0.0,0.3509969684623042,0.0,-0.026830404504925597,0.0,4.511353456508206,0.0,4.937929522978719,auto,85.0,5,10.0,0.0,0.0,7.382979673091972,0.009244635383656392,0,0
1761258527.1447368,12.99946928024292,4.65741753485977,0.0,4.963297429095607,1.3598330671701673,0.0,0.21364494759983016,0.0,0.027734927857565796,0.0,0.35,0.0,-0.2241254626349634,0.0,4.65741753485977,0.0,4.963297429095607,auto,85.0,5,10.0,0.0,0.0,7.292291050588348,0.027734927857565796,0,0
1761258527.247425,13.102157592773438,4.795836632082119,0.0,4.9842446973191015,1.325901588623051,0.0,0.19396825634743128,0.0,0.020496439711927522,0.0,0.35,0.0,-0.15974290567502647,0.0,4.795836632082119,0.0,4.9842446973191015,auto,85.0,5,10.0,0.0,0.0,7.20597054967143,0.020496439711927522,0,0
1761258527.3533638,13.208096265792847,4.935336455595409,0.0,5.003595942787018,1.2939179848284708,0.0,0.1619938472457388,0.0,0.03423818434414263,0.0,0.37391675532400886,0.0,-0.2884834523184125,0.0,4.935336455595409,0.0,5.003595942787018,auto,85.0,5,10.0,0.0,0.0,7.119465512009703,0.03423818434414263,0,0
1761258527.4578934,13.312625885009766,5.0691926027278,0.0,5.019438302864988,1.2564937458404355,0.0,0.1371664100942622,0.0,0.0260835378115927,0.0,0.35,0.0,-0.3,0.0,5.0691926027278,0.0,5.019438302864988,auto,85.0,5,10.0,0.0,0.0,7.036165323900683,0.0260835378115927,0,0
1761258527.5679665,13.422698974609375,5.206446690637776,0.0,5.0338165517829365,1.2193249525168979,0.0,0.1119889617004013,0.0,0.09047992804132905,0.0,0.35,0.0,-0.2063990015693093,0.0,5.206446690637776,0.0,5.0338165517829365,auto,85.0,5,10.0,0.0,0.0,6.951076348789544,0.09047992804132904,0,0
1761258527.6718102,13.526542663574219,5.3305613189178125,0.0,5.045360862771107,1.1906401901668298,0.0,0.09043035294230921,0.0,0.02971594062440734,0.0,0.35,0.0,0.209979941891917,0.0,5.3305613189178125,0.0,5.045360862771107,auto,85.0,5,10.0,0.0,0.0,6.874541717959748,0.029715940624407345,0,0
1761258527.775026,13.629758596420288,5.45151067875755,0.0,5.055526196159758,1.164011734925021,0.0,0.11102498589607167,0.0,0.03348805154467785,0.0,0.5379611230781115,0.0,0.29240803974605123,0.0,5.45151067875755,0.0,5.055526196159758,auto,85.0,5,10.0,0.0,0.0,6.800522055365614,0.03348805154467785,0,0
1761258527.8756895,13.730422019958496,5.565595025674539,0.0,5.064782996702859,1.0993152978409573,0.0,0.07762493473229692,0.0,0.02009326585727184,0.0,0.35,0.0,-0.3,0.0,5.565595025674539,0.0,5.064782996702859,auto,85.0,5,10.0,0.0,0.0,6.731714067012412,0.02009326585727184,0,0
1761258527.9799078,13.834640264511108,5.680457872433168,0.0,5.073538170686208,1.0900010577102441,0.0,0.07754369047157576,0.0,0.061014719187568144,0.0,0.35,0.0,-0.3,0.0,5.680457872433168,0.0,5.073538170686208,auto,85.0,5,10.0,0.0,0.0,6.663275002672076,0.061014719187568144,0,0
1761258528.0851896,13.939922094345093,5.793986855073807,0.0,5.081272009266771,1.064070853950216,0.0,0.06465406862813228,0.0,0.06353569994675193,0.0,0.35,0.0,-0.23468190092757268,0.0,5.793986855073807,0.0,5.081272009266771,auto,85.0,5,10.0,0.0,0.0,6.596201316473739,0.06353569994675193,0,0
1761258528.1905544,14.045286893844604,5.904648309979025,0.0,5.088323726666845,1.0404952585518135,0.0,0.07891978226412026,0.0,0.052335161815722876,0.0,0.5784004159373167,0.0,-0.07084279231990964,0.0,5.904648309979025,0.0,5.088323726666845,auto,85.0,5,10.0,0.0,0.0,6.5316876695321575,0.05233516181572287,0,0
1761258528.297715,14.15244746208191,6.014429345320519,0.0,5.094334959370722,1.0112042727468187,0.0,0.033538595681842504,0.0,0.06118015153521671,0.0,0.35,0.0,-0.15669104819565316,0.0,6.014429345320519,0.0,5.094334959370722,auto,85.0,5,10.0,0.0,0.0,6.468154460254403,0.061180151535216706,0,0
1761258528.402191,14.25692343711853,6.1186175289135205,0.0,5.099595469211142,0.9926579308625194,0.0,0.025368422712615038,0.0,0.04857927900964028,0.0,0.3669346489468765,0.0,-0.004600850975450276,0.0,6.1186175289135205,0.0,5.099595469211142,auto,85.0,5,10.0,0.0,0.0,6.408666307154414,0.04857927900964028,0,0
1761258528.5057547,14.360487222671509,6.219685988639405,0.0,5.105645789156208,0.9711334963650387,0.0,0.036932814474402886,0.0,0.042092275709427515,0.0,0.35,0.0,0.07571386383297204,0.0,6.219685988639405,0.0,5.105645789156208,auto,85.0,5,10.0,0.0,0.0,6.352825587785151,0.042092275709427515,0,0
1761258528.6104314,14.465163946151733,6.319435710853206,0.0,5.109800262306576,0.9504685887758789,0.0,0.023266108122507484,0.0,0.02568345506438639,0.0,0.372356051444684,0.0,0.2193268943954596,0.0,6.319435710853206,0.0,5.109800262306576,auto,85.0,5,10.0,0.0,0.0,6.297349617673374,0.02568345506438639,0,0
1761258528.7129622,14.567694664001465,6.414878441087097,0.0,5.112497246357395,0.9245292755037436,0.0,0.016339397319789912,0.0,0.008236556969473102,0.0,0.37536540374568417,0.0,0.3,0.0,6.414878441087097,0.0,5.112497246357395,auto,85.0,5,10.0,0.0,0.0,6.244255334801262,0.008236556969473102,0,0
1761258528.8158145,14.670547008514404,6.508288417162402,0.0,5.114833183583198,0.9024974172747288,0.0,0.03991377572622456,0.0,0.01650371347122468,0.0,0.35,0.0,0.2854498543105296,0.0,6.508288417162402,0.0,5.114833183583198,auto,85.0,5,10.0,0.0,0.0,6.193025776920848,0.01650371347122468,0,0
1761258528.9188797,14.773612260818481,6.59949007373239,0.0,5.117303854846558,0.8788222595435764,0.0,0.021643408143724178,0.0,0.016755047556286883,0.0,0.45395442313281326,0.0,0.276975055055802,0.0,6.59949007373239,0.0,5.117303854846558,auto,85.0,5,10.0,0.0,0.0,6.1441245512661915,0.016755047556286883,0,0
1761258529.0236268,14.878359317779541,6.689803062469773,0.0,5.119217814425029,0.8599460660488217,0.0,0.04517025024736394,0.0,0.00538252722830565,0.0,0.35,0.0,0.3,0.0,6.689803062469773,0.0,5.119217814425029,auto,85.0,5,10.0,0.0,0.0,6.096211511812977,0.00538252722830565,0,0
1761258529.1330853,14.987817764282227,6.78059711475745,0.0,5.120509713285392,0.8013594892028318,0.0,-0.0100684094198126,0.0,-0.014289325895568479,0.0,0.35,0.0,-0.18973026417543704,0.0,6.78059711475745,0.0,5.120509713285392,auto,85.0,5,10.0,0.0,0.0,6.048485319595154,0.014289325895568479,0,0
1761258529.2358708,15.090603351593018,6.863531159879095,0.0,5.1214738198999115,0.7928373164649458,0.0,0.0009335513350169286,0.0,0.029039518903909056,0.0,0.35,0.0,-0.3,0.0,6.863531159879095,0.0,5.1214738198999115,auto,85.0,5,10.0,0.0,0.0,6.005574982711444,0.029039518903909056,0,0
1761258529.3457868,15.200519323348999,6.950179909980615,0.0,5.123307789453931,0.7665446383063225,0.0,0.02843096844786499,0.0,0.07246940256143895,0.0,0.35,0.0,-0.3,0.0,6.950179909980615,0.0,5.123307789453931,auto,85.0,5,10.0,0.0,0.0,5.962355682694985,0.07246940256143895,0,0
1761258529.4487906,15.303523063659668,7.02827704334356,0.0,5.124073732879729,0.7549906554995246,0.0,-0.015179064805056076,0.0,0.04378214565974454,0.0,0.3539972400231206,0.0,-0.13763258146348498,0.0,7.02827704334356,0.0,5.124073732879729,auto,85.0,5,10.0,0.0,0.0,5.92345076379528,0.04378214565974454,0,0
1761258529.5542479,15.408980369567871,7.106848411477595,0.0,5.1260885992978835,0.7384193303204747,0.0,0.011036707071556002,0.0,0.05592095897076942,0.0,0.48814630029542727,0.0,-0.08629658559810849,0.0,7.106848411477595,0.0,5.1260885992978835,auto,85.0,5,10.0,0.0,0.0,5.886179613469287,0.05592095897076942,0,0
1761258529.6583703,15.513102769851685,7.182456480422546,0.0,5.126208493735359,0.7223843848160304,0.0,-0.014505438104587749,0.0,0.042184334968388866,0.0,0.4044672203064233,0.0,0.02556072252359787,0.0,7.182456480422546,0.0,5.126208493735359,auto,85.0,5,10.0,0.0,0.0,5.849492713557087,0.04218433496838887,0,0
1761258529.7593508,15.614083290100098,7.254084248055357,0.0,5.12634076911986,0.7148613582349388,0.0,0.046537877763865865,0.0,0.0006909559878896764,0.0,0.35,0.0,0.3,0.0,7.254084248055357,0.0,5.12634076911986,auto,85.0,5,10.0,0.0,0.0,5.815446930195315,0.0006909559878896764,0,0
1761258529.8635628,15.718295335769653,7.326455363342733,0.0,5.127829167434818,0.6851161823877767,0.0,0.025218125733680964,0.0,-0.021022346819904076,0.0,0.35,0.0,0.2842965197724743,0.0,7.326455363342733,0.0,5.127829167434818,auto,85.0,5,10.0,0.0,0.0,5.78294673108737,0.021022346819904076,0,0
1761258529.9674163,15.82214879989624,7.396627014547949,0.0,5.1294236857139905,0.6714366413986167,0.0,-0.005142025464841232,0.0,-0.023593050836525912,0.0,0.35,0.0,0.2859418403776302,0.0,7.396627014547949,0.0,5.1294236857139905,auto,85.0,5,10.0,0.0,0.0,5.752263749946209,0.023593050836525912,0,0
1761258530.0707366,15.925469160079956,7.46497810342086,0.0,5.129551740612299,0.6544509670469048,0.0,0.00797299697511241,0.0,-0.020293081510640406,0.0,0.49708065721957856,0.0,0.2770774580051439,0.0,7.46497810342086,0.0,5.129551740612299,auto,85.0,5,10.0,0.0,0.0,5.721768701700058,0.020293081510640406,0,0
1761258530.1745248,16.02925729751587,7.53172365344532,0.0,5.129043223513735,0.6338260678064366,0.0,-0.013200068089719047,0.0,-0.023230310951974815,0.0,0.35,0.0,0.24088936924046375,0.0,7.53172365344532,0.0,5.129043223513735,auto,85.0,5,10.0,0.0,0.0,5.692053452984563,0.023230310951974815,0,0
1761258530.2782717,16.133004188537598,7.596571551822735,0.0,5.128572460639443,0.6172177262996488,0.0,0.022771926722447895,0.0,-0.023308179432365135,0.0,0.619821028268487,0.0,0.16709995277107634,0.0,7.596571551822735,0.0,5.128572460639443,auto,85.0,5,10.0,0.0,0.0,5.663808240886787,0.023308179432365135,0,0
1761258530.3830388,16.2377712726593,7.660387188765074,0.0,5.128039924044674,0.5996088800922533,0.0,0.0024695928736045286,0.0,-0.023099142958764016,0.0,0.548723432262008,0.0,0.10173080840012169,0.0,7.660387188765074,0.0,5.128039924044674,auto,85.0,5,10.0,0.0,0.0,5.636539857846364,0.023099142958764016,0,0
1761258530.4870586,16.3417911529541,7.722138282518607,0.0,5.12677672773864,0.5837051972458092,0.0,0.01870706559930077,0.0,-0.020634555165097285,0.0,0.6499512799211664,0.0,0.05386102431598408,0.0,7.722138282518607,0.0,5.12677672773864,auto,85.0,5,10.0,0.0,0.0,5.610035081891182,0.020634555165097285,0,0
1761258530.5958872,16.4506196975708,7.7850093382327925,0.0,5.125539197859657,0.561152260922295,0.0,-0.02015213557171734,0.0,0.0031239258005713766,0.0,0.35,0.0,-0.116827482720186,0.0,7.7850093382327925,0.0,5.125539197859657,auto,85.0,5,10.0,0.0,0.0,5.5836668686904805,0.003123925800571377,0,0
1761258530.7006285,16.555361032485962,7.843519389672897,0.0,5.12534988540355,0.5479381638999904,0.0,-0.013460842590118118,0.0,-0.012643228154882342,0.0,0.35,0.0,-0.01670514651770264,0.0,7.843519389672897,0.0,5.12534988540355,auto,85.0,5,10.0,0.0,0.0,5.5605413468944676,0.012643228154882342,0,0
1761258530.8063633,16.66109585762024,7.901199250434358,0.0,5.123906192268518,0.5341727623583358,0.0,-0.027588064044845352,0.0,-0.02105337707645742,0.0,0.35,0.0,-0.2071581728374216,0.0,7.901199250434358,0.0,5.123906192268518,auto,85.0,5,10.0,0.0,0.0,5.5370912267674415,0.02105337707645742,0,0
1761258530.9118803,16.766612768173218,7.957392126271928,0.0,5.122366484639431,0.5185322178901501,0.0,-0.03460985543765602,0.0,-0.008208900903050629,0.0,0.35,0.0,-0.034625108121895946,0.0,7.957392126271928,0.0,5.122366484639431,auto,85.0,5,10.0,0.0,0.0,5.5146065434238585,0.008208900903050629,0,0
1761258531.0154207,16.870153188705444,8.010852116785278,0.0,5.12061491072543,0.5054549546714037,0.0,-0.035687499068178016,0.0,-0.012978809307027755,0.0,0.35,0.0,-0.005083619812641962,0.0,8.010852116785278,0.0,5.12061491072543,auto,85.0,5,10.0,0.0,0.0,5.493396614594764,0.012978809307027755,0,0
1761258531.119321,16.974053621292114,8.063199838095281,0.0,5.11854243241896,0.49227249386983746,0.0,-0.032288308605468906,0.0,-0.01249408592476033,0.0,0.41360648058352756,0.0,-0.11272399685209689,0.0,8.063199838095281,0.0,5.11854243241896,auto,85.0,5,10.0,0.0,0.0,5.472720667056518,0.01249408592476033,0,0
1761258531.2238963,17.07862877845764,8.114577261433451,0.0,5.1167444695322715,0.47783464515898294,0.0,-0.013276442090291555,0.0,-0.008423780154578057,0.0,0.35,0.0,-0.1947346203072019,0.0,8.114577261433451,0.0,5.1167444695322715,auto,85.0,5,10.0,0.0,0.0,5.453062705452127,0.008423780154578057,0,0
1761258531.332374,17.187106609344482,8.167388650521588,0.0,5.115988108082762,0.47329642067812605,0.0,-0.002286012594649143,0.0,0.031617998072830576,0.0,0.35,0.0,-0.3,0.0,8.167388650521588,0.0,5.115988108082762,auto,85.0,5,10.0,0.0,0.0,5.434316762968582,0.03161799807283058,0,0
1761258531.4362798,17.291012287139893,8.216611834988724,0.0,5.115723137105629,0.46300763731083455,0.0,-0.011480770977563365,0.0,0.03916991081546583,0.0,0.35,0.0,-0.3,0.0,8.216611834988724,0.0,5.115723137105629,auto,85.0,5,10.0,0.0,0.0,5.417665231686076,0.03916991081546583,0,0
1761258531.539945,17.39467740058899,8.264388953346348,0.0,5.11443017211408,0.44996798947742467,0.0,0.0008149201061946418,0.0,0.040296499609524083,0.0,0.35,0.0,-0.3,0.0,8.264388953346348,0.0,5.11443017211408,auto,85.0,5,10.0,0.0,0.0,5.400901933075349,0.040296499609524083,0,0
1761258531.643734,17.49846649169922,8.310779318279884,0.0,5.1127780752707,0.4349639905929842,0.0,-0.004593178652452675,0.0,0.03605716135879111,0.0,0.5042346901804495,0.0,-0.3,0.0,8.310779318279884,0.0,5.1127780752707,auto,85.0,5,10.0,0.0,0.0,5.384604549873624,0.03605716135879111,0,0
1761258531.7490938,17.60382628440857,8.356549446904797,0.0,5.111308091846426,0.42321755285364476,0.0,-0.0029217921384851117,0.0,0.03817268335370688,0.0,0.35,0.0,-0.3,0.0,8.356549446904797,0.0,5.111308091846426,auto,85.0,5,10.0,0.0,0.0,5.369022269486659,0.03817268335370688,0,0
1761258531.8540845,17.70881700515747,8.400774466766324,0.0,5.110170219197597,0.4090120749943171,0.0,0.010271315035337932,0.0,0.035821253549860065,0.0,0.35,0.0,-0.3,0.0,8.400774466766324,0.0,5.110170219197597,auto,85.0,5,10.0,0.0,0.0,5.35456459250615,0.035821253549860065,0,0
1761258531.9597216,17.814454078674316,8.444017715441046,0.0,5.10996087902771,0.398659965179728,0.0,0.00033699592991882216,0.0,0.038441497582673706,0.0,0.35,0.0,-0.3,0.0,8.444017715441046,0.0,5.10996087902771,auto,85.0,5,10.0,0.0,0.0,5.341608470774974,0.038441497582673706,0,0
1761258532.0681531,17.92288565635681,8.48710785279212,0.0,5.1097145891084494,0.3873929618648806,0.0,-0.014710700820292995,0.0,0.03228724542594414,0.0,0.35,0.0,-0.2563307316154592,0.0,8.48710785279212,0.0,5.1097145891084494,auto,85.0,5,10.0,0.0,0.0,5.328979811486529,0.03228724542594414,0,0
1761258532.1734226,18.028155088424683,8.527628309179258,0.0,5.109126823258193,0.3729237392820008,0.0,-0.0055684584861680295,0.0,0.03187568631201261,0.0,0.35,0.0,-0.3,0.0,8.527628309179258,0.0,5.109126823258193,auto,85.0,5,10.0,0.0,0.0,5.31705325270179,0.03187568631201261,0,0
1761258532.2771962,18.13192868232727,8.566389393225052,0.0,5.108011937193641,0.36299652652980746,0.0,0.011966351270233194,0.0,0.03228442491813231,0.0,0.35,0.0,-0.3,0.0,8.566389393225052,0.0,5.108011937193641,auto,85.0,5,10.0,0.0,0.0,5.30537701981399,0.03228442491813231,0,0
1761258532.3843439,18.239076375961304,8.605483563941748,0.0,5.108646666847531,0.3585790975815931,0.0,-0.013091454416149029,0.0,0.04672402988553339,0.0,0.35,0.0,-0.3,0.0,8.605483563941748,0.0,5.108646666847531,auto,85.0,5,10.0,0.0,0.0,5.295559163783273,0.04672402988553338,0,0
1761258532.4889002,18.343632698059082,8.642881408239235,0.0,5.109505896868547,0.3477304703235256,0.0,0.0022372948963296953,0.0,0.039492653665902946,0.0,0.35,0.0,-0.3,0.0,8.642881408239235,0.0,5.109505896868547,auto,85.0,5,10.0,0.0,0.0,5.286664485499073,0.039492653665902946,0,0
1761258532.592823,18.447555541992188,8.678940413560092,0.0,5.109314797272992,0.3376237916242828,0.0,0.006391561948055614,0.0,0.045483499811710605,0.0,0.4990490451852714,0.0,-0.3,0.0,8.678940413560092,0.0,5.109314797272992,auto,85.0,5,10.0,0.0,0.0,5.2773379774804585,0.045483499811710605,0,0
1761258532.695905,18.5506374835968,8.713603693583218,0.0,5.1096422449788355,0.3290547293492614,0.0,0.005154287365617356,0.0,0.04009249118715302,0.0,0.35,0.0,-0.3,0.0,8.713603693583218,0.0,5.1096422449788355,auto,85.0,5,10.0,0.0,0.0,5.269085245926004,0.040092491187153016,0,0
1761258532.7982728,18.653005361557007,8.74778828296054,0.0,5.108123117994004,0.3380666997133063,0.0,-0.03164029445011862,0.0,0.04733677670615435,0.0,0.3985830796588604,0.0,0.001766731879526931,0.0,8.74778828296054,0.0,5.108123117994004,auto,85.0,5,10.0,0.0,0.0,5.259368400566336,0.04733677670615434,0,0
1761258532.9020536,18.756786108016968,8.781636447699162,0.0,5.106000056914049,0.32879064246674927,0.0,-0.04226716091637246,0.0,0.025940378833221058,0.0,0.35,0.0,0.11754453188916866,0.0,8.781636447699162,0.0,5.106000056914049,auto,85.0,5,10.0,0.0,0.0,5.249347228635328,0.02594037883322106,0,0
1761258533.0059073,18.860639810562134,8.814661621455084,0.0,5.10461062244596,0.32004056228023003,0.0,-0.029911531820256645,0.0,0.022948741580710835,0.0,0.35,0.0,0.16092627577840105,0.0,8.814661621455084,0.0,5.10461062244596,auto,85.0,5,10.0,0.0,0.0,5.240427146563496,0.022948741580710835,0,0
1761258533.1091595,18.963891983032227,8.846572993128714,0.0,5.102008361572263,0.3108405655272157,0.0,-0.03676358042333841,0.0,0.018868804976058046,0.0,0.35,0.0,0.18769012074930885,0.0,8.846572993128714,0.0,5.102008361572263,auto,85.0,5,10.0,0.0,0.0,5.23076315481148,0.018868804976058043,0,0
1761258533.2117558,19.06648826599121,8.877378509314308,0.0,5.099253869300232,0.3022114935070844,0.0,-0.01682095606261669,0.0,0.013370889471462172,0.0,0.5031146851567242,0.0,0.24912610243859304,0.0,8.877378509314308,0.0,5.099253869300232,auto,85.0,5,10.0,0.0,0.0,5.221366586912161,0.013370889471462172,0,0
1761258533.3172073,19.171939849853516,8.90820979540281,0.0,5.096848235598095,0.29419672778410894,0.0,-0.022813779176547692,0.0,0.017365949114167153,0.0,0.35,0.0,0.2262372670829017,0.0,8.90820979540281,0.0,5.096848235598095,auto,85.0,5,10.0,0.0,0.0,5.212472329669846,0.017365949114167153,0,0
1761258533.4221036,19.276836156845093,8.937899438687799,0.0,5.096200260350575,0.2844119626574114,0.0,-0.021688376571763444,0.0,0.020658461774860803,0.0,0.35,0.0,0.1558999039182461,0.0,8.937899438687799,0.0,5.096200260350575,auto,85.0,5,10.0,0.0,0.0,5.20570021187707,0.020658461774860803,0,0
1761258533.5269558,19.381688356399536,8.966691842753313,0.0,5.09534895890269,0.27590358595464826,0.0,-0.024454559700209426,0.0,0.02298787053010727,0.0,0.35,0.0,0.11813591282160185,0.0,8.966691842753313,0.0,5.09534895890269,auto,85.0,5,10.0,0.0,0.0,5.199067874227386,0.02298787053010727,0,0
1761258533.6274908,19.48222327232361,8.993025746664514,0.0,5.0944058484638015,0.2632747836705898,0.0,-0.007922862270754265,0.0,-0.011625130948739444,0.0,0.35,0.0,0.3,0.0,8.993025746664514,0.0,5.0944058484638015,auto,85.0,5,10.0,0.0,0.0,5.192972953496171,0.011625130948739444,0,0
1761258533.73053,19.585262537002563,9.019309566417077,0.0,5.093515151587774,0.2583484580763577,0.0,-0.00941558252714753,0.0,-0.012432146455192309,0.0,0.43581431168674156,0.0,0.3,0.0,9.019309566417077,0.0,5.093515151587774,auto,85.0,5,10.0,0.0,0.0,5.187065675887986,0.012432146455192309,0,0
1761258533.8397467,19.69447922706604,9.04657939205634,0.0,5.092055610697073,0.2540230493375824,0.0,-0.004652167702805153,0.0,-0.012643121709780828,0.0,0.35,0.0,0.3,0.0,9.04657939205634,0.0,5.092055610697073,auto,85.0,5,10.0,0.0,0.0,5.180544488572914,0.012643121709780828,0,0
1761258533.946803,19.801535606384277,9.072692634411094,0.0,5.0918935427010465,0.24664751680187819,0.0,0.0029499350470073554,0.0,-0.01282351443857609,0.0,0.35,0.0,0.3,0.0,9.072692634411094,0.0,5.0918935427010465,auto,85.0,5,10.0,0.0,0.0,5.175642839346244,0.01282351443857609,0,0
1761258534.051986,19.906718492507935,9.09764617813748,0.0,5.092433406975949,0.23931542047477186,0.0,-0.0064787395839453876,0.0,-0.010877072943115997,0.0,0.35,0.0,0.3,0.0,9.09764617813748,0.0,5.092433406975949,auto,85.0,5,10.0,0.0,0.0,5.171761829813373,0.010877072943115997,0,0
1761258534.156822,20.011554479599,9.121780696374797,0.0,5.0922899664978,0.23363143631342073,0.0,-0.00044833285890539393,0.0,-0.014273023586803553,0.0,0.4520003242145361,0.0,0.3,0.0,9.121780696374797,0.0,5.0922899664978,auto,85.0,5,10.0,0.0,0.0,5.167464199020067,0.014273023586803553,0,0
1761258534.2662177,20.12095022201538,9.14645499836322,0.0,5.091317003654127,0.23108522221579092,0.0,-0.020350743711792317,0.0,-0.022498218594100033,0.0,0.35,0.0,0.3,0.0,9.14645499836322,0.0,5.091317003654127,auto,85.0,5,10.0,0.0,0.0,5.162368439148524,0.022498218594100033,0,0
1761258534.3701508,20.224883317947388,9.1695238044679,0.0,5.0896175146593485,0.22183073525419472,0.0,-0.024806085520938388,0.0,-0.029034313945872227,0.0,0.35,0.0,0.3,0.0,9.1695238044679,0.0,5.0896175146593485,auto,85.0,5,10.0,0.0,0.0,5.156927104087537,0.029034313945872227,0,0
1761258534.475487,20.330219507217407,9.192287729367006,0.0,5.087321996713939,0.21579660812056792,0.0,-0.019383562032459507,0.0,-0.026771318357147432,0.0,0.35,0.0,0.3,0.0,9.192287729367006,0.0,5.087321996713939,auto,85.0,5,10.0,0.0,0.0,5.1510430216006355,0.026771318357147432,0,0
1761258534.5793076,20.434040069580078,9.21403594006694,0.0,5.085342927210761,0.21013222892202368,0.0,0.010324441750236791,0.0,-0.026448184158297586,0.0,0.35,0.0,0.3,0.0,9.21403594006694,0.0,5.085342927210761,auto,85.0,5,10.0,0.0,0.0,5.145721736631216,0.026448184158297586,0,0
1761258534.6832483,20.537980794906616,9.235191241913691,0.0,5.084416412370993,0.20349400679728438,0.0,-0.010775155713349636,0.0,-0.02608184389491479,0.0,0.4429742988667856,0.0,0.3,0.0,9.235191241913691,0.0,5.084416412370993,auto,85.0,5,10.0,0.0,0.0,5.141616739006618,0.02608184389491479,0,0
1761258534.7883062,20.643038749694824,9.25591149265194,0.0,5.082319412307274,0.19796379477992135,0.0,-0.02918897612268922,0.0,-0.03046193906999741,0.0,0.35,0.0,0.3,0.0,9.25591149265194,0.0,5.082319412307274,auto,85.0,5,10.0,0.0,0.0,5.136500590429521,0.03046193906999741,0,0
1761258534.8936443,20.748376846313477,9.276144492801253,0.0,5.0817513983913365,0.1923610327329203,0.0,-0.004113905465999729,0.0,-0.027824744744577436,0.0,0.35,0.0,0.3,0.0,9.276144492801253,0.0,5.0817513983913365,auto,85.0,5,10.0,0.0,0.0,5.133046275882798,0.027824744744577436,0,0
1761258534.999991,20.85472345352173,9.295936244517423,0.0,5.080901942625945,0.18674601875815672,0.0,-0.008357603104543173,0.0,-0.026811644008347027,0.0,0.4349022728441159,0.0,0.3,0.0,9.295936244517423,0.0,5.080901942625945,auto,85.0,5,10.0,0.0,0.0,5.129451269128534,0.026811644008347027,0,0
1761258535.1058645,20.960597038269043,9.315069839816129,0.0,5.080002190212647,0.18279959586231503,0.0,0.017956271951215526,0.0,-0.020529157473441167,0.0,0.35,0.0,0.3,0.0,9.315069839816129,0.0,5.080002190212647,auto,85.0,5,10.0,0.0,0.0,5.125968355042274,0.020529157473441167,0,0
1761258535.210501,21.0652334690094,9.333363539036654,0.0,5.080710794714997,0.17765423174880293,0.0,0.017725262854546387,0.0,-0.024196764845451493,0.0,0.35,0.0,0.3,0.0,9.333363539036654,0.0,5.080710794714997,auto,85.0,5,10.0,0.0,0.0,5.1242586147284985,0.02419676484545149,0,0
1761258535.3186486,21.173381090164185,9.351843804307169,0.0,5.080624531767796,0.17636937288682245,0.0,0.04247636238365504,0.0,-0.033296089559179065,0.0,0.35,0.0,0.3,0.0,9.351843804307169,0.0,5.080624531767796,auto,85.0,5,10.0,0.0,0.0,5.121801644618399,0.033296089559179065,0,0
1761258535.4233239,21.278056383132935,9.36956856085867,0.0,5.082093792074898,0.167253406747168,0.0,-0.0020767745565762,0.0,-0.03572720667102584,0.0,0.35,0.0,0.28142697776073544,0.0,9.36956856085867,0.0,5.082093792074898,auto,85.0,5,10.0,0.0,0.0,5.121046876460322,0.03572720667102584,0,0
1761258535.5282433,21.382975816726685,9.38680751737636,0.0,5.081610150552685,0.16224949659795046,0.0,-0.0029847986927738508,0.0,-0.032880130545897106,0.0,0.35,0.0,0.26036701113844096,0.0,9.38680751737636,0.0,5.081610150552685,auto,85.0,5,10.0,0.0,0.0,5.118473087058896,0.032880130545897106,0,0
1761258535.632001,21.486733436584473,9.403291623277282,0.0,5.081540795912874,0.15792623384911592,0.0,0.015347849666107638,0.0,-0.035964102144171076,0.0,0.5583385969038772,0.0,0.23989129818308025,0.0,9.403291623277282,0.0,5.081540795912874,auto,85.0,5,10.0,0.0,0.0,5.116455584423449,0.035964102144171076,0,0
1761258535.7368069,21.59153938293457,9.419579940038783,0.0,5.080986155925557,0.15370534213108045,0.0,0.014054529606919934,0.0,-0.03485698757455934,0.0,0.582189801734003,0.0,0.1413604794206259,0.0,9.419579940038783,0.0,5.080986155925557,auto,85.0,5,10.0,0.0,0.0,5.114030481206829,0.03485698757455934,0,0
1761258535.8418455,21.69657802581787,9.435561929243153,0.0,5.080127312157612,0.14787051848660188,0.0,-0.01807497460674219,0.0,-0.03351394412860841,0.0,0.35,0.0,0.1197615338681973,0.0,9.435561929243153,0.0,5.080127312157612,auto,85.0,5,10.0,0.0,0.0,5.111387663193766,0.03351394412860841,0,0
1761258535.9469001,21.80163264274597,9.451102678240398,0.0,5.0790390632194296,0.14361790355400658,0.0,-0.011748386122010316,0.0,-0.03388458080646267,0.0,0.4700565588933528,0.0,0.14712977973196384,0.0,9.451102678240398,0.0,5.0790390632194296,auto,85.0,5,10.0,0.0,0.0,5.108612930683217,0.03388458080646268,0,0
1761258536.0533674,21.90809988975525,9.46641298197075,0.0,5.077031816840238,0.13985750918886056,0.0,-0.0013446154033541144,0.0,-0.03205836747434845,0.0,0.5724038849305376,0.0,0.10370308625760064,0.0,9.46641298197075,0.0,5.077031816840238,auto,85.0,5,10.0,0.0,0.0,5.104994336433434,0.032058367474348454,0,0
1761258536.1579683,22.01270079612732,9.480985853913669,0.0,5.075993115256232,0.13381828436514748,0.0,-0.029433806218914546,0.0,-0.033809101186941914,0.0,0.35,0.0,0.10621383746241687,0.0,9.480985853913669,0.0,5.075993115256232,auto,85.0,5,10.0,0.0,0.0,5.10245840649058,0.033809101186941914,0,0
1761258536.2629557,22.117688179016113,9.495247819054448,0.0,5.075183047904369,0.13158979514367636,0.0,0.01895228612048999,0.0,-0.030439436539020794,0.0,0.6404536346694397,0.0,0.06989765948137909,0.0,9.495247819054448,0.0,5.075183047904369,auto,85.0,5,10.0,0.0,0.0,5.100221341658142,0.030439436539020794,0,0
1761258536.3678365,22.22256898880005,9.509110394927495,0.0,5.074712186960298,0.12648952715498013,0.0,-0.0159137609624432,0.0,-0.02694391238661917,0.0,0.44965765351497566,0.0,0.04695636934073208,0.0,9.509110394927495,0.0,5.074712186960298,auto,85.0,5,10.0,0.0,0.0,5.098399394403268,0.026943912386619175,0,1
1761258536.4721286,22.326861143112183,9.522486460319794,0.0,5.073061254346441,0.12342795796102711,0.0,0.0057769636635518,0.0,-0.027083781684450525,0.0,0.6071921843433674,0.0,0.0498261543822692,0.0,9.522486460319794,0.0,5.073061254346441,auto,85.0,5,10.0,0.0,0.0,5.095485224287183,0.027083781684450525,0,1
1761258536.5792952,22.434027671813965,9.535770380418175,0.0,5.072261123890727,0.1187614585842138,0.0,-0.028481381921116405,0.0,-0.031739943448868976,0.0,0.35,0.0,0.09850200599198279,0.0,9.535770380418175,0.0,5.072261123890727,auto,85.0,5,10.0,0.0,0.0,5.093460714350344,0.031739943448868976,0,1
1761258536.683946,22.538678407669067,9.548365006970826,0.0,5.072342595078486,0.11537805089471515,0.0,-0.007716313272708884,0.0,-0.032136872396511765,0.0,0.47637384460739157,0.0,0.09501683236376761,0.0,9.548365006970826,0.0,5.072342595078486,auto,85.0,5,10.0,0.0,0.0,5.092409407026895,0.032136872396511765,0,1
1761258536.7886384,22.643370866775513,9.560578989895184,0.0,5.071517404916755,0.11191487235564633,0.0,0.008312715888784815,0.0,-0.027979663050184157,0.0,0.5865693007949797,0.0,0.033201929231133354,0.0,9.560578989895184,0.0,5.071517404916755,auto,85.0,5,10.0,0.0,0.0,5.09051859956283,0.027979663050184157,0,1
1761258536.8933878,22.748120307922363,9.57252960080316,0.0,5.070218157756124,0.10720224450025188,0.0,-0.02790167405476761,0.0,-0.021527763595171983,0.0,0.35,0.0,-0.03180798676517982,0.0,9.57252960080316,0.0,5.070218157756124,auto,85.0,5,10.0,0.0,0.0,5.0882062762263685,0.021527763595171983,0,1
1761258536.9988427,22.853575229644775,9.584155666384165,0.0,5.068009220133064,0.10395510152354531,0.0,-0.03978762731105811,0.0,-0.02407318451133571,0.0,0.3705262227231629,0.0,-0.02219991563044015,0.0,9.584155666384165,0.0,5.068009220133064,auto,85.0,5,10.0,0.0,0.0,5.085041196013474,0.024073184511335707,0,1
1761258537.1040494,22.958781957626343,9.595403152324938,0.0,5.06775312756308,0.1006153842023539,0.0,-0.027523218356235047,0.0,-0.026694212308547363,0.0,0.35,0.0,0.007756924289812894,0.0,9.595403152324938,0.0,5.06775312756308,auto,85.0,5,10.0,0.0,0.0,5.083878477213433,0.026694212308547363,0,1
1761258537.208202,23.062934398651123,9.606253413756898,0.0,5.068299042511696,0.09850734695765298,0.0,-0.024238820142573968,0.0,-0.027187863317462528,0.0,0.35,0.0,0.00624412659240545,0.0,9.606253413756898,0.0,5.068299042511696,auto,85.0,5,10.0,0.0,0.0,5.083570748844071,0.027187863317462528,0,1
1761258537.3128426,23.167575120925903,9.616967841827442,0.0,5.069057166112076,0.0968803075170941,0.0,0.0051323481523100276,0.0,-0.02469060891924358,0.0,0.5321615346450915,0.0,0.006594398830706498,0.0,9.616967841827442,0.0,5.069057166112076,auto,85.0,5,10.0,0.0,0.0,5.083508059156248,0.02469060891924358,0,1
1761258537.416751,23.271483421325684,9.627294886511034,0.0,5.0682492077287655,0.09409378005279825,0.0,0.0045374753248678505,0.0,-0.02327217037648327,0.0,0.5634757650725898,0.0,-0.014377259842099597,0.0,9.627294886511034,0.0,5.0682492077287655,auto,85.0,5,10.0,0.0,0.0,5.081934585693138,0.02327217037648327,0,1
1761258537.5194435,23.374176025390625,9.637213936663722,0.0,5.066965997483765,0.0903120616019126,0.0,-0.031352211674704075,0.0,-0.023018282797537235,0.0,0.35,0.0,-0.03346973040460547,0.0,9.637213936663722,0.0,5.066965997483765,auto,85.0,5,10.0,0.0,0.0,5.079936825139431,0.023018282797537235,0,1
1761258537.6229372,23.477669715881348,9.646918418711502,0.0,5.067340046065638,0.08686536455706093,0.0,-0.012687304473589048,0.0,-0.02135145786047624,0.0,0.35,0.0,-0.05363672777094569,0.0,9.646918418711502,0.0,5.067340046065638,auto,85.0,5,10.0,0.0,0.0,5.079626142296861,0.02135145786047624,0,1
1761258537.7269003,23.58163285255432,9.656400685617406,0.0,5.066315770987197,0.0849382336147314,0.0,-0.031053929214348592,0.0,-0.018286011878332644,0.0,0.35,0.0,-0.06580322830597042,0.0,9.656400685617406,0.0,5.066315770987197,auto,85.0,5,10.0,0.0,0.0,5.077953916706786,0.018286011878332644,0,1
1761258537.8295918,23.684324264526367,9.665530935885808,0.0,5.0662748012806205,0.08242624141281855,0.0,-0.005788845097013327,0.0,-0.017126003709375424,0.0,0.4969541629956577,0.0,-0.08933587978756692,0.0,9.665530935885808,0.0,5.0662748012806205,auto,85.0,5,10.0,0.0,0.0,5.07730340997467,0.017126003709375424,0,1
1761258537.9341984,23.788930892944336,9.674633925492477,0.0,5.065328094935996,0.07945356248891436,0.0,-0.02431559649738227,0.0,-0.013439714237139862,0.0,0.4078144983295291,0.0,-0.12835430251407962,0.0,9.674633925492477,0.0,5.065328094935996,auto,85.0,5,10.0,0.0,0.0,5.075767113628084,0.013439714237139862,0,1
1761258538.045103,23.89983558654785,9.68387433056197,0.0,5.0630450319466656,0.07773293993754389,0.0,-0.02850716249025966,0.0,-0.02598448510662259,0.0,0.35,0.0,-0.23720526539905307,0.0,9.68387433056197,0.0,5.0630450319466656,auto,85.0,5,10.0,0.0,0.0,5.072904536298457,0.025984485106622587,0,1
1761258538.1496375,24.004369974136353,9.692252935978697,0.0,5.056264272437006,0.05639024587570286,0.0,-0.16023728058769682,0.0,0.06772345065184512,0.0,0.3,0.0,-0.3,0.0,9.692252935978697,0.0,5.056264272437006,land,85.0,0.0,9.691644621244084,0.0,0.0,5.056264309029912,0.06772345065184512,0,1
1761258538.2531478,24.107880353927612,9.69766193436418,0.0,5.028438487004433,0.051913947737514204,0.0,-0.3825346538556209,0.0,0.01907480717221236,0.0,0.3,0.0,-0.23676853167298234,0.0,9.69766193436418,0.0,5.028438487004433,land,85.0,0.0,9.697097810662088,0.0,0.0,5.0284385186480085,0.01907480717221236,0,1
1761258538.3582761,24.213008642196655,9.703341743977335,0.0,4.974228373294388,0.05510028373934853,0.0,-0.6518117931345587,0.0,0.01001089245027571,0.0,0.3,0.0,-0.12037489597749665,0.0,9.703341743977335,0.0,4.974228373294388,land,85.0,0.0,9.702746787669119,0.0,0.0,4.974228408875083,0.01001089245027571,0,1
1761258538.4644861,24.319218635559082,9.7092916904081,0.0,4.889972747893752,0.05646136602773407,0.0,-0.9352548048088164,0.0,0.0046089197274910496,0.0,0.3,0.0,-0.05848076275448172,0.0,9.7092916904081,0.0,4.889972747893752,land,85.0,0.0,9.708713607974579,0.0,0.0,4.889972782063604,0.0046089197274910496,0,1
1761258538.568473,24.423205614089966,9.715278846411188,0.0,4.778207205672338,0.06021824429392833,0.0,-1.2142011606965366,0.0,-0.00823655793099196,0.0,0.3,0.0,0.005001859250028668,0.0,9.715278846411188,0.0,4.778207205672338,land,85.0,0.0,9.714639841186512,0.0,0.0,4.778207248400463,0.00823655793099196,0,1
1761258538.6731668,24.527899265289307,9.721817190133468,0.0,4.636490757585457,0.06405760117339933,0.0,-1.4925328077178521,0.0,-0.0034816468462150986,0.0,0.3,0.0,0.0007798697523468631,0.0,9.721817190133468,0.0,4.636490757585457,land,85.0,0.0,9.721159746460524,0.0,0.0,4.636490804197453,0.0034816468462150986,0,1
1761258538.782688,24.637420415878296,9.728928609448001,0.0,4.458670799607029,0.06561525281490926,0.0,-1.7450607587935787,0.0,-0.001880721101296494,0.0,0.3,0.0,0.00033260382669856345,0.0,9.728928609448001,0.0,4.458670799607029,land,85.0,0.0,9.728219306946853,0.0,0.0,4.4586708560263135,0.001880721101296494,0,1
1761258538.8881662,24.74289870262146,9.735893048531793,0.0,4.263719425805755,0.06634129092093688,0.0,-1.9467345894860388,0.0,-0.0011863603852095188,0.0,0.35099166403252735,0.0,0.00028376401920318254,0.0,9.735893048531793,0.0,4.263719425805755,land,85.0,0.0,9.735216995150337,0.0,0.0,4.26371947940311,0.0011863603852095188,0,1
1761258538.9933267,24.84805917739868,9.742884107399624,0.0,4.049758341814349,0.06654541399712524,0.0,-2.1152336066400292,0.0,-0.0006829080950464955,0.0,0.3843394579689797,0.0,0.0001683013522755159,0.0,9.742884107399624,0.0,4.049758341814349,land,85.0,0.0,9.742173411835887,0.0,0.0,4.049758404174636,0.0006829080950464955,0,1
1761258539.0990412,24.953773736953735,9.749912863332277,0.0,3.818656374382828,0.06637881043705343,0.0,-2.259558865270243,0.0,-0.0003712612878235686,0.0,0.35600367659344534,0.0,9.964531063023385e-05,0.0,9.749912863332277,0.0,3.818656374382828,land,85.0,0.0,9.74920309312159,0.0,0.0,3.8186564403450016,0.00037126128782356864,0,1
