timestamp,simulation_time,position_x,position_y,position_z,velocity_x,velocity_y,velocity_z,attitude_roll,attitude_pitch,attitude_yaw,control_throttle,control_roll,control_pitch,control_yaw,estimated_position_x,estimated_position_y,estimated_position_z,flight_mode,battery_level,setpoint_altitude,setpoint_position_x,setpoint_position_y,setpoint_position_z,position_error,attitude_error
1760989092.9590726,0.10051536560058594,0.00016865149579141635,-4.36003955408459e-05,10.034980515704047,0.005334404364963083,-0.0018178272673073773,0.6957339838008113,-0.0032308000096374213,-0.0050624219202168586,-0.005379676238360568,0.65,0.001523438875282244,0.007506381748407506,0.12519780690146304,-0.6923509713742988,1.056848091885939,7.96919629269699,stabilize,85.0,10.0,0.0,0.0,-10.0,18.013558592414803,0.03890981827005439
1760989093.119377,0.260819673538208,0.013019420972033733,0.008071310471095865,10.231730609013962,0.29341830537383046,0.2190580746947938,1.735208671814756,0.2646253255313053,-0.3285694326251709,-0.013021029428671154,0.65,0.034567603951758105,-0.04167477804568656,-0.028634959034430807,-0.7209197847059042,1.3432265834218837,7.373031347864577,stabilize,85.0,10.0,0.0,0.0,-10.0,17.43978787727296,0.02964876812598948
1760989093.2441683,0.38561105728149414,0.0916865962627886,0.06805040411566107,10.490814815696547,0.8101586287437271,0.5696528265307976,2.442210652642379,-0.23692131960071203,0.12826133842260673,-0.026097592136225204,0.65,-0.2,0.2,-0.0773929562839342,-0.6442019256661261,1.1498175675042834,7.394212269821286,stabilize,85.0,10.0,0.0,0.0,-10.0,17.444073407526545,0.30595583092414436
1760989093.359833,0.5012757778167725,0.1442354847944827,0.07700220865776965,10.793658995005536,0.004136933662631681,-0.5442842977237902,2.6562261308305986,-0.7234270453260562,0.6555642323893386,-0.035057801308362835,0.65,0.2,-0.2,0.15,-0.5990820115831573,1.1743270675543296,10.352711524974627,stabilize,85.0,10.0,0.0,0.0,-10.0,20.395362456623033,0.5862059237865657
1760989093.474728,0.6161708831787109,0.10785886649094273,-0.027860220833334864,11.10211144499075,-0.47268485114720715,-1.1387763828445527,3.1526480374386407,0.049358872225102865,-0.07547129473373948,-0.03520628175430888,0.65,-0.2,0.2,0.15,-0.9989183105411077,0.8324917347455483,10.606750710452896,stabilize,85.0,10.0,0.0,0.0,-10.0,20.647737288194676,0.4856233758037016
1760989093.5809991,0.7224419116973877,0.06362233911293569,-0.1485127252565575,11.499539054740662,-0.44134572209092815,-1.1210312940608853,3.917063286866278,-0.30660629195061995,0.31218936939136177,-0.020952260544942224,0.65,-0.2,0.09898452642060407,0.13650387018502871,-0.9623017277718695,0.8005901886910644,10.915474250370945,stabilize,85.0,10.0,0.0,0.0,-10.0,20.952900333448618,0.1155872106462802
1760989093.6852548,0.826697587966919,-0.021483004708752286,-0.3139367971445523,11.919487330308824,-1.2185673787654459,-2.165967802376438,4.031550709260285,-0.7697783033761998,0.6513226104689461,-0.007200933907030971,0.65,0.2,-0.2,0.15,-0.9155919237429545,0.7806873235874834,11.452971871990652,stabilize,85.0,10.0,0.0,0.0,-10.0,21.486688516578248,0.6176924314177193
1760989093.7947247,0.9361674785614014,-0.18791106618862172,-0.6070171065224192,12.381251918841878,-1.5956376730619564,-2.898279385125347,4.48384255666327,-0.01643379467788675,-0.10899097481518667,0.013702731086386331,0.65,-0.2,0.2,-0.029665396694873766,-0.8974556870717958,0.6770404316536621,11.7650738906297,stabilize,85.0,10.0,0.0,0.0,-10.0,21.794087545041247,0.4653133687785881
1760989093.9064384,1.0478811264038086,-0.35530102097428484,-0.9277113298836877,12.924181162893067,-1.5341228898384685,-2.9461390275186616,5.218921153063789,-0.33140759725993457,0.3231887048316068,0.04661202793699011,0.65,-0.2,0.05259611478126057,0.06177157979605793,-1.256483899673559,-0.7075948545635172,10.614361047093421,stabilize,85.0,10.0,0.0,0.0,-10.0,20.664736234664748,0.09201723353903946
1760989094.0209,1.1623427867889404,-0.5723040161477992,-1.3291100035149122,13.53121435090622,-2.259901314975815,-4.189002681546366,5.275787590678598,-0.7848046837949137,0.6090903726589961,0.07640971437431637,0.65,0.2,-0.2,-0.15,-0.9808122848587467,-0.4008945134247717,11.417594336208435,stabilize,85.0,10.0,0.0,0.0,-10.0,21.44378829170377,0.6235165182377328
1760989094.133387,1.2748298645019531,-0.8451741692276403,-1.8500316201675149,14.136609885616146,-2.4452619041719927,-4.877095443087556,5.7320570057212406,0.03246454414265303,-0.16971075849019515,0.09192672742292483,0.65,-0.2,0.2,-0.15,-0.5674747102048594,-1.2766547017409564,11.655306246328175,stabilize,85.0,10.0,0.0,0.0,-10.0,21.700326343086626,0.543083060336793
1760989094.2354572,1.3768999576568604,-1.0807497363749858,-2.335599105371239,14.754463456358446,-2.274931560683644,-4.690610687498229,6.379127058505605,-0.11589327077334419,0.2078260713021594,0.10342176046501281,0.65,-0.2,0.2,-0.07603005096441001,0.2077756253099733,-1.6133897252346423,12.479024359269228,stabilize,85.0,10.0,0.0,0.0,-10.0,22.537806753554904,0.27902818030197407
1760989094.342928,1.4843707084655762,-1.3631458173563151,-2.885540184363866,15.462474889507654,-2.9823988999499087,-5.633206125105681,6.52012429691758,-0.7478872598114594,0.7529225299089618,0.11341450537662523,0.65,0.2,-0.2,-0.03233718288380158,0.0843372600325703,-1.9957315925012469,14.63532267045078,stabilize,85.0,10.0,0.0,0.0,-10.0,24.716172447204755,0.6550024693129178
1760989094.446653,1.5880956649780273,-1.7033152240389733,-3.522875576720822,16.142817502559723,-3.450563438802179,-6.456934491555317,6.756166824978282,-0.09746467110226315,0.013182893794159406,0.11765654660655418,0.65,-0.2,0.2,-0.15,-1.0060759650147229,-3.7481533240737277,12.966044483695281,stabilize,85.0,10.0,0.0,0.0,-10.0,23.291630286762146,0.3167175641060891
1760989094.555562,1.697004795074463,-2.061870407274203,-4.210676032740624,16.91086868267293,-3.143416590393189,-6.202048629029585,7.408485007998778,-0.004096475612484073,-0.07034924896587058,0.11190105165928137,0.65,-0.2,0.2,0.0594649581454736,-1.2399563538839935,-4.298753582368674,16.016834585862547,stabilize,85.0,10.0,0.0,0.0,-10.0,26.39872072638366,0.5052923346176214
1760989094.6610763,1.8025190830230713,-2.407266560468943,-4.891799346471274,17.721281727785627,-3.5202245657537934,-6.889461066039133,7.716940620254198,-0.771556454521408,0.6942350416738654,0.0976826895242161,0.65,0.2,-0.2,0.15,-1.59512419803455,-3.7412188210264192,16.453165139105195,stabilize,85.0,10.0,0.0,0.0,-10.0,26.763988591963045,0.6061113973881153
1760989094.7703753,1.911818027496338,-2.825503712591901,-5.706243602867963,18.554921802335627,-4.1183104367564995,-7.951566529285323,7.7360797053806705,-0.2999976377862362,0.21577658689006232,0.07772067792358288,0.65,0.11195055227377004,-0.035303824607797685,0.02211405574462471,-2.190994906810022,-5.047886444156992,16.128683580672266,stabilize,85.0,10.0,0.0,0.0,-10.0,26.701867385890147,0.07899464238529956
1760989094.8830683,2.0245110988616943,-3.282879992848576,-6.602068053319275,19.466990895504658,-3.8562784118089084,-7.746223249772833,8.373153591049507,0.07879100163339638,-0.14438729401372774,0.05345586938085421,0.65,-0.2,0.2,0.15,-1.8637276176474389,-6.138405294784752,16.270465236116387,stabilize,85.0,10.0,0.0,0.0,-10.0,27.04238975974244,0.6053054189741582
1760989094.9912338,2.132676601409912,-3.7027729862539394,-7.445573218855897,20.396289451729423,-4.1429769954315905,-8.188801663149293,8.745279318363837,-0.7406205640381047,0.6614249309528629,0.041590701698913546,0.65,0.2,-0.2,0.026394226089888437,-2.1562755057035528,-6.837216262765236,19.329535329992236,stabilize,85.0,10.0,0.0,0.0,-10.0,30.19302391204931,0.5433427032482776
1760989095.0977705,2.239213228225708,-4.1805124405784335,-8.379227108832444,21.31687689501447,-4.798804228646304,-9.278901571526557,8.61120591839379,-0.5038803063593298,0.3781125083597602,0.03347627305132821,0.65,0.2,-0.2,-0.14849737085174652,-3.1024090646824747,-7.059108987410686,19.6850748882536,stabilize,85.0,10.0,0.0,0.0,-10.0,30.67017497214502,0.28987048911437885
1760989095.2033484,2.3447911739349365,-4.689770578506577,-9.371801551268693,22.25690887315899,-4.627396572842834,-9.22350623805325,9.132801501435255,0.15695907902213835,-0.2371818508756262,0.02113037663311372,0.65,-0.2,0.2,-0.12622624263380128,-3.543918266396284,-8.206093010724423,19.00934667090433,stabilize,85.0,10.0,0.0,0.0,-10.0,30.35525512085618,0.7093439967905192
1760989095.312334,2.4537768363952637,-5.180399646181433,-10.36420526906662,23.282281486258356,-4.599636980625865,-9.218397930574163,9.62941836849467,-0.5546166256986239,0.5116870614701076,0.014053443201793067,0.65,0.2,-0.2,0.08738540707735759,-4.192947831470758,-9.267840024464741,21.58879798561952,stabilize,85.0,10.0,0.0,0.0,-10.0,33.18622949979081,0.27479248275796325
1760989095.4208283,2.5622711181640625,-5.716420300712007,-11.415784003654718,24.31184425651138,-5.328562810524614,-10.292296371217544,9.396238894273491,-0.7203315082334287,0.6414939272430789,0.014442231599409711,0.65,0.2,-0.2,0.10965536086944566,-4.571250017297979,-10.139950477943115,23.161567666782638,stabilize,85.0,10.0,0.0,0.0,-10.0,34.97719960966557,0.5891861774391463
1760989095.5268264,2.668269157409668,-6.301494875921348,-12.535184855396672,25.319691450791705,-5.489637005570315,-10.561385632667674,9.740957467565517,0.11721672281029809,-0.19121728659241644,0.010388627178133616,0.65,-0.2,0.2,-0.05264530257178406,-6.129517395569313,-11.390218726168792,22.85593260901028,stabilize,85.0,10.0,0.0,0.0,-10.0,35.31034372164024,0.6082609098625976
1760989095.6353192,2.776762008666992,-6.871209686684429,-13.65463531318954,26.404123557266036,-5.11837486720654,-10.172970343993066,10.26035259508059,-0.1945153509389047,0.15717418985384893,0.007840308541306178,0.65,-0.2,0.2,0.14463781623713215,-7.205567713939668,-12.645929403288878,23.938485214211255,stabilize,85.0,10.0,0.0,0.0,-10.0,36.92777430591197,0.2527603570726795
1760989095.7437155,2.8851583003997803,-7.4585538538375555,-14.799413254999875,27.526767242394587,-5.735329418931523,-11.015031476401633,10.19243478998679,-0.8321056881337303,0.7340217205001055,0.01336913393917857,0.65,0.2,-0.2,-0.05815555071160805,-6.836444125446491,-13.854889710392628,24.512965682044296,stabilize,85.0,10.0,0.0,0.0,-10.0,37.813221726500146,0.6949878294794497
1760989095.8532255,2.9946682453155518,-8.116969112424725,-16.054349449513317,28.63768753350432,-6.128525973205685,-11.677017722913607,10.279610339909501,-0.07209732660675781,-0.047108970004733186,0.025383372855602028,0.65,-0.2,0.2,-0.12930232925514842,-7.282666737138758,-15.128024862276574,24.668465790089336,stabilize,85.0,10.0,0.0,0.0,-10.0,38.52008425842914,0.353950029393906
1760989095.962265,3.103707790374756,-8.761249720505766,-17.30363880483602,29.785906110440024,-5.700181728803103,-11.212593860154007,10.779250539019193,0.015318768322931373,-0.020375011818461644,0.034470721774844726,0.65,-0.2,0.2,-0.008649518215449997,-8.249687754907674,-16.007481737044458,26.6542467405105,stabilize,85.0,10.0,0.0,0.0,-10.0,40.839082062768135,0.4995559049292621
1760989096.0696332,3.211076021194458,-9.389427511143236,-18.521016420801505,30.959028855636603,-6.147166062732809,-11.711877408268899,10.891267368331704,-0.8005932889422389,0.754068709200924,0.04039783916067177,0.65,0.2,-0.2,-0.05595120328490569,-8.63603700990483,-18.165846714220454,28.326124574479934,stabilize,85.0,10.0,0.0,0.0,-10.0,43.283610604702965,0.6638796541815036
1760989096.177482,3.31892466545105,-10.081886008156774,-19.83287475771493,32.11073543733837,-6.686725488692229,-12.618898937587,10.69788601618986,-0.3742625787722199,0.2144009466225101,0.043081644279036956,0.65,0.2,-0.05942893277433202,0.0018045944952258391,-9.36836385758275,-19.958338460446093,29.742965186878596,stabilize,85.0,10.0,0.0,0.0,-10.0,45.44892515027421,0.10572103532294945
1760989096.2820246,3.4234673976898193,-10.770488794715012,-21.149180163020937,33.257502594808265,-6.306927658021845,-12.279832872444125,11.132126816614697,0.15771157912238468,-0.22129408530903047,0.05129901157607967,0.65,-0.2,0.2,-0.12065330036253706,-10.211143981160127,-21.050236821856096,30.31230158217787,stabilize,85.0,10.0,0.0,0.0,-10.0,46.60967271406944,0.704083828378059
1760989096.390322,3.5317647457122803,-11.443305814086708,-22.46431555483753,34.4864252506748,-6.345443659654076,-12.276163017792932,11.4699753006988,-0.6394448195549304,0.6124657564196753,0.06488875178569262,0.65,0.2,-0.2,0.046540643208722435,-10.745844532211324,-22.198740342799947,33.411989511410226,stabilize,85.0,10.0,0.0,0.0,-10.0,49.928529728566026,0.4101889651994308
1760989096.4948397,3.636282444000244,-12.136573850527599,-23.799134581143353,35.6662134408706,-6.899143872417086,-13.278474269495351,11.096740330162916,-0.7188578981587098,0.5960257526351938,0.0833285516402581,0.65,0.2,-0.2,-0.14325676365098372,-11.247397239299705,-23.31323936387399,34.24975066217842,stabilize,85.0,10.0,0.0,0.0,-10.0,51.26452484867923,0.5731184494344814
1760989096.6036139,3.745056629180908,-12.891568043684673,-25.257617710880172,36.87728144046662,-6.835847086227056,-13.361519349614612,11.38180235450482,0.16577445787644723,-0.2496703035344355,0.09925528211562092,0.65,-0.2,0.2,0.03599310487869512,-12.421182876537857,-25.628778356851207,34.81031264758975,stabilize,85.0,10.0,0.0,0.0,-10.0,53.095048579803965,0.678133084668213
1760989096.7091312,3.850574016571045,-13.58759904277839,-26.636085169807167,38.104318960580805,-6.404761222519575,-12.74065458327714,11.784212312507382,-0.11899633337596822,0.15530167624902308,0.10824760689516268,0.65,-0.2,0.2,-0.15,-12.932091411984288,-26.793147909689036,36.61914843590293,stabilize,85.0,10.0,0.0,0.0,-10.0,55.30331603156489,0.333957558015297
1760989096.8176763,3.9591190814971924,-14.303399208923041,-28.04087109799968,39.37929934916087,-6.900644221849178,-13.467753674159784,11.634439089407907,-0.8533437909203468,0.8102237415632029,0.11359578643539421,0.65,0.2,-0.2,-0.01912040164004685,-13.886530766864354,-27.75004257151369,34.934733672293,stabilize,85.0,10.0,0.0,0.0,-10.0,54.60797459767021,0.7732706902352411
1760989096.9248812,4.06632399559021,-15.071247559473683,-29.54228345265525,40.61497533168179,-7.259890173051114,-14.221676008099445,11.489479995902402,-0.19577624612045655,0.06856576634045536,0.11534262518041265,0.65,-0.2,0.2,0.10285270973803322,-14.47271836686037,-29.06095041249451,39.15742752836146,stabilize,85.0,10.0,0.0,0.0,-10.0,58.91053468616654,0.15905063498978178
1760989097.0281932,4.169636011123657,-15.79924175135921,-30.987206135757337,41.82236296113762,-6.764630671315075,-13.638610940862083,11.86608797956226,0.17187148833661428,-0.2297890947385327,0.11043546208625313,0.65,-0.2,0.2,-0.15,-14.870444161470733,-29.504340517451702,36.67631372319487,stabilize,85.0,10.0,0.0,0.0,-10.0,57.18666349521776,0.74682094655662
1760989097.135354,4.276796817779541,-16.51050655542104,-32.4258255482235,43.10766378940042,-6.789290219826385,-13.626533450909022,12.1315153450659,-0.6704525907565914,0.6392539961007193,0.09859593308745898,0.65,0.2,-0.2,-0.06768378631822608,-15.465140987027844,-30.77899745890509,41.445616449385945,stabilize,85.0,10.0,0.0,0.0,-10.0,61.91258936744016,0.4735817645180455
1760989097.241935,4.38337779045105,-17.266430964209775,-33.93843709595484,44.38200937656249,-7.31941601526576,-14.623198214733378,11.665582813872238,-0.7103173811613461,0.6215082365292562,0.0842682471106131,0.65,0.2,-0.2,-0.15,-16.039483063516524,-32.06198537425833,43.135651069867514,stabilize,85.0,10.0,0.0,0.0,-10.0,64.09862196414757,0.5995665209017159
1760989097.3502424,4.491685152053833,-18.067705543548115,-35.53796617709587,45.653199242274546,-7.25331670947326,-14.615098066513815,11.914297507834993,0.16219531303822463,-0.25290709842314485,0.0706185629982558,0.65,-0.2,0.2,0.15,-17.097155499491087,-33.37051545710694,41.74038956370025,stabilize,85.0,10.0,0.0,0.0,-10.0,63.89813722050317,0.6939534681213745
1760989097.4632292,4.604671955108643,-18.845770788214363,-37.133575292145714,47.00822238200194,-6.78394373670134,-14.039749028157726,12.302716190733594,-0.2850860802521219,0.2235144748469558,0.06639179270392845,0.65,-0.2,0.2,-0.15,-18.0528375168307,-35.250718744263345,43.95822336452271,stabilize,85.0,10.0,0.0,0.0,-10.0,66.93286175752516,0.18613360620847416
1760989097.570226,4.7116687297821045,-19.60265004032572,-38.68539253481905,48.32982703198587,-7.272696461463081,-14.838564710869651,12.012365831960718,-0.8760137994055125,0.7732241354024851,0.058857496367134686,0.65,0.2,-0.2,0.15,-19.0478831568019,-36.75583446946856,42.439055838799064,stabilize,85.0,10.0,0.0,0.0,-10.0,66.81068625277574,0.7551810213772607
1760989097.6778014,4.819244146347046,-20.40830468543238,-40.32268995902701,49.60785442367767,-7.569120924137535,-15.368954838541429,11.941245325223418,-0.08271096667553487,-0.03031038099766773,0.05559734906778176,0.65,-0.2,0.2,-0.035755411789119694,-20.203737506228457,-39.071458185881475,42.04690503887766,stabilize,85.0,10.0,0.0,0.0,-10.0,68.14433342632104,0.33809502977103056
1760989097.7863069,4.9277496337890625,-21.196910863051833,-41.94792217677806,50.91780625635054,-7.018030312863379,-14.683563705472384,12.310696301006814,0.08042684755341387,-0.11000736559866342,0.047648012932163974,0.65,-0.2,0.2,-0.15,-20.925643595922953,-41.48455407877454,45.14939178899414,stabilize,85.0,10.0,0.0,0.0,-10.0,72.11314860491348,0.623718961753096
1760989097.8933127,5.03475546836853,-21.95228530116433,-43.516056862516756,52.24883747246989,-7.2934747443940795,-14.89607621373405,12.393921312771344,-0.7810956305462113,0.7631619451057553,0.036240726232359424,0.65,0.2,-0.2,-0.07559494763811714,-21.591908418958564,-42.906359180013254,50.40486172837104,stabilize,85.0,10.0,0.0,0.0,-10.0,77.17456503071867,0.6295653847055269
1760989097.995421,5.136863708496094,-22.73075818789122,-45.08914525685108,53.49463517761932,-7.863232874447438,-15.709239875421613,11.958223891743735,-0.5614994141048684,0.4969194782289891,0.024789186446495193,0.65,0.2,-0.2,-0.1414138370597751,-22.174772736946647,-44.62169725677236,50.4846683861088,stabilize,85.0,10.0,0.0,0.0,-10.0,78.36588238377608,0.40117775455315635
1760989098.1043088,5.245751619338989,-23.58275063061724,-46.78763884982987,54.804998621757576,-7.646537561257363,-15.394469782752005,12.268185238881365,0.18418767147219176,-0.24030260069034995,0.015229838888163021,0.65,-0.2,0.2,0.06251152260677058,-22.45982728456819,-45.34639852982301,47.68819836284556,stabilize,85.0,10.0,0.0,0.0,-10.0,76.73765654246411,0.7254227404901593
1760989098.2113523,5.352795124053955,-24.380783706067096,-48.41080277136732,56.143434003643925,-7.394085277069861,-15.001612807123989,12.594826574648,-0.48267522437462906,0.43564313423465617,0.019257610972143496,0.65,0.2,-0.2,-0.04064711771090433,-22.938460062830895,-47.468749452731295,48.95109580245617,stabilize,85.0,10.0,0.0,0.0,-10.0,79.08657800771653,0.14603939671585764
1760989098.318223,5.459665775299072,-25.200415529600523,-50.05438254330341,57.47130348939507,-7.9435350707960435,-15.831012946216056,12.16208907415867,-0.8360157186309011,0.7139585843539005,0.02828377218209506,0.65,0.2,-0.2,0.017148291592173518,-24.157119497886164,-49.350743834630165,50.61288940847414,stabilize,85.0,10.0,0.0,0.0,-10.0,81.810663742023,0.6976623742703725
1760989098.42756,5.569002866744995,-26.08194641901007,-51.80578211550177,58.788800481950716,-8.051002163590065,-16.072763049376295,12.223984309393668,0.05806654801202235,-0.166761201981458,0.04222851925513557,0.65,-0.2,0.2,0.01854796624154351,-24.099730864258355,-50.748515855011824,51.73319849619338,stabilize,85.0,10.0,0.0,0.0,-10.0,83.46973514865425,0.5493691980890089
1760989098.5293534,5.670796155929565,-26.874229888240556,-53.41076085301573,60.05506482706515,-7.47936072082095,-15.315157766241649,12.538874164647126,0.04947730247667263,-0.037917474411461885,0.05327513697203324,0.65,-0.2,0.2,-0.11948824992633472,-24.77874490334874,-52.21798253267265,57.4529897239002,stabilize,85.0,10.0,0.0,0.0,-10.0,88.82910402261369,0.5599370779467769
1760989098.6369388,5.778381586074829,-27.690113961063485,-55.06019170540829,61.41306420885647,-7.841817370355275,-15.61820694058352,12.507509278797999,-0.8285634488293137,0.8241686723392304,0.060430465712051504,0.65,0.2,-0.2,0.04310310436376966,-27.334402474920655,-54.728748509660775,56.77283201149466,stabilize,85.0,10.0,0.0,0.0,-10.0,90.5594642592917,0.7111622877142841
1760989098.7453136,5.886756420135498,-28.569152391921623,-56.80215737802639,62.73791155226012,-8.339955673843658,-16.432253297386623,12.06920762596734,-0.44500293627877185,0.3474824459747988,0.0733712801641317,0.65,0.2,-0.2,-0.15,-28.23609388526435,-56.689165482664734,58.88365241848137,stabilize,85.0,10.0,0.0,0.0,-10.0,93.57294508311986,0.2340413925048764
1760989098.85114,5.99258279800415,-29.439764213818705,-58.525004679160524,64.03165635975124,-7.956841773967419,-15.917734711542368,12.386861166215805,0.2222844692030944,-0.26114916885273054,0.08185138324507465,0.65,-0.2,0.2,-0.14919355232812465,-28.94756072020201,-58.24348441748464,62.54838784679866,stabilize,85.0,10.0,0.0,0.0,-10.0,97.4347644730005,0.7897434013079363
1760989098.9591155,6.100558280944824,-30.275726036889004,-60.2070542458503,65.38723298110868,-7.736386174659982,-15.479037965511807,12.69173940049735,-0.48490578353695984,0.4929390362128709,0.08242976312968213,0.65,0.2,-0.2,0.15,-28.750145341629956,-60.233505840825224,57.22455588819364,stabilize,85.0,10.0,0.0,0.0,-10.0,94.73007440832316,0.19282146552076967
1760989099.0594828,6.200925588607788,-31.076570694913727,-61.796390007587384,66.64383900415801,-8.214041395526078,-16.257731949668973,12.26717651220801,-0.8190218126122413,0.7477853666842944,0.0875463403538565,0.65,0.2,-0.2,-0.15,-30.45647042508277,-60.59298679446279,60.49885176563595,stabilize,85.0,10.0,0.0,0.0,-10.0,97.82226096191496,0.7157391582171712
1760989099.1673098,6.308752536773682,-31.974387451376387,-63.570000068529936,67.95225604186474,-8.340027295925813,-16.51990737949243,12.293332112078412,0.03454175618277992,-0.12387517469737273,0.09419475429173307,0.65,-0.2,0.2,-0.02036920820240184,-31.198607038696522,-62.19216111871084,65.99007329394794,stabilize,85.0,10.0,0.0,0.0,-10.0,103.03256390573941,0.5004004593732977
1760989099.2735105,6.414953231811523,-32.83201896424159,-65.28937465466596,69.28119290620009,-7.76579553974877,-15.719972299254085,12.620188015836655,0.02110377695758746,-0.03250200468881585,0.09677751339068996,0.65,-0.2,0.2,0.15,-32.86159937055171,-64.99899926360618,64.33342625849737,stabilize,85.0,10.0,0.0,0.0,-10.0,104.06830871013706,0.5340953940508008
1760989099.3809779,6.522420644760132,-33.675415850466045,-66.98377011828616,70.64485602937222,-8.061829664950462,-16.0834084298363,12.556835476926048,-0.8580078049953966,0.8138068811582662,0.10416699107537185,0.65,0.2,-0.2,-0.15,-33.93929714125102,-66.31066520853358,67.25502619632194,stabilize,85.0,10.0,0.0,0.0,-10.0,107.31877414243392,0.7600851655608054
1760989099.4883575,6.629800319671631,-34.559727252281846,-68.75298389353286,71.95508238532766,-8.460002975444844,-16.938071485452507,12.078599181045423,-0.5075888599128331,0.36996203325387983,0.10312950849738725,0.65,0.2,-0.2,0.0818214839457927,-34.93444637876094,-68.62712571157864,68.81450730872974,stabilize,85.0,10.0,0.0,0.0,-10.0,110.18994731617379,0.2708164407192618
1760989099.596445,6.737887859344482,-35.46417317233574,-70.57817408411074,73.28243523843514,-8.027475906847982,-16.434700087063085,12.379426218372085,0.22510792628010234,-0.3026620021621072,0.10104102636231141,0.65,-0.2,0.2,-0.10538743432633318,-35.885547773688366,-68.99455421364048,68.11819138075795,stabilize,85.0,10.0,0.0,0.0,-10.0,110.22918340783157,0.8195257295031534
1760989099.703973,6.845415830612183,-36.29909021341722,-72.30481475054279,74.63047375526659,-7.701802375782363,-15.90712325991458,12.683291121641613,-0.43902881204019767,0.4308939785848742,0.08913405835318162,0.65,0.11384545111292252,-0.2,-0.0545652462230299,-36.92944721317732,-72.1279837389035,65.48599189016335,stabilize,85.0,10.0,0.0,0.0,-10.0,110.74459391479199,0.14137169421300996
1760989099.8110743,6.952517032623291,-37.15055999118021,-74.04807478708176,75.9686757766584,-8.200594494472886,-16.73891372356165,12.180927662861114,-0.8839433057286169,0.8345347991839359,0.07307013019638053,0.65,0.2,-0.2,0.15,-37.458455271811026,-73.5306016694767,70.60270274909882,stabilize,85.0,10.0,0.0,0.0,-10.0,115.35458787445387,0.8052342893670854
1760989099.919105,7.060547828674316,-38.058222561854556,-75.88968022043045,77.26903244236267,-8.447414498717515,-17.08441438915459,12.1024230279365,0.004557912241358513,-0.06468666656553029,0.06109794036297191,0.65,-0.2,0.2,0.1264980270312009,-38.585275356594224,-75.24318883670323,73.50029571788498,stabilize,85.0,10.0,0.0,0.0,-10.0,118.83879974837434,0.4166902698885819
1760989100.026485,7.1679277420043945,-38.932306632971816,-77.6784625595768,78.58571929419867,-7.821392446427049,-16.20784620155572,12.4146069510488,0.10898437193424743,-0.12649325782163623,0.05487844393568705,0.65,-0.2,0.2,0.06936278641628013,-39.237361295863394,-78.1679090163923,72.34986802572902,stabilize,85.0,10.0,0.0,0.0,-10.0,120.13031792729133,0.6398006038245343
1760989100.1347108,7.276153564453125,-39.78042292285534,-79.42510114567682,79.94147482101273,-8.04451193625195,-16.362018649710176,12.458250965966023,-0.8111511054100443,0.7716356689650715,0.05074871192865942,0.65,0.2,-0.2,-0.031385073523165365,-39.952506595480884,-79.74284409069328,78.26362976659873,stabilize,85.0,10.0,0.0,0.0,-10.0,125.481442080133,0.6633044920805716
1760989100.2411308,7.38257360458374,-40.66399702808458,-81.21329714118211,81.23580455427702,-8.54097009732247,-17.18641568229313,11.945823308006988,-0.5825931235780155,0.46859119051233766,0.044513825237540404,0.65,0.2,-0.2,-0.15,-40.632864556982305,-81.2950420560838,79.99214001749702,stabilize,85.0,10.0,0.0,0.0,-10.0,127.90034718457684,0.4035095519896538
1760989100.3492055,7.49064826965332,-41.58105001221042,-83.06299421105369,82.53982742352316,-8.22435505667138,-16.78523904102331,12.22608513905123,0.21978024145953193,-0.2782048999698694,0.03948027989002788,0.65,-0.2,0.2,0.0270725523318296,-41.47494705523888,-82.98579760322771,77.40076338607618,stabilize,85.0,10.0,0.0,0.0,-10.0,127.45864928496464,0.7727925885425796
1760989100.4560587,7.597501516342163,-42.43034183407469,-84.8140860515031,83.86299218382135,-7.862815292592317,-16.17821617731651,12.541322365486087,-0.3606030114698101,0.3807505006028862,0.03648506426379052,0.65,-0.08346749763665498,-0.13128479194319548,0.15,-42.15474366072394,-84.52665619981826,82.10054320865635,stabilize,85.0,10.0,0.0,0.0,-10.0,131.9253125095908,0.08184522189490058
1760989100.5666537,7.708096504211426,-43.32711040580727,-86.6297269485025,85.22649685156442,-8.442357716429473,-16.921204627268654,12.088168607266788,-0.8665974094093828,0.8289735032732428,0.0283266339998347,0.65,0.2,-0.2,-0.15,-44.11269518614233,-86.05606085760091,77.94372335732264,stabilize,85.0,10.0,0.0,0.0,-10.0,130.71217986424185,0.8215279192852841
1760989100.6719358,7.813378572463989,-44.244361410962604,-88.45058038259012,86.48950660598624,-8.745022039657194,-17.265360827053165,11.98937798370799,-0.0334758622043817,-0.03938338524080906,0.014965996864838725,0.65,-0.2,0.2,0.15,-44.83941174558911,-87.68431683345368,84.63852098826987,stabilize,85.0,10.0,0.0,0.0,-10.0,136.58536495205905,0.3704770898232173
1760989100.7802515,7.921694278717041,-45.152718271899715,-90.26767158939403,87.79947177166856,-8.07869100389513,-16.40357837180581,12.300635628306857,0.12257058529489726,-0.1549286135355042,0.0165162058254409,0.65,-0.2,0.2,0.00047871949866350665,-45.53466010599785,-89.2825545068683,86.48909199567174,stabilize,85.0,10.0,0.0,0.0,-10.0,139.1219777187985,0.6610190111717532
1760989100.888128,8.029570817947388,-46.02279031699586,-92.0269247658591,89.13938164190148,-8.26251601533035,-16.50434390786619,12.36663283193803,-0.8137729452248703,0.7566228634950797,0.022683853710526027,0.65,0.2,-0.2,0.10678212662895047,-45.6157882739505,-91.46000324535872,83.39569703126902,stabilize,85.0,10.0,0.0,0.0,-10.0,138.45031078856957,0.656057789051218
1760989100.9955807,8.137023448944092,-46.94347232429711,-93.85663585317633,90.44111609341499,-8.77332169335562,-17.345501663599954,11.818006694826686,-0.6249435094298971,0.491849818371158,0.025914069532956684,0.65,0.2,-0.2,-0.08767683824575767,-45.765931965575895,-93.98979429483687,84.85613754359014,stabilize,85.0,10.0,0.0,0.0,-10.0,141.1605071893409,0.4508545374905049
1760989101.1026883,8.244131088256836,-47.87812067849364,-95.70989911483001,91.71833440138056,-8.458781540138155,-16.99041864682131,12.08013983419109,0.22397644651854992,-0.302923045542187,0.03248815438524668,0.65,-0.2,0.2,0.15,-46.0029909539458,-95.80068420685159,79.79557992087364,stabilize,85.0,10.0,0.0,0.0,-10.0,139.13048711384477,0.7863079998803174
1760989101.2102726,8.351715326309204,-48.75372661101761,-97.49139109994542,93.03416898308019,-7.9966641074941,-16.29713019550464,12.398728281373076,-0.2937585659841357,0.30569775428353907,0.045370816026474706,0.65,-0.2,0.05971059104446576,-0.15,-47.2868458667286,-97.3245272795773,88.96888606597166,stabilize,85.0,10.0,0.0,0.0,-10.0,146.63884141439542,0.16711796608423732
1760989101.317565,8.459007740020752,-49.63777840654767,-99.26944151453131,94.35243869996583,-8.501631729462188,-16.986768441736736,12.01594718010017,-0.893834456709619,0.8236180269887792,0.05191196364438788,0.65,0.2,-0.2,0.006211598375552258,-48.47963550282896,-98.62182975700217,90.79435907406581,stabilize,85.0,10.0,0.0,0.0,-10.0,149.11754821032295,0.8144357614222361
1760989101.4242535,8.565696239471436,-50.56660777565061,-101.11852236056733,95.61503896154031,-8.78353189414862,-17.460036211021443,11.852272922370542,-0.11574744772564421,-0.004737238399267596,0.05323728909316303,0.65,-0.2,0.2,0.05463104706709854,-49.22107935440598,-100.28494500347975,94.25448928276155,stabilize,85.0,10.0,0.0,0.0,-10.0,152.80308695433195,0.26546738431727807
1760989101.5327756,8.67421841621399,-51.48589530853717,-102.9714022318065,96.9175145349764,-8.114874592244051,-16.61056173541381,12.100908697214996,0.18302961864893638,-0.22457757359630556,0.0506464620431905,0.65,-0.2,0.2,-0.15,-51.360112899710735,-103.49298206950955,79.45964439730402,stabilize,85.0,10.0,0.0,0.0,-10.0,146.12216296785013,0.7541071217983916
1760989101.6402838,8.781726598739624,-52.34806960905138,-104.73591542107647,98.2345517401753,-8.159240181899268,-16.51109665071094,12.273503116707023,-0.7123341202765581,0.6869130782830616,0.0470311413624021,0.65,0.2,-0.2,0.017656747243957303,-51.78464473124617,-104.74345155850513,87.94546650908543,stabilize,85.0,10.0,0.0,0.0,-10.0,152.4668963546273,0.5380960416204043
1760989101.7480483,8.889491081237793,-53.25217416862975,-106.55152868393873,99.52255927702193,-8.682354910633022,-17.32198701460416,11.77237955010606,-0.6479886503516253,0.5618196075910548,0.04983859991854875,0.65,0.2,-0.2,0.027289669864977655,-52.78435028890706,-106.4476829836966,95.89414708442017,stabilize,85.0,10.0,0.0,0.0,-10.0,159.15673794959616,0.5080839957853791
1760989101.8562424,8.997685194015503,-54.19257375302721,-108.42541729634247,100.80565165804231,-8.472974428296965,-17.030985037501456,12.01909576060758,0.2156596770691281,-0.2755908630065437,0.0513043369480445,0.65,-0.2,0.2,0.15,-54.28380598923546,-108.48064981238377,95.06548090009237,stabilize,85.0,10.0,0.0,0.0,-10.0,160.47908976923338,0.7449211214039481
1760989101.9640741,9.105516910552979,-55.07619783847481,-110.22253924264788,102.12449948173284,-7.999828428763831,-16.31150221883206,12.346396866338512,-0.2774049005986279,0.27863134771555953,0.06450955186339433,0.65,-0.2,0.14138235733808407,0.112624453242193,-55.02945997156409,-109.84401732156343,92.9768557002997,stabilize,85.0,10.0,0.0,0.0,-10.0,160.30652642990628,0.12562185595491582
1760989102.074948,9.21639084815979,-55.97977972437212,-112.04598237618801,103.46917441828988,-8.463942116838702,-17.03406394553556,11.968670692675625,-0.8956255760936678,0.799885647448509,0.08643141723638259,0.65,0.2,-0.2,-0.15,-55.70107544010971,-111.46788658641897,96.91622295514534,stabilize,85.0,10.0,0.0,0.0,-10.0,164.19128562814137,0.8138742656937251
1760989102.1831567,9.324599504470825,-56.9219097742667,-113.9450232224795,104.75833845124521,-8.64574954684885,-17.49728552976371,11.844038901066005,-0.07667331265552807,-0.06593650272078952,0.10898087177514676,0.65,-0.2,0.2,0.06730543132592409,-56.47863602829593,-113.19316378531244,103.09804762014898,stabilize,85.0,10.0,0.0,0.0,-10.0,169.68705616762517,0.3306006743200069
1760989102.2903533,9.431796073913574,-57.81357286402467,-115.77580299461087,106.04485047081772,-7.965849783637329,-16.58363369930785,12.140824469489944,0.18757151446776937,-0.21180173634876032,0.12625917819450888,0.65,-0.2,0.2,-0.10565224677256181,-57.19894415412577,-114.82752172795328,104.86536492575011,stabilize,85.0,10.0,0.0,0.0,-10.0,172.19503772773513,0.7260523817670228
1760989102.3983347,9.539777517318726,-58.6659120356732,-117.54626252221509,107.37160958013077,-8.029671065731353,-16.527994160283896,12.29570704174009,-0.7255895799443107,0.7153699285349904,0.13125694925836173,0.65,0.2,-0.2,-0.09624486251050453,-58.138707431625626,-116.55143016744091,104.07536124236255,stabilize,85.0,10.0,0.0,0.0,-10.0,173.1402125979737,0.5843780368356193
1760989102.5065973,9.648040056228638,-59.55836956052243,-119.38582824262184,108.6717947103102,-8.43659853344281,-17.436336697144434,11.753209393851057,-0.6863634403685537,0.5631611987589553,0.12655799787425787,0.65,0.2,-0.2,-0.13412972190070768,-58.8463257258886,-118.14914600205786,107.2211055151013,stabilize,85.0,10.0,0.0,0.0,-10.0,176.5301626652949,0.5566212198208436
