timestamp,simulation_time,position_x,position_y,position_z,velocity_x,velocity_y,velocity_z,attitude_roll,attitude_pitch,attitude_yaw,control_throttle,control_roll,control_pitch,control_yaw,estimated_position_x,estimated_position_y,estimated_position_z,flight_mode,battery_level,setpoint_altitude,setpoint_position_x,setpoint_position_y,setpoint_position_z,position_error,attitude_error
1761041427.8726907,0.10074114799499512,0.0,0.0,-0.0,0.0,0.0,-0.0,0.0,0.0,0.0,0.0,0.0,0.0,0.0,7.210589258017095e-05,-3.4835656457504748e-06,-0.04456618212995031,manual,85.0,0.0,0.0,0.0,0.0,0.04456624059795572,0.03897434753630356
1761041427.9822314,0.2102818489074707,0.0,0.0,-0.0,0.0,0.0,-0.0,0.0,0.0,0.0,0.0,0.0,0.0,0.0,0.04664467492026024,0.096535883587297,0.026708072421233957,manual,85.0,0.0,0.0,0.0,0.0,0.11049083061890154,0.05468226094682018
1761041428.0909843,0.3190348148345947,0.0,0.0,-0.0,0.0,0.0,-0.0,0.0,0.0,0.0,0.0,0.0,0.0,0.0,-0.06716629074834067,0.08585641335258874,0.20542642739500128,manual,85.0,0.0,0.0,0.0,0.0,0.23255677027112098,0.02357742143402689
1761041428.2001567,0.4282071590423584,0.0,0.0,-0.0,0.0,0.0,-0.0,0.0,0.0,0.0,0.0,0.0,0.0,0.0,-0.06716579897367013,0.08423709306115298,0.45192234075292237,manual,85.0,0.0,0.0,0.0,0.0,0.46458684276544604,0.01733393893340573
1761041428.308404,0.536454439163208,0.0,0.0,-0.0,0.0,0.0,-0.0,0.0,0.0,0.0,0.0,0.0,0.0,0.0,-0.06707417644579741,0.08247465450787052,0.562800337490066,manual,85.0,0.0,0.0,0.0,0.0,0.5727523318686766,0.05478160236075642
1761041428.4185097,0.6465601921081543,0.0,0.0,-0.0,0.0,0.0,-0.0,0.0,0.0,0.0,0.0,0.0,0.0,0.0,0.42453765311505715,0.20832020446811952,0.7881571567564534,manual,85.0,0.0,0.0,0.0,0.0,0.9191415724731943,0.013457971709113753
1761041428.5266612,0.7547116279602051,0.0,0.0,-0.0,0.0,0.0,-0.0,0.0,0.0,0.0,0.0,0.0,0.0,0.0,0.48966411546871846,-0.08603120485641942,0.5886549109479123,manual,85.0,0.0,0.0,0.0,0.0,0.7705108165171364,0.046069393769599544
1761041428.6344054,0.8624558448791504,0.0,0.0,-0.0,0.0,0.0,-0.0,0.0,0.0,0.0,0.0,0.0,0.0,0.0,-0.18299907519231384,0.0365053204880058,0.8581763339595428,manual,85.0,0.0,0.0,0.0,0.0,0.8782299927202526,0.08399067868738191
1761041428.7426322,0.9706826210021973,0.0,0.0,-0.0,0.0,0.0,-0.0,0.0,0.0,0.0,0.0,0.0,0.0,0.0,-0.04440835984144044,-0.08067727202332248,0.863181683954023,manual,85.0,0.0,0.0,0.0,0.0,0.8680803788582223,0.03704771770395231
1761041428.8505616,1.0786120891571045,0.0,0.0,-0.0,0.0,0.0,-0.0,0.0,0.0,0.0,0.0,0.0,0.0,0.0,-0.354397410104399,-0.7630506043448637,0.8403556702988568,manual,85.0,0.0,0.0,0.0,0.0,1.1891347281461457,0.03857666096765896
1761041428.9586318,1.1866822242736816,0.0,0.0,-0.0,0.0,0.0,-0.0,0.0,0.0,0.0,0.0,0.0,0.0,0.0,-0.5245463149223443,0.32328330307571135,0.867932366188019,manual,85.0,0.0,0.0,0.0,0.0,1.0644094714079197,0.030932394794517697
1761041429.065629,1.2936794757843018,0.0,0.0,-0.0,0.0,0.0,-0.0,0.0,0.0,0.0,0.0,0.0,0.0,0.0,-0.5273162690968821,0.3249926585708104,0.893505749798592,manual,85.0,0.0,0.0,0.0,0.0,1.0872144225967215,0.04357830848170444
1761041429.1738968,1.401947259902954,0.0,0.0,-0.0,0.0,0.0,-0.0,0.0,0.0,0.0,0.0,0.0,0.0,0.0,0.16216806950572063,0.1738946215984155,0.897303797649706,manual,85.0,0.0,0.0,0.0,0.0,0.9282736274744925,0.0317818662611611
1761041429.2811253,1.5091757774353027,0.0,0.0,-0.0,0.0,0.0,-0.0,0.0,0.0,0.0,0.0,0.0,0.0,0.0,0.10575285651597875,-0.2806800461583707,0.8790842420485138,manual,85.0,0.0,0.0,0.0,0.0,0.9288455520649084,0.047999915873006206
1761041429.3884678,1.616518259048462,0.0,0.0,-0.0,0.0,0.0,-0.0,0.0,0.0,0.0,0.0,0.0,0.0,0.0,0.10359428129688565,-0.28194858018704455,1.0531157552561776,manual,85.0,0.0,0.0,0.0,0.0,1.0951162362761762,0.04434325682998351
1761041429.4974663,1.7255167961120605,0.0,0.0,-0.0,0.0,0.0,-0.0,0.0,0.0,0.0,0.0,0.0,0.0,0.0,0.06772388163536538,-0.2462623143880291,0.9398410536337766,manual,85.0,0.0,0.0,0.0,0.0,0.9739265155682726,0.036243234795400724
1761041429.605884,1.8339345455169678,0.0,0.0,-0.0,0.0,0.0,-0.0,0.0,0.0,0.0,0.0,0.0,0.0,0.0,0.21655400291941967,0.2545511287637126,0.9310095563489227,manual,85.0,0.0,0.0,0.0,0.0,0.9891767826573378,0.03753081423034823
1761041429.7137756,1.9418261051177979,0.0,0.0,-0.0,0.0,0.0,-0.0,0.0,0.0,0.0,0.0,0.0,0.0,0.0,-0.07595599080625647,0.4327416559761268,1.0210002149495145,manual,85.0,0.0,0.0,0.0,0.0,1.1115197219497617,0.03693198336270917
1761041429.8228235,2.0508739948272705,0.0,0.0,-0.0,0.0,0.0,-0.0,0.0,0.0,0.0,0.0,0.0,0.0,0.0,-0.07919723347818552,0.42727807533900936,1.1234687390151654,manual,85.0,0.0,0.0,0.0,0.0,1.2045832320766932,0.05289945638336641
1761041429.9305139,2.158564329147339,0.0,0.0,-0.0,0.0,0.0,-0.0,0.0,0.0,0.0,0.0,0.0,0.0,0.0,0.142692103612504,0.1711804410667474,1.1229171401150213,manual,85.0,0.0,0.0,0.0,0.0,1.144817314422378,0.024154588202313924
1761041430.038554,2.266604423522949,0.0,0.0,-0.0,0.0,0.0,-0.0,0.0,0.0,0.0,0.0,0.0,0.0,0.0,-0.3377925685387515,-0.23725314676552384,1.1281073585489227,manual,85.0,0.0,0.0,0.0,0.0,1.2012572944304556,0.04594321577955669
1761041430.146683,2.3747334480285645,0.0,0.0,-0.0,0.0,0.0,-0.0,0.0,0.0,0.0,0.0,0.0,0.0,0.0,-0.22583265886217474,0.006898349620937246,1.0661398589177762,manual,85.0,0.0,0.0,0.0,0.0,1.0898174965605332,0.026871326218996083
1761041430.2559533,2.484003782272339,0.0,0.0,-0.0,0.0,0.0,-0.0,0.0,0.0,0.0,0.0,0.0,0.0,0.0,-0.11742805466796977,0.03227513864225363,1.1374772760836862,manual,85.0,0.0,0.0,0.0,0.0,1.1439779657861608,0.033812747673579495
1761041430.3633983,2.5914487838745117,0.0,0.0,-0.0,0.0,0.0,-0.0,0.0,0.0,0.0,0.0,0.0,0.0,0.0,-0.5362309880430313,-0.0060548547335299695,0.9782589520498564,manual,85.0,0.0,0.0,0.0,0.0,1.1156033843033701,0.03402483283524113
1761041430.4707391,2.698789596557617,0.0,0.0,-0.0,0.0,0.0,-0.0,0.0,0.0,0.0,0.0,0.0,0.0,0.0,-0.6260317140507417,0.2319483171064455,1.0404117543418399,manual,85.0,0.0,0.0,0.0,0.0,1.2361926821408087,0.028917737061416045
1761041430.5779889,2.806039333343506,0.0,0.0,-0.0,0.0,0.0,-0.0,0.0,0.0,0.0,0.0,0.0,0.0,0.0,-0.4398281470110267,0.5654472109574005,0.9367549117046405,manual,85.0,0.0,0.0,0.0,0.0,1.1792748245788278,0.021394871541411044
1761041430.6857035,2.9137539863586426,0.0,0.0,-0.0,0.0,0.0,-0.0,0.0,0.0,0.0,0.0,0.0,0.0,0.0,-0.45177782235607067,0.5926669823882282,0.7962426327917657,manual,85.0,0.0,0.0,0.0,0.0,1.0905776831849827,0.04157301142073347
1761041430.7949786,3.023029088973999,0.0,0.0,-0.0,0.0,0.0,-0.0,0.0,0.0,0.0,0.0,0.0,0.0,0.0,-0.4475460195090337,0.5876626975345268,1.0416589442264201,manual,85.0,0.0,0.0,0.0,0.0,1.27698795677126,0.022948172367748914
1761041430.9037056,3.131756067276001,0.0,0.0,-0.0,0.0,0.0,-0.0,0.0,0.0,0.0,0.0,0.0,0.0,0.0,-0.2294261109174162,0.6192784987636818,0.8942061782060265,manual,85.0,0.0,0.0,0.0,0.0,1.1116415287958246,0.02340729456802354
1761041431.0117352,3.239785671234131,0.0,0.0,-0.0,0.0,0.0,-0.0,0.0,0.0,0.0,0.0,0.0,0.0,0.0,-0.21110204498533927,0.28369945338336944,0.8172155981180085,manual,85.0,0.0,0.0,0.0,0.0,0.8904441515639199,0.02551968528395612
1761041431.1199825,3.3480329513549805,0.0,0.0,-0.0,0.0,0.0,-0.0,0.0,0.0,0.0,0.0,0.0,0.0,0.0,-0.022243960661813722,0.29788388852631686,0.7581926458441764,manual,85.0,0.0,0.0,0.0,0.0,0.8149145311268393,0.022880021027739936
1761041431.2283795,3.456429958343506,0.0,0.0,-0.0,0.0,0.0,-0.0,0.0,0.0,0.0,0.0,0.0,0.0,0.0,-0.021799693027560844,0.2939678007389362,0.7467522509591539,manual,85.0,0.0,0.0,0.0,0.0,0.802827016735203,0.06864627920938501
1761041431.336086,3.564136505126953,0.0,0.0,-0.0,0.0,0.0,-0.0,0.0,0.0,0.0,0.0,0.0,0.0,0.0,-0.021327906263996173,0.28988211336848163,0.9966923514262418,manual,85.0,0.0,0.0,0.0,0.0,1.0382110395426134,0.05225237156227287
1761041431.4444559,3.672506332397461,0.0,0.0,-0.0,0.0,0.0,-0.0,0.0,0.0,0.0,0.0,0.0,0.0,0.0,0.043554296919487534,-0.29386365548058907,0.9886978763902082,manual,85.0,0.0,0.0,0.0,0.0,1.0323644296328078,0.03887625935094879
1761041431.552822,3.7808725833892822,0.0,0.0,-0.0,0.0,0.0,-0.0,0.0,0.0,0.0,0.0,0.0,0.0,0.0,0.6665048435736556,-0.2534923680426995,0.8820169104880148,manual,85.0,0.0,0.0,0.0,0.0,1.134213788291194,0.0385331839489194
1761041431.6622145,3.8902649879455566,0.0,0.0,-0.0,0.0,0.0,-0.0,0.0,0.0,0.0,0.0,0.0,0.0,0.0,0.15920574356142414,-0.2694080733868983,0.7714943311739613,manual,85.0,0.0,0.0,0.0,0.0,0.8325447025971303,0.06468698181365358
1761041431.7701364,3.9981868267059326,0.0,0.0,-0.0,0.0,0.0,-0.0,0.0,0.0,0.0,0.0,0.0,0.0,0.0,0.4515221648216616,-0.17812418894480245,0.8340215403570659,manual,85.0,0.0,0.0,0.0,0.0,0.9649831199518757,0.09667836426525121
1761041431.8791385,4.107188940048218,0.0,0.0,-0.0,0.0,0.0,-0.0,0.0,0.0,0.0,0.0,0.0,0.0,0.0,0.45193726574206255,-0.18337410121950695,0.9243135993805628,manual,85.0,0.0,0.0,0.0,0.0,1.0450975950428385,0.08085756630272446
1761041431.9880867,4.216137170791626,0.0,0.0,-0.0,0.0,0.0,-0.0,0.0,0.0,0.0,0.0,0.0,0.0,0.0,1.2201513408288351,0.1590930256831482,0.9077981499460219,manual,85.0,0.0,0.0,0.0,0.0,1.5291099915940787,0.06897302498996533
1761041432.095617,4.323667526245117,0.0,0.0,-0.0,0.0,0.0,-0.0,0.0,0.0,0.0,0.0,0.0,0.0,0.0,1.4140419662919272,0.5455408055760229,0.803039384467864,manual,85.0,0.0,0.0,0.0,0.0,1.7152264299473121,0.029899561913669985
1761041432.203887,4.4319374561309814,0.0,0.0,-0.0,0.0,0.0,-0.0,0.0,0.0,0.0,0.0,0.0,0.0,0.0,0.5927234368353603,0.5144339650600132,0.5719197174901622,manual,85.0,0.0,0.0,0.0,0.0,0.9711104675758135,0.03225810674491712
1761041432.3134644,4.541514873504639,0.0,0.0,-0.0,0.0,0.0,-0.0,0.0,0.0,0.0,0.0,0.0,0.0,0.0,0.453734066979484,0.743650169569746,0.45374145493564705,manual,85.0,0.0,0.0,0.0,0.0,0.9822278178538686,0.033978323658812475
1761041432.4231732,4.651223659515381,0.0,0.0,-0.0,0.0,0.0,-0.0,0.0,0.0,0.0,0.0,0.0,0.0,0.0,0.24261199292531246,0.21178338699783586,0.5937784388734203,manual,85.0,0.0,0.0,0.0,0.0,0.6754891683738704,0.028533504076285417
1761041432.531756,4.759806394577026,0.0,0.0,-0.0,0.0,0.0,-0.0,0.0,0.0,0.0,0.0,0.0,0.0,0.0,-0.049824929062392366,0.10097231412173995,0.601341199245,manual,85.0,0.0,0.0,0.0,0.0,0.6117917698732033,0.058286385898537504
1761041432.6403244,4.868374824523926,0.0,0.0,-0.0,0.0,0.0,-0.0,0.0,0.0,0.0,0.0,0.0,0.0,0.0,-0.04549397967801688,0.09720950767492416,0.7694048228711844,manual,85.0,0.0,0.0,0.0,0.0,0.7768546659619053,0.02499490041589684
1761041432.748618,4.976668357849121,0.0,0.0,-0.0,0.0,0.0,-0.0,0.0,0.0,0.0,0.0,0.0,0.0,0.0,0.09859272166903035,0.3440141614761806,1.0351108217932488,manual,85.0,0.0,0.0,0.0,0.0,1.0952263151768047,0.04334510863260714
1761041432.8563385,5.084388971328735,0.0,0.0,-0.0,0.0,0.0,-0.0,0.0,0.0,0.0,0.0,0.0,0.0,0.0,0.018466608145807674,0.16551623137906987,1.0733931830599794,manual,85.0,0.0,0.0,0.0,0.0,1.0862364217360672,0.022387329234876668
1761041432.9650855,5.193135976791382,0.0,0.0,-0.0,0.0,0.0,-0.0,0.0,0.0,0.0,0.0,0.0,0.0,0.0,0.023827849775778488,0.16394865677629417,1.107981515655509,manual,85.0,0.0,0.0,0.0,0.0,1.1202990527167143,0.0187002257059737
1761041433.072473,5.300523519515991,0.0,0.0,-0.0,0.0,0.0,-0.0,0.0,0.0,0.0,0.0,0.0,0.0,0.0,-8.586670898206715e-05,0.07331414155906359,1.0982869174290575,manual,85.0,0.0,0.0,0.0,0.0,1.1007311768644765,0.01936190998528519
1761041433.1812422,5.409292697906494,0.0,0.0,-0.0,0.0,0.0,-0.0,0.0,0.0,0.0,0.0,0.0,0.0,0.0,0.10530919693657445,0.09671832055037909,1.00433910825102,manual,85.0,0.0,0.0,0.0,0.0,1.0144661181389778,0.051160343632405327
1761041433.2894843,5.5175347328186035,0.0,0.0,-0.0,0.0,0.0,-0.0,0.0,0.0,0.0,0.0,0.0,0.0,0.0,0.11164208459472265,0.09690193679730379,0.951742775534881,manual,85.0,0.0,0.0,0.0,0.0,0.9631553619175687,0.07037853698221584
1761041433.3995614,5.627611875534058,0.0,0.0,-0.0,0.0,0.0,-0.0,0.0,0.0,0.0,0.0,0.0,0.0,0.0,0.11808033461675194,0.09695503343618567,1.0108366111995373,manual,85.0,0.0,0.0,0.0,0.0,1.0223179047992754,0.020642787218059233
1761041433.508045,5.736095428466797,0.0,0.0,-0.0,0.0,0.0,-0.0,0.0,0.0,0.0,0.0,0.0,0.0,0.0,-0.1552833912642709,-0.5807409893860055,1.0340268911932948,manual,85.0,0.0,0.0,0.0,0.0,1.196070499622175,0.02287408451554026
1761041433.6165237,5.844574213027954,0.0,0.0,-0.0,0.0,0.0,-0.0,0.0,0.0,0.0,0.0,0.0,0.0,0.0,-0.09257877676862879,-0.23939000820654194,1.1195628530435946,manual,85.0,0.0,0.0,0.0,0.0,1.148607586537812,0.011175760189543162
1761041433.7242322,5.952282667160034,0.0,0.0,-0.0,0.0,0.0,-0.0,0.0,0.0,0.0,0.0,0.0,0.0,0.0,-0.3585591803217218,-0.03150750071457015,1.13411872632301,manual,85.0,0.0,0.0,0.0,0.0,1.1898666705941428,0.03504314690376126
1761041433.8336115,6.061661958694458,0.0,0.0,-0.0,0.0,0.0,-0.0,0.0,0.0,0.0,0.0,0.0,0.0,0.0,-0.5174558425400734,0.16091260441631303,1.088076912892136,manual,85.0,0.0,0.0,0.0,0.0,1.215551226237619,0.030810758801364548
1761041433.9408047,6.1688551902771,0.0,0.0,-0.0,0.0,0.0,-0.0,0.0,0.0,0.0,0.0,0.0,0.0,0.0,-0.5142689177693758,0.1632346138453415,0.9536018408936138,manual,85.0,0.0,0.0,0.0,0.0,1.0956616858759878,0.05942607901329286
1761041434.0496595,6.2777099609375,0.0,0.0,-0.0,0.0,0.0,-0.0,0.0,0.0,0.0,0.0,0.0,0.0,0.0,-0.8131974481029498,0.31196018873979464,1.176037764937436,manual,85.0,0.0,0.0,0.0,0.0,1.4634459585234976,0.02831341707758203
1761041434.1574714,6.38552188873291,0.0,0.0,-0.0,0.0,0.0,-0.0,0.0,0.0,0.0,0.0,0.0,0.0,0.0,-0.655154526076303,0.5440239874538909,1.073031308256112,manual,85.0,0.0,0.0,0.0,0.0,1.3698853019363773,0.04754057187472026
1761041434.267915,6.495965480804443,0.0,0.0,-0.0,0.0,0.0,-0.0,0.0,0.0,0.0,0.0,0.0,0.0,0.0,-0.6856038556881907,0.2863405377971327,1.159872242870274,manual,85.0,0.0,0.0,0.0,0.0,1.3774422566123723,0.030864867868530193
1761041434.4565213,6.684571743011475,0.0,0.0,-0.0,0.0,0.0,-0.0,0.0,0.0,0.0,0.0,0.0,0.0,0.0,-0.5866725548523051,0.26583754704128526,1.7912017537922593,manual,85.0,0.0,0.0,0.0,0.0,1.903485752723756,0.037868036798730374
1761041434.5562809,6.784331321716309,0.0,0.0,-0.0,0.0,0.0,-0.0,0.0,0.0,0.0,0.0,0.0,0.0,0.0,-0.5827170306589148,0.26686683298602026,1.415603809990945,manual,85.0,0.0,0.0,0.0,0.0,1.5539341013147276,0.02935378297852803
1761041434.6658106,6.8938610553741455,0.0,0.0,-0.0,0.0,0.0,-0.0,0.0,0.0,0.0,0.0,0.0,0.0,0.0,-0.578465542962646,0.26772440993094165,1.2888988513495678,manual,85.0,0.0,0.0,0.0,0.0,1.437900898211756,0.028977662103444178
1761041434.7755783,7.003628730773926,0.0,0.0,-0.0,0.0,0.0,-0.0,0.0,0.0,0.0,0.0,0.0,0.0,0.0,-0.8465948238144005,0.6821708238068902,1.3324321622802122,manual,85.0,0.0,0.0,0.0,0.0,1.7197253547126148,0.037285992870475806
1761041434.8858821,7.1139326095581055,0.0,0.0,-0.0,0.0,0.0,-0.0,0.0,0.0,0.0,0.0,0.0,0.0,0.0,-0.6079783147038248,0.2069362283035261,1.3032384692819556,manual,85.0,0.0,0.0,0.0,0.0,1.4528904781679062,0.05343686104721133
1761041434.9958966,7.223947048187256,0.0,0.0,-0.0,0.0,0.0,-0.0,0.0,0.0,0.0,0.0,0.0,0.0,0.0,-0.602342019004151,0.2060582204514994,1.283874237868833,manual,85.0,0.0,0.0,0.0,0.0,1.4330418544958525,0.043024805049034824
1761041435.1057553,7.333805799484253,0.0,0.0,-0.0,0.0,0.0,-0.0,0.0,0.0,0.0,0.0,0.0,0.0,0.0,-0.596638265367779,0.20493325900392162,1.5753581003053758,manual,85.0,0.0,0.0,0.0,0.0,1.6969761355260136,0.03658853649943769
1761041435.214923,7.442973375320435,0.0,0.0,-0.0,0.0,0.0,-0.0,0.0,0.0,0.0,0.0,0.0,0.0,0.0,0.06166745758150667,0.20622603872501163,1.3833429032640732,manual,85.0,0.0,0.0,0.0,0.0,1.3999891579522508,0.04451704158879711
1761041435.3241968,7.5522472858428955,0.0,0.0,-0.0,0.0,0.0,-0.0,0.0,0.0,0.0,0.0,0.0,0.0,0.0,0.10570963288860888,-0.02131889879214721,1.1676308766451888,manual,85.0,0.0,0.0,0.0,0.0,1.1726000537380026,0.035122262069539896
1761041435.4313042,7.6593546867370605,0.0,0.0,-0.0,0.0,0.0,-0.0,0.0,0.0,0.0,0.0,0.0,0.0,0.0,0.10882899627689493,-0.021840462081413246,1.0663421932035666,manual,85.0,0.0,0.0,0.0,0.0,1.0721037399527895,0.059690707308140196
1761041435.5412564,7.769306898117065,0.0,0.0,-0.0,0.0,0.0,-0.0,0.0,0.0,0.0,0.0,0.0,0.0,0.0,-0.08479141494048059,-0.09487695533533617,1.0369778945244632,manual,85.0,0.0,0.0,0.0,0.0,1.0447556529800166,0.06938838934276571
1761041435.651112,7.879162549972534,0.0,0.0,-0.0,0.0,0.0,-0.0,0.0,0.0,0.0,0.0,0.0,0.0,0.0,-0.08473705016644556,-0.09338302147639482,1.228396061343769,manual,85.0,0.0,0.0,0.0,0.0,1.2348512622562509,0.03655997303800668
1761041435.7601345,7.988184928894043,0.0,0.0,-0.0,0.0,0.0,-0.0,0.0,0.0,0.0,0.0,0.0,0.0,0.0,-0.08480993513431802,-0.09219872628277016,1.3132200157578082,manual,85.0,0.0,0.0,0.0,0.0,1.319181617523755,0.07293453275219866
1761041435.8696213,8.097671747207642,0.0,0.0,-0.0,0.0,0.0,-0.0,0.0,0.0,0.0,0.0,0.0,0.0,0.0,-0.4173130541883715,0.01514049125020135,1.2812944174082617,manual,85.0,0.0,0.0,0.0,0.0,1.3476256170587217,0.03364724578263308
1761041435.9777849,8.205835342407227,0.0,0.0,-0.0,0.0,0.0,-0.0,0.0,0.0,0.0,0.0,0.0,0.0,0.0,-0.42057070145812403,0.0163481285545283,1.3845745615550629,manual,85.0,0.0,0.0,0.0,0.0,1.4471329215858537,0.07544613833293946
1761041436.0877278,8.315778255462646,0.0,0.0,-0.0,0.0,0.0,-0.0,0.0,0.0,0.0,0.0,0.0,0.0,0.0,0.5027638407412077,0.04699753629866959,1.1409427725139976,manual,85.0,0.0,0.0,0.0,0.0,1.2476901290492455,0.05292078276768181
1761041436.195932,8.423982381820679,0.0,0.0,-0.0,0.0,0.0,-0.0,0.0,0.0,0.0,0.0,0.0,0.0,0.0,-0.031181280768230013,0.05773328833874892,1.2967976031594917,manual,85.0,0.0,0.0,0.0,0.0,1.2984565562285688,0.05067605072691973
1761041436.305408,8.533458471298218,0.0,0.0,-0.0,0.0,0.0,-0.0,0.0,0.0,0.0,0.0,0.0,0.0,0.0,0.29357484501141784,0.06902765498125514,1.3045527980743836,manual,85.0,0.0,0.0,0.0,0.0,1.3389581807283575,0.040873162815875934
1761041436.413233,8.641283512115479,0.0,0.0,-0.0,0.0,0.0,-0.0,0.0,0.0,0.0,0.0,0.0,0.0,0.0,-0.16163437580048134,0.4236251625684947,1.2596203932707921,manual,85.0,0.0,0.0,0.0,0.0,1.3387410074190078,0.04180113226978498
1761041436.523579,8.75162935256958,0.0,0.0,-0.0,0.0,0.0,-0.0,0.0,0.0,0.0,0.0,0.0,0.0,0.0,-0.5578069885064258,0.13289428647454213,1.1299339874146037,manual,85.0,0.0,0.0,0.0,0.0,1.2671070766588164,0.10121147474700799
1761041436.6336286,8.861679077148438,0.0,0.0,-0.0,0.0,0.0,-0.0,0.0,0.0,0.0,0.0,0.0,0.0,0.0,-0.5956361382729208,0.40751190451488667,0.8490692982256905,manual,85.0,0.0,0.0,0.0,0.0,1.114346012119887,0.03554379145313246
1761041436.7414968,8.969547271728516,0.0,0.0,-0.0,0.0,0.0,-0.0,0.0,0.0,0.0,0.0,0.0,0.0,0.0,-0.3743542949039358,0.28787396796787323,0.9310246900334144,manual,85.0,0.0,0.0,0.0,0.0,1.0439442192945017,0.037211612453039354
1761041436.8506482,9.078698635101318,0.0,0.0,-0.0,0.0,0.0,-0.0,0.0,0.0,0.0,0.0,0.0,0.0,0.0,-0.3781198630681314,0.29090220704118813,1.044679329070758,manual,85.0,0.0,0.0,0.0,0.0,1.1484570629744175,0.04392896716923914
1761041436.959178,9.187228441238403,0.0,0.0,-0.0,0.0,0.0,-0.0,0.0,0.0,0.0,0.0,0.0,0.0,0.0,-0.08264253646017213,0.11594046028930781,1.0095836841692263,manual,85.0,0.0,0.0,0.0,0.0,1.0195740260056527,0.038647337828503166
1761041437.060305,9.288355588912964,0.0,0.0,-0.0,0.0,0.0,-0.0,0.0,0.0,0.0,0.0,0.0,0.0,0.0,-0.1233541411976464,0.2233321314346216,0.9972670752653564,manual,85.0,0.0,0.0,0.0,0.0,1.029385789920406,0.03718527318459138
1761041437.1690485,9.397099018096924,0.0,0.0,-0.0,0.0,0.0,-0.0,0.0,0.0,0.0,0.0,0.0,0.0,0.0,-0.12609568903668217,0.22223383834079158,1.0807010654298395,manual,85.0,0.0,0.0,0.0,0.0,1.1104966431820076,0.05433746917352076
1761041437.2776103,9.505660772323608,0.0,0.0,-0.0,0.0,0.0,-0.0,0.0,0.0,0.0,0.0,0.0,0.0,0.0,-0.1289781781501036,0.22076342087591883,1.242998655730165,manual,85.0,0.0,0.0,0.0,0.0,1.269022267961739,0.04504664584596434
1761041437.3855977,9.613648176193237,0.0,0.0,-0.0,0.0,0.0,-0.0,0.0,0.0,0.0,0.0,0.0,0.0,0.0,0.18573519473876382,0.28314947124974094,1.1568068751157754,manual,85.0,0.0,0.0,0.0,0.0,1.205351953559117,0.044805606089829926
1761041437.4935982,9.721648693084717,0.0,0.0,-0.0,0.0,0.0,-0.0,0.0,0.0,0.0,0.0,0.0,0.0,0.0,0.007283389393502366,-0.5137890328013647,1.073876223914686,manual,85.0,0.0,0.0,0.0,0.0,1.1904798873888143,0.05544930044809215
1761041437.5988185,9.826869010925293,0.0,0.0,-0.0,0.0,0.0,-0.0,0.0,0.0,0.0,0.0,0.0,0.0,0.0,0.004317316548339032,-0.5175983538215211,1.3017047366427115,manual,85.0,0.0,0.0,0.0,0.0,1.4008432876303467,0.04363613205017029
1761041437.7067149,9.934765338897705,0.0,0.0,-0.0,0.0,0.0,-0.0,0.0,0.0,0.0,0.0,0.0,0.0,0.0,-0.6686816151727091,-0.4654807370361363,1.2459178419933596,manual,85.0,0.0,0.0,0.0,0.0,1.4886633897624668,0.05726952654799873
1761041437.8146253,10.042675733566284,0.0,0.0,-0.0,0.0,0.0,-0.0,0.0,0.0,0.0,0.0,0.0,0.0,0.0,-0.758655837759225,-0.3897528510178278,1.2176105306206182,manual,85.0,0.0,0.0,0.0,0.0,1.4866207886750742,0.04846015457556335
1761041437.922597,10.150647401809692,0.0,0.0,-0.0,0.0,0.0,-0.0,0.0,0.0,0.0,0.0,0.0,0.0,0.0,-1.3470752286416636,-0.43541604838228926,1.3138168162943842,manual,85.0,0.0,0.0,0.0,0.0,1.9314019347579492,0.04544126757744354
1761041438.0319068,10.259957313537598,0.0,0.0,-0.0,0.0,0.0,-0.0,0.0,0.0,0.0,0.0,0.0,0.0,0.0,-1.0473234179195607,-0.5413129683238876,0.87133202914766,manual,85.0,0.0,0.0,0.0,0.0,1.465989623570681,0.04492858241001128
1761041438.141413,10.369463443756104,0.0,0.0,-0.0,0.0,0.0,-0.0,0.0,0.0,0.0,0.0,0.0,0.0,0.0,-1.0530134684369434,-0.5437503249283373,0.8821845586112252,manual,85.0,0.0,0.0,0.0,0.0,1.477413745712878,0.04744142199474151
1761041438.249607,10.477657556533813,0.0,0.0,-0.0,0.0,0.0,-0.0,0.0,0.0,0.0,0.0,0.0,0.0,0.0,-0.8773073730038308,-0.6964088675086384,0.9809286603806145,manual,85.0,0.0,0.0,0.0,0.0,1.4889172489522893,0.05243772394791598
1761041438.3576746,10.58572506904602,0.0,0.0,-0.0,0.0,0.0,-0.0,0.0,0.0,0.0,0.0,0.0,0.0,0.0,-1.0141515083004398,-0.8198428754794468,0.8506455138325739,manual,85.0,0.0,0.0,0.0,0.0,1.5569982056720388,0.04781998006354707
1761041438.4659123,10.693962812423706,0.0,0.0,-0.0,0.0,0.0,-0.0,0.0,0.0,0.0,0.0,0.0,0.0,0.0,-1.05349453861101,-0.4371873663332841,0.8679559195208916,manual,85.0,0.0,0.0,0.0,0.0,1.4332937641656067,0.10929068624458242
1761041438.5759718,10.804022312164307,0.0,0.0,-0.0,0.0,0.0,-0.0,0.0,0.0,0.0,0.0,0.0,0.0,0.0,-0.5529525463137239,-0.11312896243623011,0.8311611669733645,manual,85.0,0.0,0.0,0.0,0.0,1.0046808279753596,0.09803695436150982
1761041438.6836379,10.911688327789307,0.0,0.0,-0.0,0.0,0.0,-0.0,0.0,0.0,0.0,0.0,0.0,0.0,0.0,-0.7578698847318281,-0.18891448696267338,0.8316634259358903,manual,85.0,0.0,0.0,0.0,0.0,1.1409292263796325,0.07324836215100576
1761041438.792472,11.020522356033325,0.0,0.0,-0.0,0.0,0.0,-0.0,0.0,0.0,0.0,0.0,0.0,0.0,0.0,-0.5302472506330853,-0.7038460096809503,0.7905384974950449,manual,85.0,0.0,0.0,0.0,0.0,1.183854918547651,0.04993405889784372
1761041438.9006066,11.128657102584839,0.0,0.0,-0.0,0.0,0.0,-0.0,0.0,0.0,0.0,0.0,0.0,0.0,0.0,-0.5317289272685695,-0.7083401762420484,1.086837439426561,manual,85.0,0.0,0.0,0.0,0.0,1.4020331940122115,0.06177825425222117
1761041439.0096066,11.237657070159912,0.0,0.0,-0.0,0.0,0.0,-0.0,0.0,0.0,0.0,0.0,0.0,0.0,0.0,-0.5333071503642489,-0.713434532576647,1.0663244530639873,manual,85.0,0.0,0.0,0.0,0.0,1.3894074953391844,0.04948305044382848
1761041439.1098,11.337850570678711,0.0,0.0,-0.0,0.0,0.0,-0.0,0.0,0.0,0.0,0.0,0.0,0.0,0.0,-0.7145185161922177,-0.4985109582733147,1.2333273642216762,manual,85.0,0.0,0.0,0.0,0.0,1.5100153220540826,0.06947258528971044
1761041439.218714,11.446764469146729,0.0,0.0,-0.0,0.0,0.0,-0.0,0.0,0.0,0.0,0.0,0.0,0.0,0.0,-0.9381416693111565,-0.34179227572755366,1.2219582080677047,manual,85.0,0.0,0.0,0.0,0.0,1.578009383276595,0.06495207898597315
1761041439.3259678,11.554018259048462,0.0,0.0,-0.0,0.0,0.0,-0.0,0.0,0.0,0.0,0.0,0.0,0.0,0.0,-0.4775575795833584,-0.2356817487536219,1.2789488212346087,manual,85.0,0.0,0.0,0.0,0.0,1.3853942456392967,0.061627328776419056
1761041439.4351394,11.663189888000488,0.0,0.0,-0.0,0.0,0.0,-0.0,0.0,0.0,0.0,0.0,0.0,0.0,0.0,-0.7358966504462089,0.4712212637942425,1.0272387253733952,manual,85.0,0.0,0.0,0.0,0.0,1.3486336635634417,0.05513959461230096
1761041439.5438523,11.771902799606323,0.0,0.0,-0.0,0.0,0.0,-0.0,0.0,0.0,0.0,0.0,0.0,0.0,0.0,-0.4940909336887202,-0.011319571182338867,0.9940742569495757,manual,85.0,0.0,0.0,0.0,0.0,1.110152066959745,0.05820207889268958
1761041439.6494126,11.877463102340698,0.0,0.0,-0.0,0.0,0.0,-0.0,0.0,0.0,0.0,0.0,0.0,0.0,0.0,-0.5876259703317762,0.07754749663707224,1.05925240227279,manual,85.0,0.0,0.0,0.0,0.0,1.2138095184021729,0.048480849077615996
1761041439.7575846,11.985635042190552,0.0,0.0,-0.0,0.0,0.0,-0.0,0.0,0.0,0.0,0.0,0.0,0.0,0.0,-0.6263066094242682,-0.12380464892156473,0.893300652852032,manual,85.0,0.0,0.0,0.0,0.0,1.0979861640699218,0.05712557666488703
1761041439.866508,12.094558477401733,0.0,0.0,-0.0,0.0,0.0,-0.0,0.0,0.0,0.0,0.0,0.0,0.0,0.0,-0.7565388862279201,-0.5597597577199533,0.9620200262858515,manual,85.0,0.0,0.0,0.0,0.0,1.345795156668619,0.062371414407239395
1761041439.9737017,12.201752185821533,0.0,0.0,-0.0,0.0,0.0,-0.0,0.0,0.0,0.0,0.0,0.0,0.0,0.0,-0.7614890543628392,-0.5628547024414376,1.0699301862339758,manual,85.0,0.0,0.0,0.0,0.0,1.4287832583668947,0.06891743120814736
1761041440.083394,12.311444520950317,0.0,0.0,-0.0,0.0,0.0,-0.0,0.0,0.0,0.0,0.0,0.0,0.0,0.0,-0.766603289285969,-0.5663826433350505,1.1749676619992457,manual,85.0,0.0,0.0,0.0,0.0,1.5129503985786315,0.050134161811638
1761041440.1932986,12.421349048614502,0.0,0.0,-0.0,0.0,0.0,-0.0,0.0,0.0,0.0,0.0,0.0,0.0,0.0,-0.7718933482200696,-0.5702789435351231,1.1748588215911686,manual,85.0,0.0,0.0,0.0,0.0,1.5170137326789481,0.05571883994530075
1761041440.3014946,12.529545068740845,0.0,0.0,-0.0,0.0,0.0,-0.0,0.0,0.0,0.0,0.0,0.0,0.0,0.0,-1.0544510420403927,-0.7713080035596785,1.242460434691737,manual,85.0,0.0,0.0,0.0,0.0,1.8029118026652515,0.08494439175144716
1761041440.410597,12.638647556304932,0.0,0.0,-0.0,0.0,0.0,-0.0,0.0,0.0,0.0,0.0,0.0,0.0,0.0,-0.7435648851211125,-0.7248288436357425,1.1641401359332013,manual,85.0,0.0,0.0,0.0,0.0,1.5599640531249666,0.084051946347473
1761041440.5184472,12.746497631072998,0.0,0.0,-0.0,0.0,0.0,-0.0,0.0,0.0,0.0,0.0,0.0,0.0,0.0,-0.4245095464241668,-0.4631669907249556,1.1772341914495486,manual,85.0,0.0,0.0,0.0,0.0,1.334395877474273,0.06394335794950037
1761041440.628607,12.8566575050354,0.0,0.0,-0.0,0.0,0.0,-0.0,0.0,0.0,0.0,0.0,0.0,0.0,0.0,-1.0050872198061138,-0.07708280514749848,1.2553932158687036,manual,85.0,0.0,0.0,0.0,0.0,1.6100168336747773,0.09306633802568172
1761041440.7371898,12.965240240097046,0.0,0.0,-0.0,0.0,0.0,-0.0,0.0,0.0,0.0,0.0,0.0,0.0,0.0,-1.01015494801509,-0.08405355802422776,1.1193400146589492,manual,85.0,0.0,0.0,0.0,0.0,1.5100993636289628,0.07036898028865118
1761041440.846253,13.074303388595581,0.0,0.0,-0.0,0.0,0.0,-0.0,0.0,0.0,0.0,0.0,0.0,0.0,0.0,-1.0154616158814838,-0.0915966728302465,1.2440422753455564,manual,85.0,0.0,0.0,0.0,0.0,1.6084754976838018,0.0769877661015759
1761041440.9558325,13.18388295173645,0.0,0.0,-0.0,0.0,0.0,-0.0,0.0,0.0,0.0,0.0,0.0,0.0,0.0,-0.8493486752900372,-0.21990213963908364,1.1606112628828043,manual,85.0,0.0,0.0,0.0,0.0,1.4549118965646015,0.08856136470272719
1761041441.063316,13.291366577148438,0.0,0.0,-0.0,0.0,0.0,-0.0,0.0,0.0,0.0,0.0,0.0,0.0,0.0,-1.3321132674273595,0.06750272129654045,1.1161095557800997,manual,85.0,0.0,0.0,0.0,0.0,1.739190304464145,0.09447939616994895
1761041441.173884,13.401934385299683,0.0,0.0,-0.0,0.0,0.0,-0.0,0.0,0.0,0.0,0.0,0.0,0.0,0.0,-1.090172998626822,0.2538302138681296,0.942965339797655,manual,85.0,0.0,0.0,0.0,0.0,1.4635882537336258,0.08559083051103403
1761041441.282603,13.510653495788574,0.0,0.0,-0.0,0.0,0.0,-0.0,0.0,0.0,0.0,0.0,0.0,0.0,0.0,-0.7317888958048065,-0.06936455848230168,1.1305257320509552,manual,85.0,0.0,0.0,0.0,0.0,1.348486136682914,0.09830424481917371
1761041441.3907726,13.618823051452637,0.0,0.0,-0.0,0.0,0.0,-0.0,0.0,0.0,0.0,0.0,0.0,0.0,0.0,-0.732606141183862,-0.07004466587490306,1.182306605638933,manual,85.0,0.0,0.0,0.0,0.0,1.392647451099987,0.10787954048478259
1761041441.4987164,13.72676682472229,0.0,0.0,-0.0,0.0,0.0,-0.0,0.0,0.0,0.0,0.0,0.0,0.0,0.0,-0.888239417604249,0.00854845470055747,1.1908315574309607,manual,85.0,0.0,0.0,0.0,0.0,1.4856386294241108,0.09406440238015631
1761041441.6064684,13.834518909454346,0.0,0.0,-0.0,0.0,0.0,-0.0,0.0,0.0,0.0,0.0,0.0,0.0,0.0,-0.785120425820436,-0.14009788701123035,1.0044496514187415,manual,85.0,0.0,0.0,0.0,0.0,1.282560175282511,0.09672049532108117
1761041441.71019,13.93824052810669,0.0,0.0,-0.0,0.0,0.0,-0.0,0.0,0.0,0.0,0.0,0.0,0.0,0.0,-0.5393313979745569,0.1540203233691974,0.9742834270065236,manual,85.0,0.0,0.0,0.0,0.0,1.1242014112211023,0.09958608572034668
1761041441.8186035,14.046653985977173,0.0,0.0,-0.0,0.0,0.0,-0.0,0.0,0.0,0.0,0.0,0.0,0.0,0.0,-0.5394315436230531,0.14913892778441384,1.1288035527320828,manual,85.0,0.0,0.0,0.0,0.0,1.2599310579142045,0.10452714420621234
1761041441.9272048,14.155255317687988,0.0,0.0,-0.0,0.0,0.0,-0.0,0.0,0.0,0.0,0.0,0.0,0.0,0.0,-0.33682812870103146,0.31235636346916407,1.2113420129262813,manual,85.0,0.0,0.0,0.0,0.0,1.2955188761126617,0.10269416978515027
1761041442.0355318,14.263582229614258,0.0,0.0,-0.0,0.0,0.0,-0.0,0.0,0.0,0.0,0.0,0.0,0.0,0.0,-0.19926365011629107,0.21528663402578058,1.169222962078233,manual,85.0,0.0,0.0,0.0,0.0,1.2054611864754565,0.10665103020359429
1761041442.1480246,14.376075029373169,0.0,0.0,-0.0,0.0,0.0,-0.0,0.0,0.0,0.0,0.0,0.0,0.0,0.0,-0.1398369410259548,-0.18466672852266175,1.0692887498912331,manual,85.0,0.0,0.0,0.0,0.0,1.094090764672984,0.11163893467408012
1761041442.2575736,14.485624074935913,0.0,0.0,-0.0,0.0,0.0,-0.0,0.0,0.0,0.0,0.0,0.0,0.0,0.0,-0.381293945647565,-0.27109280439943445,0.9027954852793791,manual,85.0,0.0,0.0,0.0,0.0,1.0168166353013055,0.10903822616869767
1761041442.3658967,14.593947172164917,0.0,0.0,-0.0,0.0,0.0,-0.0,0.0,0.0,0.0,0.0,0.0,0.0,0.0,-0.16191931329558135,-0.18272546131580655,0.9065815551577393,manual,85.0,0.0,0.0,0.0,0.0,0.9388804899365052,0.10076797538772717
1761041442.4735324,14.701582908630371,0.0,0.0,-0.0,0.0,0.0,-0.0,0.0,0.0,0.0,0.0,0.0,0.0,0.0,-0.16290972785711644,-0.18486396566481314,0.9013273697992995,manual,85.0,0.0,0.0,0.0,0.0,0.9344010342359025,0.10436089621843392
1761041442.5826483,14.810698747634888,0.0,0.0,-0.0,0.0,0.0,-0.0,0.0,0.0,0.0,0.0,0.0,0.0,0.0,0.06868404091876919,-0.3007879281799173,0.9944543846711835,manual,85.0,0.0,0.0,0.0,0.0,1.041215827005833,0.1009519536973159
1761041442.6836364,14.911686897277832,0.0,0.0,-0.0,0.0,0.0,-0.0,0.0,0.0,0.0,0.0,0.0,0.0,0.0,-0.06937723525753636,-0.11763411290860956,0.9857234076936623,manual,85.0,0.0,0.0,0.0,0.0,0.9951389962045407,0.10475784510716876
1761041442.7941022,15.022152662277222,0.0,0.0,-0.0,0.0,0.0,-0.0,0.0,0.0,0.0,0.0,0.0,0.0,0.0,-0.07093651588263059,-0.12346882014598813,1.1930664889688816,manual,85.0,0.0,0.0,0.0,0.0,1.201534096867144,0.11426158537289034
1761041442.9008486,15.128899097442627,0.0,0.0,-0.0,0.0,0.0,-0.0,0.0,0.0,0.0,0.0,0.0,0.0,0.0,0.03186999576672257,0.040087923807685596,1.1724525732103686,manual,85.0,0.0,0.0,0.0,0.0,1.1735705239537146,0.0952361291349434
1761041443.0088818,15.236932277679443,0.0,0.0,-0.0,0.0,0.0,-0.0,0.0,0.0,0.0,0.0,0.0,0.0,0.0,-0.5238128433743702,-0.23929886667500996,1.1501107053243256,manual,85.0,0.0,0.0,0.0,0.0,1.2862342232181136,0.11378996581684367
1761041443.1174037,15.345454216003418,0.0,0.0,-0.0,0.0,0.0,-0.0,0.0,0.0,0.0,0.0,0.0,0.0,0.0,-0.5249683279131344,-0.24596033715060484,1.1295066931010076,manual,85.0,0.0,0.0,0.0,0.0,1.269595842196691,0.11161317338634112
1761041443.2205098,15.448560237884521,0.0,0.0,-0.0,0.0,0.0,-0.0,0.0,0.0,0.0,0.0,0.0,0.0,0.0,-0.17206960231913834,-0.1131826642737638,1.2778092844072333,manual,85.0,0.0,0.0,0.0,0.0,1.294300904292236,0.11347873926295794
1761041443.3295844,15.557634830474854,0.0,0.0,-0.0,0.0,0.0,-0.0,0.0,0.0,0.0,0.0,0.0,0.0,0.0,-0.17414926881169684,-0.1204776414309478,1.3639556137148439,manual,85.0,0.0,0.0,0.0,0.0,1.380296253018405,0.10833983746285818
1761041443.4381845,15.666234970092773,0.0,0.0,-0.0,0.0,0.0,-0.0,0.0,0.0,0.0,0.0,0.0,0.0,0.0,-0.8840752216805541,-0.44857091634125756,1.097633681777955,manual,85.0,0.0,0.0,0.0,0.0,1.479055294419443,0.10919037012332067
1761041443.546988,15.775038480758667,0.0,0.0,-0.0,0.0,0.0,-0.0,0.0,0.0,0.0,0.0,0.0,0.0,0.0,-0.8854535613625233,-0.4536447106014338,1.253481746060959,manual,85.0,0.0,0.0,0.0,0.0,1.6003243485288428,0.10571759655237184
1761041443.6566172,15.88466763496399,0.0,0.0,-0.0,0.0,0.0,-0.0,0.0,0.0,0.0,0.0,0.0,0.0,0.0,-0.6182675284843749,-0.6657775277437009,0.9681915696389319,manual,85.0,0.0,0.0,0.0,0.0,1.3277459729732155,0.11017530045112489
1761041443.7668626,15.994913101196289,0.0,0.0,-0.0,0.0,0.0,-0.0,0.0,0.0,0.0,0.0,0.0,0.0,0.0,-0.7836239255768673,-0.5668898085908909,0.9036816855975771,manual,85.0,0.0,0.0,0.0,0.0,1.3236582265468662,0.127684010045413
1761041443.8753517,16.103402137756348,0.0,0.0,-0.0,0.0,0.0,-0.0,0.0,0.0,0.0,0.0,0.0,0.0,0.0,-1.1878870337038383,-0.7367562261287997,0.864083996488987,manual,85.0,0.0,0.0,0.0,0.0,1.6433278719019022,0.10503496310065868
1761041443.9827948,16.210845232009888,0.0,0.0,-0.0,0.0,0.0,-0.0,0.0,0.0,0.0,0.0,0.0,0.0,0.0,-1.3406213553517274,-0.5913147126133382,0.9732825839639735,manual,85.0,0.0,0.0,0.0,0.0,1.7590331708144922,0.10658470965172528
1761041444.0885696,16.316620111465454,0.0,0.0,-0.0,0.0,0.0,-0.0,0.0,0.0,0.0,0.0,0.0,0.0,0.0,-0.607468402200608,-0.1157399976085802,0.8441890441171424,manual,85.0,0.0,0.0,0.0,0.0,1.046455325814728,0.10170817903640045
1761041444.2024295,16.430480003356934,0.0,0.0,-0.0,0.0,0.0,-0.0,0.0,0.0,0.0,0.0,0.0,0.0,0.0,-0.45860784236050184,-0.32343329353246447,0.8530691883285371,manual,85.0,0.0,0.0,0.0,0.0,1.021105914445373,0.10333510155574882
1761041444.3125896,16.540640115737915,0.0,0.0,-0.0,0.0,0.0,-0.0,0.0,0.0,0.0,0.0,0.0,0.0,0.0,-1.0084010508739225,-0.2607786452694478,0.7678355267771408,manual,85.0,0.0,0.0,0.0,0.0,1.2940052462850873,0.10664384317154137
1761041444.419914,16.647964477539062,0.0,0.0,-0.0,0.0,0.0,-0.0,0.0,0.0,0.0,0.0,0.0,0.0,0.0,-0.950659560322755,-0.4349140328460702,0.6143973248337962,manual,85.0,0.0,0.0,0.0,0.0,1.2125955172119067,0.09978702314473469
1761041444.5291326,16.757183074951172,0.0,0.0,-0.0,0.0,0.0,-0.0,0.0,0.0,0.0,0.0,0.0,0.0,0.0,-0.9505068920978014,-0.43635044732069317,0.576186614868294,manual,85.0,0.0,0.0,0.0,0.0,1.1940921572289864,0.12452108485371369
1761041444.6390839,16.86713433265686,0.0,0.0,-0.0,0.0,0.0,-0.0,0.0,0.0,0.0,0.0,0.0,0.0,0.0,-0.4100668648946699,-0.28516948162199324,0.8106394998290591,manual,85.0,0.0,0.0,0.0,0.0,0.952162205517635,0.1031221862405783
1761041444.747046,16.975096464157104,0.0,0.0,-0.0,0.0,0.0,-0.0,0.0,0.0,0.0,0.0,0.0,0.0,0.0,-0.6729212440051857,-0.4012359669385229,0.684732108535625,manual,85.0,0.0,0.0,0.0,0.0,1.0405149505212412,0.10337752821680768
1761041444.8554006,17.08345103263855,0.0,0.0,-0.0,0.0,0.0,-0.0,0.0,0.0,0.0,0.0,0.0,0.0,0.0,-0.8555060106056764,-0.3230987882880888,0.8074702703087624,manual,85.0,0.0,0.0,0.0,0.0,1.219955572391133,0.1045930584301652
1761041444.9642773,17.192327737808228,0.0,0.0,-0.0,0.0,0.0,-0.0,0.0,0.0,0.0,0.0,0.0,0.0,0.0,-0.8568398615116463,-0.32859890201876124,0.8883983532112644,manual,85.0,0.0,0.0,0.0,0.0,1.2772640371793607,0.13334650303710666
1761041445.0726867,17.300737142562866,0.0,0.0,-0.0,0.0,0.0,-0.0,0.0,0.0,0.0,0.0,0.0,0.0,0.0,-0.8585172370951112,-0.33472588747936477,0.958421450160432,manual,85.0,0.0,0.0,0.0,0.0,1.3295356115072274,0.10132548336978714
1761041445.1812575,17.409307956695557,0.0,0.0,-0.0,0.0,0.0,-0.0,0.0,0.0,0.0,0.0,0.0,0.0,0.0,-0.32571335944144514,-0.02606521207777329,1.0552627278387,manual,85.0,0.0,0.0,0.0,0.0,1.1046936283716247,0.10415603661867022
1761041445.2907205,17.518770933151245,0.0,0.0,-0.0,0.0,0.0,-0.0,0.0,0.0,0.0,0.0,0.0,0.0,0.0,-0.3275676808010569,-0.031757623118430424,1.0738608781433898,manual,85.0,0.0,0.0,0.0,0.0,1.123159079444407,0.1092868389898504
1761041445.3985646,17.626615047454834,0.0,0.0,-0.0,0.0,0.0,-0.0,0.0,0.0,0.0,0.0,0.0,0.0,0.0,-0.34597631137979984,-0.4332904568440211,1.2209116980363324,manual,85.0,0.0,0.0,0.0,0.0,1.3409196853018577,0.11051817158095814
1761041445.506879,17.73492956161499,0.0,0.0,-0.0,0.0,0.0,-0.0,0.0,0.0,0.0,0.0,0.0,0.0,0.0,-0.01182100343085325,0.19993323500481644,1.0297614159252717,manual,85.0,0.0,0.0,0.0,0.0,1.0490574857032495,0.10410301029611356
1761041445.6143122,17.842362642288208,0.0,0.0,-0.0,0.0,0.0,-0.0,0.0,0.0,0.0,0.0,0.0,0.0,0.0,0.06887651349317819,0.10853724527427021,1.0692270630483196,manual,85.0,0.0,0.0,0.0,0.0,1.0769265620633741,0.10975497638792928
1761041445.7261152,17.95416569709778,0.0,0.0,-0.0,0.0,0.0,-0.0,0.0,0.0,0.0,0.0,0.0,0.0,0.0,0.5923906479644451,0.4090731780316568,1.068370915225936,manual,85.0,0.0,0.0,0.0,0.0,1.2882872184731784,0.10974750320643445
1761041445.8354406,18.063491106033325,0.0,0.0,-0.0,0.0,0.0,-0.0,0.0,0.0,0.0,0.0,0.0,0.0,0.0,0.30133586822051683,0.5332025158578892,0.8589250031901091,manual,85.0,0.0,0.0,0.0,0.0,1.0549219826596299,0.11973944233964263
1761041445.945083,18.173133373260498,0.0,0.0,-0.0,0.0,0.0,-0.0,0.0,0.0,0.0,0.0,0.0,0.0,0.0,0.4438920581110162,0.7064162350665788,0.87447548804149,manual,85.0,0.0,0.0,0.0,0.0,1.208623777527596,0.11875655971685825
1761041446.0538533,18.281903743743896,0.0,0.0,-0.0,0.0,0.0,-0.0,0.0,0.0,0.0,0.0,0.0,0.0,0.0,0.37976705804780686,0.488968940302805,0.8775368111580796,manual,85.0,0.0,0.0,0.0,0.0,1.073957400410568,0.1216092513294951
1761041446.162804,18.390854358673096,0.0,0.0,-0.0,0.0,0.0,-0.0,0.0,0.0,0.0,0.0,0.0,0.0,0.0,-0.03658185311668405,0.6935659556257571,0.9525225998180988,manual,85.0,0.0,0.0,0.0,0.0,1.178843191414681,0.114901196681228
1761041446.274249,18.502299547195435,0.0,0.0,-0.0,0.0,0.0,-0.0,0.0,0.0,0.0,0.0,0.0,0.0,0.0,-0.4033434755428002,0.9677417114931863,1.1112382338640325,manual,85.0,0.0,0.0,0.0,0.0,1.527763198872116,0.12432050775757734
1761041446.3834002,18.611450672149658,0.0,0.0,-0.0,0.0,0.0,-0.0,0.0,0.0,0.0,0.0,0.0,0.0,0.0,0.13156715920217618,0.5607864955000199,1.0155667122179224,manual,85.0,0.0,0.0,0.0,0.0,1.167547497055621,0.12505267483590463
1761041446.4911082,18.71915864944458,0.0,0.0,-0.0,0.0,0.0,-0.0,0.0,0.0,0.0,0.0,0.0,0.0,0.0,0.13036438651182036,0.5552862131434205,0.9599926930880015,manual,85.0,0.0,0.0,0.0,0.0,1.1166573433959575,0.11002997295576722
1761041446.6001725,18.82822299003601,0.0,0.0,-0.0,0.0,0.0,-0.0,0.0,0.0,0.0,0.0,0.0,0.0,0.0,0.1290562926769358,0.5489097101969576,0.8841479170416986,manual,85.0,0.0,0.0,0.0,0.0,1.0486538684605122,0.1135079477955413
1761041446.7085602,18.93661069869995,0.0,0.0,-0.0,0.0,0.0,-0.0,0.0,0.0,0.0,0.0,0.0,0.0,0.0,-0.12768852235012101,0.7339302599771557,0.9958550565145888,manual,85.0,0.0,0.0,0.0,0.0,1.243658023266753,0.11555741257965821
1761041446.8188524,19.046902894973755,0.0,0.0,-0.0,0.0,0.0,-0.0,0.0,0.0,0.0,0.0,0.0,0.0,0.0,0.07155912283371144,0.6552836362549282,0.8472291561449106,manual,85.0,0.0,0.0,0.0,0.0,1.0734591725008589,0.1132704377155131
1761041446.9267292,19.15477967262268,0.0,0.0,-0.0,0.0,0.0,-0.0,0.0,0.0,0.0,0.0,0.0,0.0,0.0,0.07253370337336085,0.650185440115628,0.9019751639258873,manual,85.0,0.0,0.0,0.0,0.0,1.114253759698633,0.11913901380623744
1761041447.0351338,19.263184309005737,0.0,0.0,-0.0,0.0,0.0,-0.0,0.0,0.0,0.0,0.0,0.0,0.0,0.0,1.1112764088652023,0.4365401777575135,0.8413697699479538,manual,85.0,0.0,0.0,0.0,0.0,1.4606182504265701,0.1268814962165766
1761041447.1432877,19.37133812904358,0.0,0.0,-0.0,0.0,0.0,-0.0,0.0,0.0,0.0,0.0,0.0,0.0,0.0,1.1102281479768916,0.4307785805640053,0.8179561786946921,manual,85.0,0.0,0.0,0.0,0.0,1.4447245537810178,0.11991932301858088
1761041447.2515838,19.479634284973145,0.0,0.0,-0.0,0.0,0.0,-0.0,0.0,0.0,0.0,0.0,0.0,0.0,0.0,1.0262212532880501,0.14768780158818742,0.792454051658447,manual,85.0,0.0,0.0,0.0,0.0,1.304961750944424,0.13268420012663404
1761041447.3540075,19.58205795288086,0.0,0.0,-0.0,0.0,0.0,-0.0,0.0,0.0,0.0,0.0,0.0,0.0,0.0,1.026658255145981,0.14081158156328302,0.9011175093077336,manual,85.0,0.0,0.0,0.0,0.0,1.373269034072609,0.114310022136203
1761041447.4626975,19.6907479763031,0.0,0.0,-0.0,0.0,0.0,-0.0,0.0,0.0,0.0,0.0,0.0,0.0,0.0,1.1432435463839121,0.17123906713476053,0.8896580681379807,manual,85.0,0.0,0.0,0.0,0.0,1.4587049402345393,0.12039370854950668
1761041447.5711665,19.799216985702515,0.0,0.0,-0.0,0.0,0.0,-0.0,0.0,0.0,0.0,0.0,0.0,0.0,0.0,0.5583418954195437,0.31898430000206707,1.002890337195737,manual,85.0,0.0,0.0,0.0,0.0,1.1913377708563917,0.11233965737480421
1761041447.67946,19.90751051902771,0.0,0.0,-0.0,0.0,0.0,-0.0,0.0,0.0,0.0,0.0,0.0,0.0,0.0,0.7170634264133351,0.2929652341235504,1.004217738412608,manual,85.0,0.0,0.0,0.0,0.0,1.2682514940055196,0.11451813588331582
1761041447.7891452,20.01719570159912,0.0,0.0,-0.0,0.0,0.0,-0.0,0.0,0.0,0.0,0.0,0.0,0.0,0.0,0.40723950718839946,0.1415652173261,1.0092403555239289,manual,85.0,0.0,0.0,0.0,0.0,1.0974747478596958,0.11011969813965224
1761041447.8893669,20.117417335510254,0.0,0.0,-0.0,0.0,0.0,-0.0,0.0,0.0,0.0,0.0,0.0,0.0,0.0,0.4098066864221037,0.13201135072009088,1.0977145181670227,manual,85.0,0.0,0.0,0.0,0.0,1.1791292042646837,0.12814028183948112
1761041447.9995744,20.227624893188477,0.0,0.0,-0.0,0.0,0.0,-0.0,0.0,0.0,0.0,0.0,0.0,0.0,0.0,0.24630398504215434,0.46899211760134973,1.044752726490666,manual,85.0,0.0,0.0,0.0,0.0,1.171378469551803,0.13836793308104844
1761041448.1087933,20.336843729019165,0.0,0.0,-0.0,0.0,0.0,-0.0,0.0,0.0,0.0,0.0,0.0,0.0,0.0,0.16323710906106503,0.309983069878876,1.032066264062659,manual,85.0,0.0,0.0,0.0,0.0,1.0899067073848112,0.11921396011026422
1761041448.2188177,20.446868181228638,0.0,0.0,-0.0,0.0,0.0,-0.0,0.0,0.0,0.0,0.0,0.0,0.0,0.0,0.14666968620374884,0.3582523608851859,0.854885795523662,manual,85.0,0.0,0.0,0.0,0.0,0.9384489726772788,0.11690970435529063
1761041448.327585,20.555635452270508,0.0,0.0,-0.0,0.0,0.0,-0.0,0.0,0.0,0.0,0.0,0.0,0.0,0.0,0.2743520510325798,0.1821056956868177,0.9696747748952406,manual,85.0,0.0,0.0,0.0,0.0,1.0240608875333042,0.12423710844971048
1761041448.4355588,20.663609266281128,0.0,0.0,-0.0,0.0,0.0,-0.0,0.0,0.0,0.0,0.0,0.0,0.0,0.0,0.3406555217347683,0.29152855080559864,0.9503340570574207,manual,85.0,0.0,0.0,0.0,0.0,1.050794889798393,0.12414193655518994
1761041448.5450423,20.77309274673462,0.0,0.0,-0.0,0.0,0.0,-0.0,0.0,0.0,0.0,0.0,0.0,0.0,0.0,0.3276705255461071,0.3707244408062392,0.8125784358315229,manual,85.0,0.0,0.0,0.0,0.0,0.9513612871570742,0.1188031564027141
1761041448.6536,20.88165044784546,0.0,0.0,-0.0,0.0,0.0,-0.0,0.0,0.0,0.0,0.0,0.0,0.0,0.0,-0.13158356756509584,0.655325507562784,0.8560892999992036,manual,85.0,0.0,0.0,0.0,0.0,1.086119075280747,0.15092218504727553
1761041448.7615902,20.989640712738037,0.0,0.0,-0.0,0.0,0.0,-0.0,0.0,0.0,0.0,0.0,0.0,0.0,0.0,-0.13192728933471012,0.649537423665708,0.790058481189528,manual,85.0,0.0,0.0,0.0,0.0,1.031259462071982,0.12243322846608036
1761041448.8722894,21.100339889526367,0.0,0.0,-0.0,0.0,0.0,-0.0,0.0,0.0,0.0,0.0,0.0,0.0,0.0,-0.04645992640540213,0.8434346333991425,0.7793556225969496,manual,85.0,0.0,0.0,0.0,0.0,1.1493196648679689,0.12744866340395883
1761041448.980604,21.208654403686523,0.0,0.0,-0.0,0.0,0.0,-0.0,0.0,0.0,0.0,0.0,0.0,0.0,0.0,0.019788842399749457,0.07562877450805341,0.7777068559892866,manual,85.0,0.0,0.0,0.0,0.0,0.7816260382496563,0.11543641381570116
1761041449.0885446,21.31659507751465,0.0,0.0,-0.0,0.0,0.0,-0.0,0.0,0.0,0.0,0.0,0.0,0.0,0.0,-0.26578246789942056,0.4446952005594204,0.8352538894173286,manual,85.0,0.0,0.0,0.0,0.0,0.9828749673432855,0.11876825285977048
1761041449.198555,21.426605463027954,0.0,0.0,-0.0,0.0,0.0,-0.0,0.0,0.0,0.0,0.0,0.0,0.0,0.0,0.08774564497529572,0.18448157798584752,0.9102671088014699,manual,85.0,0.0,0.0,0.0,0.0,0.9329088702515729,0.12356354339895936
1761041449.308571,21.536621570587158,0.0,0.0,-0.0,0.0,0.0,-0.0,0.0,0.0,0.0,0.0,0.0,0.0,0.0,0.08631686735482298,0.17934184616183355,0.8884897075838492,manual,85.0,0.0,0.0,0.0,0.0,0.9105097802094817,0.12349941700699757
1761041449.4195707,21.647621154785156,0.0,0.0,-0.0,0.0,0.0,-0.0,0.0,0.0,0.0,0.0,0.0,0.0,0.0,0.0846664192724818,0.1730965082000138,0.89119073610213,manual,85.0,0.0,0.0,0.0,0.0,0.9117849153269193,0.12113320315106503
1761041449.5276346,21.755685091018677,0.0,0.0,-0.0,0.0,0.0,-0.0,0.0,0.0,0.0,0.0,0.0,0.0,0.0,0.08276467795794436,0.16619372003519767,1.0645874856153652,manual,85.0,0.0,0.0,0.0,0.0,1.0806557541721904,0.13284249611727042
1761041449.636657,21.864707469940186,0.0,0.0,-0.0,0.0,0.0,-0.0,0.0,0.0,0.0,0.0,0.0,0.0,0.0,0.15570939826166894,0.08342232598671791,1.1088511345108811,manual,85.0,0.0,0.0,0.0,0.0,1.1228337097211294,0.1183534061488993
1761041449.7451837,21.973234176635742,0.0,0.0,-0.0,0.0,0.0,-0.0,0.0,0.0,0.0,0.0,0.0,0.0,0.0,0.15559249191786875,0.07777301387779936,1.3458366250764695,manual,85.0,0.0,0.0,0.0,0.0,1.3570312769520347,0.11687075300533227
1761041449.8536944,22.0817449092865,0.0,0.0,-0.0,0.0,0.0,-0.0,0.0,0.0,0.0,0.0,0.0,0.0,0.0,0.510011927994391,-1.025048619912777,1.4632956363762328,manual,85.0,0.0,0.0,0.0,0.0,1.8579749619732147,0.11109291517346961
1761041449.956107,22.184157371520996,0.0,0.0,-0.0,0.0,0.0,-0.0,0.0,0.0,0.0,0.0,0.0,0.0,0.0,0.505412686534763,-1.0280836791242736,1.4597622735560518,manual,85.0,0.0,0.0,0.0,0.0,1.8556141652535212,0.1178762061738769
1761041450.0640929,22.29214334487915,0.0,0.0,-0.0,0.0,0.0,-0.0,0.0,0.0,0.0,0.0,0.0,0.0,0.0,0.5003008419745417,-1.032117236805542,1.4941811814035584,manual,85.0,0.0,0.0,0.0,0.0,1.8836518589835214,0.1143650889695405
1761041450.1724598,22.40051031112671,0.0,0.0,-0.0,0.0,0.0,-0.0,0.0,0.0,0.0,0.0,0.0,0.0,0.0,0.40902167112186794,-0.9102791828760797,1.3997133138548925,manual,85.0,0.0,0.0,0.0,0.0,1.7190416746569914,0.11132700272277203
1761041450.2798634,22.507913827896118,0.0,0.0,-0.0,0.0,0.0,-0.0,0.0,0.0,0.0,0.0,0.0,0.0,0.0,0.1003172301777506,-1.0235794808642888,1.2968534918273518,manual,85.0,0.0,0.0,0.0,0.0,1.6551759663497227,0.10816928576107926
1761041450.3934362,22.62148666381836,0.0,0.0,-0.0,0.0,0.0,-0.0,0.0,0.0,0.0,0.0,0.0,0.0,0.0,0.09695892400129227,-1.0242495525111126,1.3941371858549154,manual,85.0,0.0,0.0,0.0,0.0,1.732658844592947,0.09954705471847655
1761041450.500948,22.72899842262268,0.0,0.0,-0.0,0.0,0.0,-0.0,0.0,0.0,0.0,0.0,0.0,0.0,0.0,-0.06480910727685069,-1.4856889731727452,1.385695195828622,manual,85.0,0.0,0.0,0.0,0.0,2.032639446910256,0.10106188851627847
1761041450.609547,22.837597370147705,0.0,0.0,-0.0,0.0,0.0,-0.0,0.0,0.0,0.0,0.0,0.0,0.0,0.0,0.20632794202432575,-1.4090282781323227,1.3764120019114694,manual,85.0,0.0,0.0,0.0,0.0,1.980515566018725,0.10120759364748275
1761041450.7178822,22.945932626724243,0.0,0.0,-0.0,0.0,0.0,-0.0,0.0,0.0,0.0,0.0,0.0,0.0,0.0,-0.19333376361510551,-1.0204365135623896,1.406066923575301,manual,85.0,0.0,0.0,0.0,0.0,1.7480540083010758,0.10519051312848503
1761041450.8266034,23.054653882980347,0.0,0.0,-0.0,0.0,0.0,-0.0,0.0,0.0,0.0,0.0,0.0,0.0,0.0,-0.3055261774618622,-1.1103561531016453,1.1541749565169845,manual,85.0,0.0,0.0,0.0,0.0,1.6304468289693241,0.11045435295881176
1761041450.9360077,23.164058208465576,0.0,0.0,-0.0,0.0,0.0,-0.0,0.0,0.0,0.0,0.0,0.0,0.0,0.0,-0.3083406238798652,-1.1097139532173335,1.0626605998031633,manual,85.0,0.0,0.0,0.0,0.0,1.567094939266248,0.11261416354309862
1761041451.0451303,23.273180723190308,0.0,0.0,-0.0,0.0,0.0,-0.0,0.0,0.0,0.0,0.0,0.0,0.0,0.0,-0.15671383414135184,-1.3655651117793817,1.1370218995397328,manual,85.0,0.0,0.0,0.0,0.0,1.7838570851817868,0.1111544684414203
1761041451.1538296,23.381880044937134,0.0,0.0,-0.0,0.0,0.0,-0.0,0.0,0.0,0.0,0.0,0.0,0.0,0.0,-0.16323065354632718,-0.9696992987084962,1.0411861926634385,manual,85.0,0.0,0.0,0.0,0.0,1.4321416354417942,0.11526008889315466
1761041451.263333,23.49138355255127,0.0,0.0,-0.0,0.0,0.0,-0.0,0.0,0.0,0.0,0.0,0.0,0.0,0.0,-0.16394295942526824,-0.972693310363072,1.1455637545478725,manual,85.0,0.0,0.0,0.0,0.0,1.511729435350124,0.11559791874258334
1761041451.3715723,23.59962272644043,0.0,0.0,-0.0,0.0,0.0,-0.0,0.0,0.0,0.0,0.0,0.0,0.0,0.0,-0.7663452082057547,-0.9441529702770347,1.331741180926546,manual,85.0,0.0,0.0,0.0,0.0,1.8033980099796327,0.12531094001472912
1761041451.4814296,23.709480047225952,0.0,0.0,-0.0,0.0,0.0,-0.0,0.0,0.0,0.0,0.0,0.0,0.0,0.0,-0.7659939055506727,-0.9488908967851127,1.5132728800651911,manual,85.0,0.0,0.0,0.0,0.0,1.9434853760404853,0.11079183666191736
1761041451.5895412,23.817591667175293,0.0,0.0,-0.0,0.0,0.0,-0.0,0.0,0.0,0.0,0.0,0.0,0.0,0.0,-0.40136014805872805,-1.1444210324478845,1.4169036820866223,manual,85.0,0.0,0.0,0.0,0.0,1.8650483940824256,0.12602605186368082
1761041451.6975496,23.925600051879883,0.0,0.0,-0.0,0.0,0.0,-0.0,0.0,0.0,0.0,0.0,0.0,0.0,0.0,0.3080656494271385,-0.8227625800155787,1.2782228157089297,manual,85.0,0.0,0.0,0.0,0.0,1.5510307134385575,0.11790839620458884
1761041451.8058565,24.033906936645508,0.0,0.0,-0.0,0.0,0.0,-0.0,0.0,0.0,0.0,0.0,0.0,0.0,0.0,0.30738672369137837,-0.8287439043725808,1.358194817328261,manual,85.0,0.0,0.0,0.0,0.0,1.6204925852202403,0.11155426909617527
1761041451.9138672,24.14191770553589,0.0,0.0,-0.0,0.0,0.0,-0.0,0.0,0.0,0.0,0.0,0.0,0.0,0.0,0.3064437013744297,-0.8355289732123998,1.362448720369151,manual,85.0,0.0,0.0,0.0,0.0,1.627354578088305,0.10918688470686033
1761041452.0235603,24.25161075592041,0.0,0.0,-0.0,0.0,0.0,-0.0,0.0,0.0,0.0,0.0,0.0,0.0,0.0,0.305228063441602,-0.8433092502432052,1.2613488820968344,manual,85.0,0.0,0.0,0.0,0.0,1.547687198572438,0.12090218128521159
1761041452.1319168,24.35996723175049,0.0,0.0,-0.0,0.0,0.0,-0.0,0.0,0.0,0.0,0.0,0.0,0.0,0.0,0.3038093903237789,-0.8518548198174769,1.431121992940916,manual,85.0,0.0,0.0,0.0,0.0,1.6929462302076672,0.1280387788170478
1761041452.2404525,24.46850299835205,0.0,0.0,-0.0,0.0,0.0,-0.0,0.0,0.0,0.0,0.0,0.0,0.0,0.0,-0.24832982818159227,-0.3411197202000877,1.170631670369486,manual,85.0,0.0,0.0,0.0,0.0,1.2443507844438955,0.10905880639050126
1761041452.34849,24.57654047012329,0.0,0.0,-0.0,0.0,0.0,-0.0,0.0,0.0,0.0,0.0,0.0,0.0,0.0,-0.038521449437917236,-0.3328827691326594,1.085098174120751,manual,85.0,0.0,0.0,0.0,0.0,1.1356640733651888,0.1072654226226484
1761041452.449328,24.6773784160614,0.0,0.0,-0.0,0.0,0.0,-0.0,0.0,0.0,0.0,0.0,0.0,0.0,0.0,-0.0386191153659601,-0.3406026228273448,1.247346116486529,manual,85.0,0.0,0.0,0.0,0.0,1.29358954736908,0.1220952522628885
1761041452.557496,24.78554654121399,0.0,0.0,-0.0,0.0,0.0,-0.0,0.0,0.0,0.0,0.0,0.0,0.0,0.0,-0.03895063504537904,-0.3496013238533046,1.3862642804834149,manual,85.0,0.0,0.0,0.0,0.0,1.4301982005843181,0.11243400244727453
1761041452.6663702,24.894420623779297,0.0,0.0,-0.0,0.0,0.0,-0.0,0.0,0.0,0.0,0.0,0.0,0.0,0.0,-0.03952236133315765,-0.3594109510804221,1.399450733396425,manual,85.0,0.0,0.0,0.0,0.0,1.44540672615208,0.11847229259686648
1761041452.7737966,25.0018470287323,0.0,0.0,-0.0,0.0,0.0,-0.0,0.0,0.0,0.0,0.0,0.0,0.0,0.0,-0.04017865364204345,-0.36993015147327646,1.4421373498924748,manual,85.0,0.0,0.0,0.0,0.0,1.4893699262212927,0.10620113987024835
1761041452.88155,25.10960054397583,0.0,0.0,-0.0,0.0,0.0,-0.0,0.0,0.0,0.0,0.0,0.0,0.0,0.0,-0.04095700193671057,-0.3812802846561489,1.5676655626609868,manual,85.0,0.0,0.0,0.0,0.0,1.6138858224262043,0.1181297339251195
1761041452.9823623,25.210412740707397,0.0,0.0,-0.0,0.0,0.0,-0.0,0.0,0.0,0.0,0.0,0.0,0.0,0.0,-0.29635200671832107,0.117706777730639,1.6323893542796004,manual,85.0,0.0,0.0,0.0,0.0,1.6632421355217877,0.12438853073503404
1761041453.0924208,25.32047128677368,0.0,0.0,-0.0,0.0,0.0,-0.0,0.0,0.0,0.0,0.0,0.0,0.0,0.0,-0.1220776211643538,-0.5107023513119635,1.4342808974915535,manual,85.0,0.0,0.0,0.0,0.0,1.5273773371809247,0.1208733275470773
1761041453.1996245,25.427675008773804,0.0,0.0,-0.0,0.0,0.0,-0.0,0.0,0.0,0.0,0.0,0.0,0.0,0.0,-0.12316690100050881,-0.5187210481330287,1.4365869063085235,manual,85.0,0.0,0.0,0.0,0.0,1.5323261893785511,0.11742951629694377
1761041453.307205,25.535255432128906,0.0,0.0,-0.0,0.0,0.0,-0.0,0.0,0.0,0.0,0.0,0.0,0.0,0.0,-0.12452936449046871,-0.5275363787025157,1.3798191661008357,manual,85.0,0.0,0.0,0.0,0.0,1.4824652186861482,0.12277928659521516
1761041453.4140046,25.64205503463745,0.0,0.0,-0.0,0.0,0.0,-0.0,0.0,0.0,0.0,0.0,0.0,0.0,0.0,0.005722049024814561,-0.7271837976008418,1.5436169536516207,manual,85.0,0.0,0.0,0.0,0.0,1.7063359332027601,0.11394354459765746
1761041453.5168,25.744850397109985,0.0,0.0,-0.0,0.0,0.0,-0.0,0.0,0.0,0.0,0.0,0.0,0.0,0.0,0.0076366669785268735,-0.7390912925468495,1.7094041393452442,manual,85.0,0.0,0.0,0.0,0.0,1.8623578520283819,0.1274293174925229
1761041453.6259596,25.854010105133057,0.0,0.0,-0.0,0.0,0.0,-0.0,0.0,0.0,0.0,0.0,0.0,0.0,0.0,0.20498870360656876,-0.7077870464866638,1.576053882995817,manual,85.0,0.0,0.0,0.0,0.0,1.7398070909979673,0.11421023850406796
1761041453.7328844,25.96093487739563,0.0,0.0,-0.0,0.0,0.0,-0.0,0.0,0.0,0.0,0.0,0.0,0.0,0.0,0.4718386596197444,0.3658300040649553,1.2495502400351408,manual,85.0,0.0,0.0,0.0,0.0,1.3848606843136966,0.12118331657722708
1761041453.8411007,26.069151163101196,0.0,0.0,-0.0,0.0,0.0,-0.0,0.0,0.0,0.0,0.0,0.0,0.0,0.0,-0.054137761936573464,-0.34015461897168797,1.1257892087590633,manual,85.0,0.0,0.0,0.0,0.0,1.1773008980858009,0.12209769610441691
1761041453.948591,26.1766414642334,0.0,0.0,-0.0,0.0,0.0,-0.0,0.0,0.0,0.0,0.0,0.0,0.0,0.0,-0.055704860467762164,-0.3518706131594197,1.196615352615819,manual,85.0,0.0,0.0,0.0,0.0,1.2485208296223174,0.1293365396322901
1761041454.0516264,26.279676914215088,0.0,0.0,-0.0,0.0,0.0,-0.0,0.0,0.0,0.0,0.0,0.0,0.0,0.0,0.2628287694465935,-0.6965736478573479,1.3112030275595754,manual,85.0,0.0,0.0,0.0,0.0,1.5078286336382858,0.12289108132519057
1761041454.160266,26.38831639289856,0.0,0.0,-0.0,0.0,0.0,-0.0,0.0,0.0,0.0,0.0,0.0,0.0,0.0,0.31785019042303203,-0.0413564425762986,1.13229012967576,manual,85.0,0.0,0.0,0.0,0.0,1.1767837680116402,0.121621309338352
1761041454.2685432,26.496593713760376,0.0,0.0,-0.0,0.0,0.0,-0.0,0.0,0.0,0.0,0.0,0.0,0.0,0.0,0.050376234309772075,0.08702784045239836,0.8890443675757833,manual,85.0,0.0,0.0,0.0,0.0,0.8947130811133063,0.12245501892835367
1761041454.3770714,26.605121850967407,0.0,0.0,-0.0,0.0,0.0,-0.0,0.0,0.0,0.0,0.0,0.0,0.0,0.0,0.15186907959367277,0.03944763497692268,1.0312290876635952,manual,85.0,0.0,0.0,0.0,0.0,1.0430981566877553,0.12094048610889133
1761041454.4784708,26.7065212726593,0.0,0.0,-0.0,0.0,0.0,-0.0,0.0,0.0,0.0,0.0,0.0,0.0,0.0,0.1509975454669953,0.033333152194830774,0.9916417402313858,manual,85.0,0.0,0.0,0.0,0.0,1.0036257762440304,0.14874395329654863
1761041454.577673,26.805723428726196,0.0,0.0,-0.0,0.0,0.0,-0.0,0.0,0.0,0.0,0.0,0.0,0.0,0.0,0.404104174973763,0.2257154432589113,1.0476123261762174,manual,85.0,0.0,0.0,0.0,0.0,1.1453118490232859,0.130094050925929
1761041454.6864448,26.91449522972107,0.0,0.0,-0.0,0.0,0.0,-0.0,0.0,0.0,0.0,0.0,0.0,0.0,0.0,0.36549860922216104,0.15524598399545464,1.000082577053775,manual,85.0,0.0,0.0,0.0,0.0,1.076037039240086,0.12092565131894002
1761041454.795158,27.023208379745483,0.0,0.0,-0.0,0.0,0.0,-0.0,0.0,0.0,0.0,0.0,0.0,0.0,0.0,0.7322311666307274,0.08844615426420553,1.1851048231901353,manual,85.0,0.0,0.0,0.0,0.0,1.395872001846174,0.11795722577729977
1761041454.9036102,27.13166069984436,0.0,0.0,-0.0,0.0,0.0,-0.0,0.0,0.0,0.0,0.0,0.0,0.0,0.0,0.7340862080629265,0.07844777932122388,1.117797703080557,manual,85.0,0.0,0.0,0.0,0.0,1.3395925947693226,0.11333182064206113
1761041455.0133004,27.241350889205933,0.0,0.0,-0.0,0.0,0.0,-0.0,0.0,0.0,0.0,0.0,0.0,0.0,0.0,0.7360177197002694,0.06742612499489323,1.0706476521574457,manual,85.0,0.0,0.0,0.0,0.0,1.3009822293616704,0.1280276091063994
1761041455.1221714,27.350221872329712,0.0,0.0,-0.0,0.0,0.0,-0.0,0.0,0.0,0.0,0.0,0.0,0.0,0.0,0.6116049099567543,-0.16621323083663542,1.147746909999382,manual,85.0,0.0,0.0,0.0,0.0,1.311110358971163,0.13119729169851121
1761041455.2303424,27.45839285850525,0.0,0.0,-0.0,0.0,0.0,-0.0,0.0,0.0,0.0,0.0,0.0,0.0,0.0,-0.05744061298840344,0.20029386097260768,0.9390503451322942,manual,85.0,0.0,0.0,0.0,0.0,0.9618901213012216,0.12730157956817365
1761041455.3388736,27.56692409515381,0.0,0.0,-0.0,0.0,0.0,-0.0,0.0,0.0,0.0,0.0,0.0,0.0,0.0,-0.3078830652415599,0.5738671702704011,0.9616398901946756,manual,85.0,0.0,0.0,0.0,0.0,1.1614072452806223,0.11523156040901762
1761041455.4462173,27.674267768859863,0.0,0.0,-0.0,0.0,0.0,-0.0,0.0,0.0,0.0,0.0,0.0,0.0,0.0,-0.09694095510566587,0.4160499334643348,1.0085704419048247,manual,85.0,0.0,0.0,0.0,0.0,1.0953124815305308,0.1180236659320054
1761041455.5462458,27.774296283721924,0.0,0.0,-0.0,0.0,0.0,-0.0,0.0,0.0,0.0,0.0,0.0,0.0,0.0,-0.09927566258469832,0.4082170970445486,1.0671110383740576,manual,85.0,0.0,0.0,0.0,0.0,1.1468316457618655,0.13106586893466807
1761041455.6551113,27.883161783218384,0.0,0.0,-0.0,0.0,0.0,-0.0,0.0,0.0,0.0,0.0,0.0,0.0,0.0,-0.10183146617286665,0.3989396544575999,1.0689777202438286,manual,85.0,0.0,0.0,0.0,0.0,1.1455286385679575,0.12913335723340016
1761041455.7626536,27.99070405960083,0.0,0.0,-0.0,0.0,0.0,-0.0,0.0,0.0,0.0,0.0,0.0,0.0,0.0,0.5461956920114487,0.2757174781200711,0.9818461051858416,manual,85.0,0.0,0.0,0.0,0.0,1.1568801303425365,0.1212426756239292
1761041455.871256,28.09930658340454,0.0,0.0,-0.0,0.0,0.0,-0.0,0.0,0.0,0.0,0.0,0.0,0.0,0.0,0.6405186952433947,0.30915945797575944,0.9437924376296134,manual,85.0,0.0,0.0,0.0,0.0,1.1817732162894088,0.13687255266738452
1761041455.9788158,28.20686626434326,0.0,0.0,-0.0,0.0,0.0,-0.0,0.0,0.0,0.0,0.0,0.0,0.0,0.0,0.6763789085637304,0.12587661976319114,0.7559321104484675,manual,85.0,0.0,0.0,0.0,0.0,1.0221383012880128,0.13481793846496307
1761041456.0828328,28.310883283615112,0.0,0.0,-0.0,0.0,0.0,-0.0,0.0,0.0,0.0,0.0,0.0,0.0,0.0,0.6771430631235822,0.11866285033308537,0.8526143592458437,manual,85.0,0.0,0.0,0.0,0.0,1.0952419118978969,0.13206734104516907
1761041456.1915808,28.419631242752075,0.0,0.0,-0.0,0.0,0.0,-0.0,0.0,0.0,0.0,0.0,0.0,0.0,0.0,0.38164358111104457,-0.1712793823624985,0.8864749573520125,manual,85.0,0.0,0.0,0.0,0.0,0.9802174757868756,0.12653918945803558
1761041456.299513,28.52756357192993,0.0,0.0,-0.0,0.0,0.0,-0.0,0.0,0.0,0.0,0.0,0.0,0.0,0.0,0.5608262642377112,-0.324884949765001,0.6877458511927347,manual,85.0,0.0,0.0,0.0,0.0,0.9450241716884566,0.11966312271456712
1761041456.4079335,28.63598394393921,0.0,0.0,-0.0,0.0,0.0,-0.0,0.0,0.0,0.0,0.0,0.0,0.0,0.0,0.7222450145756945,0.08338025576095119,0.7247628228169414,manual,85.0,0.0,0.0,0.0,0.0,1.0265823286360367,0.12102852676679436
1761041456.5211751,28.749225616455078,0.0,0.0,-0.0,0.0,0.0,-0.0,0.0,0.0,0.0,0.0,0.0,0.0,0.0,0.7216823058125845,0.08022121647129138,0.8767704848023717,manual,85.0,0.0,0.0,0.0,0.0,1.1384143696895646,0.116365815619833
1761041456.6296687,28.85771918296814,0.0,0.0,-0.0,0.0,0.0,-0.0,0.0,0.0,0.0,0.0,0.0,0.0,0.0,1.0313841631004506,-0.2884467993774134,0.8866237596045492,manual,85.0,0.0,0.0,0.0,0.0,1.390344036222976,0.11586681403482142
1761041456.7385452,28.96659564971924,0.0,0.0,-0.0,0.0,0.0,-0.0,0.0,0.0,0.0,0.0,0.0,0.0,0.0,0.9141610403414133,-0.12237211419253136,0.7999206626566279,manual,85.0,0.0,0.0,0.0,0.0,1.2208760823912734,0.11098002926963597
1761041456.8483505,29.076400995254517,0.0,0.0,-0.0,0.0,0.0,-0.0,0.0,0.0,0.0,0.0,0.0,0.0,0.0,0.696658393029598,-0.13497714912086844,0.9703795037457897,manual,85.0,0.0,0.0,0.0,0.0,1.2021597766741758,0.1053635525249512
1761041456.9575636,29.185614109039307,0.0,0.0,-0.0,0.0,0.0,-0.0,0.0,0.0,0.0,0.0,0.0,0.0,0.0,0.9567745203923301,-0.21194328096399026,0.8319161436458014,manual,85.0,0.0,0.0,0.0,0.0,1.2854656383102023,0.14244212329588501
1761041457.0584536,29.28650403022766,0.0,0.0,-0.0,0.0,0.0,-0.0,0.0,0.0,0.0,0.0,0.0,0.0,0.0,1.1438422244684763,0.004799994139333213,0.9458415002369722,manual,85.0,0.0,0.0,0.0,0.0,1.484255442298008,0.10300000466322215
1761041457.15915,29.387200355529785,0.0,0.0,-0.0,0.0,0.0,-0.0,0.0,0.0,0.0,0.0,0.0,0.0,0.0,0.9055566384337705,0.12659414345269085,0.995492515491579,manual,85.0,0.0,0.0,0.0,0.0,1.3516894062497282,0.09967606138989604
1761041457.2675323,29.495582818984985,0.0,0.0,-0.0,0.0,0.0,-0.0,0.0,0.0,0.0,0.0,0.0,0.0,0.0,0.7034384580605985,-0.23840487970932345,1.0395732529426285,manual,85.0,0.0,0.0,0.0,0.0,1.2776443555158874,0.09905573765972585
1761041457.375353,29.603403568267822,0.0,0.0,-0.0,0.0,0.0,-0.0,0.0,0.0,0.0,0.0,0.0,0.0,0.0,0.702866673574227,-0.24096333409655762,0.9964030014432106,manual,85.0,0.0,0.0,0.0,0.0,1.2429416038114047,0.0989533145094432
1761041457.4838746,29.71192502975464,0.0,0.0,-0.0,0.0,0.0,-0.0,0.0,0.0,0.0,0.0,0.0,0.0,0.0,0.8504498076802498,0.26193749783740206,0.9865256972393065,manual,85.0,0.0,0.0,0.0,0.0,1.328574077524544,0.09782943612566522
1761041457.5878024,29.815852880477905,0.0,0.0,-0.0,0.0,0.0,-0.0,0.0,0.0,0.0,0.0,0.0,0.0,0.0,0.8492471667669581,0.25743394430101846,1.1862445029478719,manual,85.0,0.0,0.0,0.0,0.0,1.4814415299680677,0.1067623651919361
