timestamp,simulation_time,position_x,position_y,position_z,velocity_x,velocity_y,velocity_z,attitude_roll,attitude_pitch,attitude_yaw,control_throttle,control_roll,control_pitch,control_yaw,flight_mode
1761304275.1499205,0.10104966163635254,0.0,0.0,-0.0,0.0,0.0,-0.0,0.0,0.0,0.0,0.0,0.0,0.0,0.0,manual
1761304275.2564204,0.2075495719909668,0.0,0.0,-0.0,0.0,0.0,-0.0,0.0,0.0,0.0,0.0,0.0,0.0,0.0,manual
1761304275.3605294,0.3116586208343506,0.0,0.0,-0.0,0.0,0.0,-0.0,0.0,0.0,0.0,0.0,0.0,0.0,0.0,manual
1761304275.4633143,0.4144434928894043,0.0,0.0,-0.0,0.0,0.0,-0.0,0.0,0.0,0.0,0.0,0.0,0.0,0.0,manual
1761304275.5690262,0.5201554298400879,0.0,0.0,-0.0,0.0,0.0,-0.0,0.0,0.0,0.0,0.0,0.0,0.0,0.0,manual
1761304275.6710591,0.6221883296966553,0.0,0.0,-0.0,0.0,0.0,-0.0,0.0,0.0,0.0,0.0,0.0,0.0,0.0,manual
1761304275.775815,0.7269442081451416,0.0,0.0,-0.0,0.0,0.0,-0.0,0.0,0.0,0.0,0.0,0.0,0.0,0.0,manual
1761304275.878059,0.8291881084442139,0.0,0.0,-0.0,0.0,0.0,-0.0,0.0,0.0,0.0,0.0,0.0,0.0,0.0,manual
1761304275.9801905,0.9313197135925293,0.0,0.0,-0.0,0.0,0.0,-0.0,0.0,0.0,0.0,0.0,0.0,0.0,0.0,manual
1761304276.082134,1.0332632064819336,0.0,0.0,-0.0,0.0,0.0,-0.0,0.0,0.0,0.0,0.0,0.0,0.0,0.0,manual
1761304276.1865916,1.1377208232879639,0.0,0.0,-0.0,0.0,0.0,-0.0,0.0,0.0,0.0,0.0,0.0,0.0,0.0,manual
1761304276.2896948,1.2408239841461182,0.0,0.0,-0.0,0.0,0.0,-0.0,0.0,0.0,0.0,0.0,0.0,0.0,0.0,manual
1761304276.392354,1.3434832096099854,0.0,0.0,-0.0,0.0,0.0,-0.0,0.0,0.0,0.0,0.0,0.0,0.0,0.0,manual
1761304276.5639763,1.5151054859161377,0.0,0.0,-0.0,0.0,0.0,-0.0,0.0,0.0,0.0,0.0,0.0,0.0,0.0,manual
1761304276.6672175,1.6183466911315918,0.0,0.0,-0.0,0.0,0.0,-0.0,0.0,0.0,0.0,0.0,0.0,0.0,0.0,manual
1761304276.7699726,1.7211017608642578,0.0,0.0,-0.0,0.0,0.0,-0.0,0.0,0.0,0.0,0.0,0.0,0.0,0.0,manual
1761304276.8724916,1.8236207962036133,0.0,0.0,-0.0,0.0,0.0,-0.0,0.0,0.0,0.0,0.0,0.0,0.0,0.0,manual
1761304276.9780118,1.9291410446166992,0.0,0.0,-0.0,0.0,0.0,-0.0,0.0,0.0,0.0,0.0,0.0,0.0,0.0,manual
1761304277.082824,2.0339531898498535,0.0,0.0,-0.0,0.0,0.0,-0.0,0.0,0.0,0.0,0.0,0.0,0.0,0.0,manual
1761304277.1865706,2.137699842453003,0.0,0.0,-0.0,0.0,0.0,-0.0,0.0,0.0,0.0,0.0,0.0,0.0,0.0,manual
1761304277.2909596,2.242088794708252,0.0,0.0,-0.0,0.0,0.0,-0.0,0.0,0.0,0.0,0.0,0.0,0.0,0.0,manual
1761304277.3966591,2.3477883338928223,0.0,0.0,-0.0,0.0,0.0,-0.0,0.0,0.0,0.0,0.0,0.0,0.0,0.0,manual
1761304277.5041983,2.4553275108337402,0.0,0.0,0.015244358992780866,0.0,0.0,0.6775138743200726,0.0,0.0,0.0,1.0,0.0,0.0,0.0,stabilize
1761304277.6059475,2.5570766925811768,0.0,0.0,0.1490107810288067,0.0,0.0,1.622750516527647,0.0,0.0,0.0,0.5521773885740082,0.0,0.0,0.0,stabilize
1761304277.7101538,2.661283016204834,0.0,0.0,0.3231935672002953,0.0,0.0,1.696259457112315,0.0,0.0,0.0,0.4461964400156023,0.0,0.0,0.0,stabilize
1761304277.8164365,2.7675657272338867,0.0,0.0,0.5019162386917833,0.0,0.0,1.6527999729415874,0.0,0.0,0.0,0.43314571990922734,0.0,0.0,0.0,stabilize
1761304277.920775,2.871904134750366,0.0,0.0,0.6691962517758668,0.0,0.0,1.5485672605299439,0.0,0.0,0.0,0.38956690319902004,0.0,0.0,0.0,stabilize
1761304278.025403,2.976532220840454,0.0,0.0,0.8245928020220946,0.0,0.0,1.418993686164189,0.0,0.0,0.0,0.38160349068570937,0.0,0.0,0.0,stabilize
1761304278.1297512,3.0808804035186768,0.0,0.0,0.9655366830757672,0.0,0.0,1.2821536234934017,0.0,0.0,0.0,0.38080742335261814,0.0,0.0,0.0,stabilize
1761304278.234418,3.185547113418579,0.0,0.0,1.0926009289027934,0.0,0.0,1.146978683095495,0.0,0.0,0.0,0.38212240547577203,0.0,0.0,0.0,stabilize
1761304278.3353956,3.286524772644043,0.0,0.0,1.2021299618440167,0.0,0.0,1.0236180766543197,0.0,0.0,0.0,0.3843479507681028,0.0,0.0,0.0,stabilize
1761304278.4400153,3.3911445140838623,0.0,0.0,1.3030127275026941,0.0,0.0,0.9065888481392501,0.0,0.0,0.0,0.39040044039731103,0.0,0.0,0.0,stabilize
1761304278.5453029,3.496432065963745,0.0,0.0,1.3927514791411575,0.0,0.0,0.799893630349997,0.0,0.0,0.0,0.39559486760252893,0.0,0.0,0.0,stabilize
1761304278.6495092,3.6006383895874023,0.0,0.0,1.4710812089228076,0.0,0.0,0.7052305439004508,0.0,0.0,0.0,0.4005742217909538,0.0,0.0,0.0,stabilize
1761304278.755739,3.7068681716918945,0.0,0.0,1.5413440984820872,0.0,0.0,0.6193444937837829,0.0,0.0,0.0,0.40528605093961645,0.0,0.0,0.0,stabilize
1761304278.8597965,3.8109257221221924,0.0,0.0,1.6018351285805508,0.0,0.0,0.5448007086693367,0.0,0.0,0.0,0.4093003657681592,0.0,0.0,0.0,stabilize
1761304278.96282,3.9139492511749268,0.0,0.0,1.6545306947490515,0.0,0.0,0.47950152689822834,0.0,0.0,0.0,0.4131709000058453,0.0,0.0,0.0,stabilize
1761304279.0667484,4.017877578735352,0.0,0.0,1.7012774579063255,0.0,0.0,0.4213050268603779,0.0,0.0,0.0,0.41650244261848823,0.0,0.0,0.0,stabilize
1761304279.1720088,4.123137950897217,0.0,0.0,1.7428336005613196,0.0,0.0,0.3693716718493163,0.0,0.0,0.0,0.4194393815472387,0.0,0.0,0.0,stabilize
1761304279.2757297,4.226858854293823,0.0,0.0,1.7787625717023618,0.0,0.0,0.32435533221262114,0.0,0.0,0.0,0.422146461058201,0.0,0.0,0.0,stabilize
1761304279.3827207,4.333849906921387,0.0,0.0,1.811235000157726,0.0,0.0,0.28355280159556595,0.0,0.0,0.0,0.4246807234454024,0.0,0.0,0.0,stabilize
1761304279.4937072,4.444836378097534,0.0,0.0,1.840356915562526,0.0,0.0,0.2467319156720092,0.0,0.0,0.0,0.4264498778408131,0.0,0.0,0.0,stabilize
1761304279.597777,4.548906087875366,0.0,0.0,1.864646213158551,0.0,0.0,0.21615359582473764,0.0,0.0,0.0,0.4286472599614407,0.0,0.0,0.0,stabilize
1761304279.7020688,4.653198003768921,0.0,0.0,1.885763542085185,0.0,0.0,0.1893750172470619,0.0,0.0,0.0,0.4301989613550656,0.0,0.0,0.0,stabilize
1761304279.8100333,4.761162519454956,0.0,0.0,1.904869363626746,0.0,0.0,0.16510271435377585,0.0,0.0,0.0,0.4318283202251444,0.0,0.0,0.0,stabilize
1761304279.915488,4.866617202758789,0.0,0.0,1.9211591602351799,0.0,0.0,0.1442896188789722,0.0,0.0,0.0,0.43291172313615817,0.0,0.0,0.0,stabilize
1761304280.0199747,4.97110390663147,0.0,0.0,1.9352720859924961,0.0,0.0,0.12622800915811797,0.0,0.0,0.0,0.43408694275817705,0.0,0.0,0.0,stabilize
1761304280.1257765,5.076905727386475,0.0,0.0,1.947700559542034,0.0,0.0,0.11023681196156812,0.0,0.0,0.0,0.4350601500539638,0.0,0.0,0.0,stabilize
1761304280.2335405,5.184669733047485,0.0,0.0,1.9588402552249893,0.0,0.0,0.09583093642113445,0.0,0.0,0.0,0.4358261312823134,0.0,0.0,0.0,stabilize
1761304280.336723,5.2878522872924805,0.0,0.0,1.9680948684529551,0.0,0.0,0.08380790024070894,0.0,0.0,0.0,0.43665584338667407,0.0,0.0,0.0,stabilize
1761304280.4415889,5.392718076705933,0.0,0.0,1.9762706826778784,0.0,0.0,0.07310931605650503,0.0,0.0,0.0,0.43727037203536306,0.0,0.0,0.0,stabilize
1761304280.5446277,5.4957568645477295,0.0,0.0,1.9833480123654659,0.0,0.0,0.06379178533671796,0.0,0.0,0.0,0.4378267319499536,0.0,0.0,0.0,stabilize
1761304280.64848,5.599609136581421,0.0,0.0,1.9895371780397333,0.0,0.0,0.05557937477618255,0.0,0.0,0.0,0.43833078869430003,0.0,0.0,0.0,stabilize
1761304280.7534103,5.70453953742981,0.0,0.0,1.9949783362499958,0.0,0.0,0.04828763540441446,0.0,0.0,0.0,0.4387306939656417,0.0,0.0,0.0,stabilize
1761304280.860446,5.811575174331665,0.0,0.0,1.9997909823651185,0.0,0.0,0.041779815118612444,0.0,0.0,0.0,0.43914246848344984,0.0,0.0,0.0,stabilize
1761304280.9664035,5.917532682418823,0.0,0.0,2.0039126262727844,0.0,0.0,0.03613243606782414,0.0,0.0,0.0,0.4394079186901808,0.0,0.0,0.0,stabilize
1761304281.067231,6.018360137939453,0.0,0.0,2.0073138325131374,0.0,0.0,0.03142965743965188,0.0,0.0,0.0,0.4397601720093134,0.0,0.0,0.0,stabilize
1761304281.1720698,6.123198986053467,0.0,0.0,2.0103778727821213,0.0,0.0,0.027117141219986547,0.0,0.0,0.0,0.44002604160327574,0.0,0.0,0.0,stabilize
1761304281.2784073,6.229536533355713,0.0,0.0,2.013053075597785,0.0,0.0,0.023281981512231993,0.0,0.0,0.0,0.4401967009108574,0.0,0.0,0.0,stabilize
1761304281.3828168,6.333945989608765,0.0,0.0,2.015308591720745,0.0,0.0,0.01999158880822369,0.0,0.0,0.0,0.440458585310486,0.0,0.0,0.0,stabilize
1761304281.4876878,6.438817024230957,0.0,0.0,2.0172496282630306,0.0,0.0,0.017093454776691577,0.0,0.0,0.0,0.44067481210278636,0.0,0.0,0.0,stabilize
1761304281.5928764,6.544005632400513,0.0,0.0,2.0189103778616784,0.0,0.0,0.014542565540726778,0.0,0.0,0.0,0.44079437725971354,0.0,0.0,0.0,stabilize
1761304281.6997552,6.650884389877319,0.0,0.0,2.0203346140609546,0.0,0.0,0.012292605957354659,0.0,0.0,0.0,0.44099076126481096,0.0,0.0,0.0,stabilize
1761304281.8029487,6.754077911376953,0.0,0.0,2.0215070874926457,0.0,0.0,0.01036477418252284,0.0,0.0,0.0,0.4410462540814356,0.0,0.0,0.0,stabilize
1761304281.9084394,6.8595685958862305,0.0,0.0,2.0225080822840806,0.0,0.0,0.00865202472586241,0.0,0.0,0.0,0.44115840732635647,0.0,0.0,0.0,stabilize
1761304282.011696,6.962825298309326,0.0,0.0,2.0233240624566027,0.0,0.0,0.007183412038415741,0.0,0.0,0.0,0.44122913320340196,0.0,0.0,0.0,stabilize
1761304282.1173103,7.068439483642578,0.0,0.0,2.024011849907668,0.0,0.0,0.005872222572167404,0.0,0.0,0.0,0.44134130638691094,0.0,0.0,0.0,stabilize
1761304282.2210238,7.172152996063232,0.0,0.0,2.0245609994041467,0.0,0.0,0.004745164783443112,0.0,0.0,0.0,0.44141565140947187,0.0,0.0,0.0,stabilize
1761304282.325593,7.276722192764282,0.0,0.0,2.0250038466377074,0.0,0.0,0.0037518140795180423,0.0,0.0,0.0,0.44149251439011084,0.0,0.0,0.0,stabilize
1761304282.430372,7.381501197814941,0.0,0.0,2.0253500962489914,0.0,0.0,0.0028801335609917413,0.0,0.0,0.0,0.4415148452761356,0.0,0.0,0.0,stabilize
1761304282.5405731,7.491702318191528,0.0,0.0,2.025621344661799,0.0,0.0,0.0020873406692788494,0.0,0.0,0.0,0.4415065920468158,0.0,0.0,0.0,stabilize
1761304282.6456819,7.596811056137085,0.0,0.0,2.0258064243692315,0.0,0.0,0.0014343048118730746,0.0,0.0,0.0,0.44166236744375703,0.0,0.0,0.0,stabilize
1761304282.7532337,7.704362869262695,0.0,0.0,2.0259274041270645,0.0,0.0,0.0008400109725232339,0.0,0.0,0.0,0.4416324482845355,0.0,0.0,0.0,stabilize
1761304282.8570051,7.808134317398071,0.0,0.0,2.025989356866627,0.0,0.0,0.00034960896217536575,0.0,0.0,0.0,0.4416532053665838,0.0,0.0,0.0,stabilize
1761304282.9622104,7.913339614868164,0.0,0.0,2.02600323275965,0.0,0.0,-8.255131677079963e-05,0.0,0.0,0.0,0.44167628230506173,0.0,0.0,0.0,stabilize
1761304283.0657566,8.016885757446289,0.0,0.0,2.025975596711395,0.0,0.0,-0.0004489281722057334,0.0,0.0,0.0,0.44170050097980457,0.0,0.0,0.0,stabilize
1761304283.170609,8.121738195419312,0.0,0.0,2.0259113423970825,0.0,0.0,-0.000771182851778485,0.0,0.0,0.0,0.44173746793152974,0.0,0.0,0.0,stabilize
1761304283.2744377,8.225566864013672,0.0,0.0,2.025816688196943,0.0,0.0,-0.0010461317552371866,0.0,0.0,0.0,0.4417735611821089,0.0,0.0,0.0,stabilize
1761304283.3798275,8.33095669746399,0.0,0.0,2.02569329049074,0.0,0.0,-0.0012860356454384978,0.0,0.0,0.0,0.44180891481127443,0.0,0.0,0.0,stabilize
1761304283.4844968,8.435626029968262,0.0,0.0,2.02554740404056,0.0,0.0,-0.0014945109309360304,0.0,0.0,0.0,0.4417863434257411,0.0,0.0,0.0,stabilize
1761304283.5886056,8.539734840393066,0.0,0.0,2.025382491461927,0.0,0.0,-0.0016685114354803388,0.0,0.0,0.0,0.44182319885698196,0.0,0.0,0.0,stabilize
1761304283.6920192,8.643148422241211,0.0,0.0,2.025201971751819,0.0,0.0,-0.001820296575698841,0.0,0.0,0.0,0.4418158041014399,0.0,0.0,0.0,stabilize
1761304283.7974365,8.748565673828125,0.0,0.0,2.025003270508618,0.0,0.0,-0.0019444727542345434,0.0,0.0,0.0,0.44186115222982875,0.0,0.0,0.0,stabilize
1761304283.9020786,8.85320782661438,0.0,0.0,2.0247937283268334,0.0,0.0,-0.0020563628972812783,0.0,0.0,0.0,0.44184152279790045,0.0,0.0,0.0,stabilize
1761304284.0113628,8.962491989135742,0.0,0.0,2.02456361033926,0.0,0.0,-0.0021320153526249723,0.0,0.0,0.0,0.4420471673904357,0.0,0.0,0.0,stabilize
1761304284.116789,9.067918300628662,0.0,0.0,2.024334264095221,0.0,0.0,-0.0022254949527756394,0.0,0.0,0.0,0.4418316838805746,0.0,0.0,0.0,stabilize
1761304284.220913,9.17204213142395,0.0,0.0,2.0240984213860993,0.0,0.0,-0.002283126868791805,0.0,0.0,0.0,0.44186873885786565,0.0,0.0,0.0,stabilize
1761304284.3265896,9.277718782424927,0.0,0.0,2.02385432211618,0.0,0.0,-0.002331805345325016,0.0,0.0,0.0,0.4418899723542844,0.0,0.0,0.0,stabilize
1761304284.4301836,9.381312847137451,0.0,0.0,2.023610507462003,0.0,0.0,-0.0023724158860824796,0.0,0.0,0.0,0.44187323940477014,0.0,0.0,0.0,stabilize
1761304284.5352895,9.486418724060059,0.0,0.0,2.0233595677892953,0.0,0.0,-0.002405323669359481,0.0,0.0,0.0,0.4418706344577796,0.0,0.0,0.0,stabilize
1761304284.639287,9.590416193008423,0.0,0.0,2.0231082736010153,0.0,0.0,-0.0024238739325618255,0.0,0.0,0.0,0.4418975601708151,0.0,0.0,0.0,stabilize
1761304284.74296,9.69408917427063,0.0,0.0,2.022855937103305,0.0,0.0,-0.0024443605815433075,0.0,0.0,0.0,0.44186995657611816,0.0,0.0,0.0,stabilize
1761304284.8476024,9.798731565475464,0.0,0.0,2.022599843317194,0.0,0.0,-0.0024519710737769614,0.0,0.0,0.0,0.44189289393011083,0.0,0.0,0.0,stabilize
1761304284.9506798,9.901808977127075,0.0,0.0,2.0223468521322214,0.0,0.0,-0.0024582818761879014,0.0,0.0,0.0,0.44188329464219606,0.0,0.0,0.0,stabilize
1761304285.0539787,10.005107879638672,0.0,0.0,2.0220930027116313,0.0,0.0,-0.002459623410418808,0.0,0.0,0.0,0.4418812055685527,0.0,0.0,0.0,stabilize
1761304285.1600797,10.11120891571045,0.0,0.0,2.0218323183396456,0.0,0.0,-0.002456172745694274,0.0,0.0,0.0,0.44189393890288153,0.0,0.0,0.0,stabilize
1761304285.263736,10.21486520767212,0.0,0.0,2.021578217195604,0.0,0.0,-0.0024469020055680702,0.0,0.0,0.0,0.4419040343973718,0.0,0.0,0.0,stabilize
1761304285.368285,10.319414138793945,0.0,0.0,2.0213227438673913,0.0,0.0,-0.002437728005129533,0.0,0.0,0.0,0.4418976160344004,0.0,0.0,0.0,stabilize
1761304285.4733584,10.424487590789795,0.0,0.0,2.0210671097103545,0.0,0.0,-0.0024277659215515,0.0,0.0,0.0,0.4418983573668872,0.0,0.0,0.0,stabilize
1761304285.579951,10.53108024597168,0.0,0.0,2.0208091911521344,0.0,0.0,-0.0024122447681923474,0.0,0.0,0.0,0.44189762978490976,0.0,0.0,0.0,stabilize
1761304285.6850033,10.63613247871399,0.0,0.0,2.020556661721684,0.0,0.0,-0.002396971995631773,0.0,0.0,0.0,0.44189430417518943,0.0,0.0,0.0,stabilize
1761304285.7855542,10.736683368682861,0.0,0.0,2.0203163720772848,0.0,0.0,-0.0023703690412132015,0.0,0.0,0.0,0.4419783955784473,0.0,0.0,0.0,stabilize
1761304285.891549,10.842678308486938,0.0,0.0,2.0200665788309764,0.0,0.0,-0.0023604221364756568,0.0,0.0,0.0,0.441899845833553,0.0,0.0,0.0,stabilize
1761304285.9982667,10.949395895004272,0.0,0.0,2.019814570736396,0.0,0.0,-0.0023397549432622416,0.0,0.0,0.0,0.44190199474210595,0.0,0.0,0.0,stabilize
1761304286.103774,11.054903268814087,0.0,0.0,2.0195688584601554,0.0,0.0,-0.002318308460388891,0.0,0.0,0.0,0.4419072409381307,0.0,0.0,0.0,stabilize
1761304286.2062407,11.15736985206604,0.0,0.0,2.0193319943309502,0.0,0.0,-0.0022716022658657567,0.0,0.0,0.0,0.4421764001971359,0.0,0.0,0.0,stabilize
1761304286.3102267,11.261355876922607,0.0,0.0,2.0190945125487776,0.0,0.0,-0.0022725713779776537,0.0,0.0,0.0,0.4419054135879678,0.0,0.0,0.0,stabilize
1761304286.4144037,11.365532875061035,0.0,0.0,2.0188588203868396,0.0,0.0,-0.0022507421740659873,0.0,0.0,0.0,0.44190547616459286,0.0,0.0,0.0,stabilize
1761304286.5188344,11.469963550567627,0.0,0.0,2.0186249108841925,0.0,0.0,-0.002228413064572599,0.0,0.0,0.0,0.44191028682350336,0.0,0.0,0.0,stabilize
1761304286.6242502,11.575379371643066,0.0,0.0,2.0183912209575237,0.0,0.0,-0.0022043950520942847,0.0,0.0,0.0,0.4419020823508989,0.0,0.0,0.0,stabilize
1761304286.728246,11.679375171661377,0.0,0.0,2.018163161390643,0.0,0.0,-0.0021808311881853265,0.0,0.0,0.0,0.44190145634360156,0.0,0.0,0.0,stabilize
1761304286.8327208,11.783849954605103,0.0,0.0,2.017936529602817,0.0,0.0,-0.0021571373963100143,0.0,0.0,0.0,0.441900631061772,0.0,0.0,0.0,stabilize
1761304286.9375021,11.888631343841553,0.0,0.0,2.0177117833707854,0.0,0.0,-0.0021323744551399195,0.0,0.0,0.0,0.44190327349665703,0.0,0.0,0.0,stabilize
1761304287.0488048,11.999933958053589,0.0,0.0,2.017477582434639,0.0,0.0,-0.0020923880468296237,0.0,0.0,0.0,0.44204749849365765,0.0,0.0,0.0,stabilize
1761304287.151263,12.102392196655273,0.0,0.0,2.0172604436818022,0.0,0.0,-0.0020799656783624565,0.0,0.0,0.0,0.4415421458582889,0.0,0.0,0.0,stabilize
1761304287.263209,12.214338302612305,0.0,0.0,2.0170325386101573,0.0,0.0,-0.0020340745260903565,0.0,0.0,0.0,0.4419691432251206,0.0,0.0,0.0,stabilize
1761304287.3638647,12.314993858337402,0.0,0.0,2.0168256654748644,0.0,0.0,-0.0020311118541117366,0.0,0.0,0.0,0.4418091679868341,0.0,0.0,0.0,stabilize
1761304287.4741888,12.425318002700806,0.0,0.0,2.016598773280161,0.0,0.0,-0.0021638389133977406,0.0,0.0,0.0,0.44052371479333763,0.0,0.0,0.0,stabilize
1761304287.5760243,12.527153491973877,0.0,0.0,2.0163945536817,0.0,0.0,-0.001975846271780748,0.0,0.0,0.0,0.4420553372265298,0.0,0.0,0.0,stabilize
1761304287.6819758,12.633105039596558,0.0,0.0,2.016181096038019,0.0,0.0,-0.0019578393931911574,0.0,0.0,0.0,0.44202385795246746,0.0,0.0,0.0,stabilize
1761304287.8110602,12.762189388275146,0.0,0.0,2.0159197941259808,0.0,0.0,-0.0022763552392521358,0.0,0.0,0.0,0.4415772017624622,0.0,0.0,0.0,stabilize
1761304287.921247,12.872376203536987,0.0,0.0,2.0156383846594745,0.0,0.0,-0.0011351158152658257,0.0,0.0,0.0,0.45110607606278214,0.0,0.0,0.0,stabilize
1761304288.0320125,12.983141660690308,0.0,0.0,2.015547656321477,0.0,0.0,-0.0013435063006720558,0.0,0.0,0.0,0.43834367375302274,0.0,0.0,0.0,stabilize
1761304288.1524084,13.103537559509277,0.0,0.0,2.015351958714288,0.0,0.0,-0.0016246281004954856,0.0,0.0,0.0,0.4416996218153555,0.0,0.0,0.0,stabilize
1761304288.2568517,13.207980871200562,0.0,0.0,2.015185890642273,0.0,0.0,-0.0017289921050149715,0.0,0.0,0.0,0.44110150274180054,0.0,0.0,0.0,stabilize
1761304288.4000454,13.351174592971802,0.0,0.0,2.0149342395496497,0.0,0.0,-0.0019453669864221113,0.0,0.0,0.0,0.44173626998983545,0.0,0.0,0.0,stabilize
1761304288.5061495,13.457278728485107,0.0,0.0,2.0147467709567564,0.0,0.0,-0.0017806193154304981,0.0,0.0,0.0,0.4418626810291316,0.0,0.0,0.0,stabilize
1761304288.612985,13.564114093780518,0.0,0.0,2.0145522973876284,0.0,0.0,-0.0016750339972510862,0.0,0.0,0.0,0.4432480982526713,0.0,0.0,0.0,stabilize
1761304288.7411954,13.6923246383667,0.0,0.0,2.0143321252196618,0.0,0.0,-0.0018912737868991168,0.0,0.0,0.0,0.44164768725109027,0.0,0.0,0.0,stabilize
1761304288.8516254,13.802754640579224,0.0,0.0,2.014092484952775,0.0,0.0,-0.002834995229254439,0.0,0.0,0.0,0.44130166648566305,0.0,0.0,0.0,stabilize
1761304288.9579356,13.909064769744873,0.0,0.0,2.0074328121252427,0.0,0.0,-0.15525677347901037,0.0,0.0,0.0,0.35,0.0,0.0,0.0,auto
1761304289.0637803,14.014909505844116,0.0,0.0,1.9808151888410577,0.0,0.0,-0.3476309684338207,0.0,0.0,0.0,0.35,0.0,0.0,0.0,auto
1761304289.1670313,14.118160486221313,0.0,0.0,1.9352560359368793,0.0,0.0,-0.5347487405623156,0.0,0.0,0.0,0.35,0.0,0.0,0.0,auto
1761304289.271776,14.222905158996582,0.0,0.0,1.8693378850052025,0.0,0.0,-0.723729624671081,0.0,0.0,0.0,0.35,0.0,0.0,0.0,auto
1761304289.3748643,14.325993537902832,0.0,0.0,1.7851896563339877,0.0,0.0,-0.9086083372939325,0.0,0.0,0.0,0.35,0.0,0.0,0.0,auto
1761304289.4797864,14.430915594100952,0.0,0.0,1.680045836582158,0.0,0.0,-1.09535706915942,0.0,0.0,0.0,0.35,0.0,0.0,0.0,auto
1761304289.5797975,14.530926704406738,0.0,0.0,1.5616619956933642,0.0,0.0,-1.2717782564373568,0.0,0.0,0.0,0.35,0.0,0.0,0.0,auto
1761304289.6826346,14.633763790130615,0.0,0.0,1.4258384161335471,0.0,0.0,-1.3340210927522878,0.0,0.0,0.0,0.44148781404912013,0.0,0.0,0.0,auto
1761304289.787994,14.739123106002808,0.0,0.0,1.287108928400682,0.0,0.0,-1.289693164698318,0.0,0.0,0.0,0.4643315230855151,0.0,0.0,0.0,auto
1761304289.8913665,14.842495679855347,0.0,0.0,1.1579459082517172,0.0,0.0,-1.2051205486519287,0.0,0.0,0.0,0.4825387957196072,0.0,0.0,0.0,auto
1761304289.9972508,14.94837999343872,0.0,0.0,1.0368714226215074,0.0,0.0,-1.101980040059597,0.0,0.0,0.0,0.4885322555083876,0.0,0.0,0.0,auto
1761304290.101473,15.052602291107178,0.0,0.0,0.9266092198883865,0.0,0.0,-0.9937492805265835,0.0,0.0,0.0,0.4888259197120735,0.0,0.0,0.0,auto
1761304290.2082849,15.159414052963257,0.0,0.0,0.8240496916492599,0.0,0.0,-0.9285272474854258,0.0,0.0,0.0,0.4697676054492188,0.0,0.0,0.0,auto
1761304290.3169258,15.268054962158203,0.0,0.0,0.7278124588100544,0.0,0.0,-0.835468381162746,0.0,0.0,0.0,0.47916457953805913,0.0,0.0,0.0,auto
1761304290.420642,15.371771097183228,0.0,0.0,0.6456407097815104,0.0,0.0,-0.7496232074481868,0.0,0.0,0.0,0.4790680509913291,0.0,0.0,0.0,auto
1761304290.5239553,15.47508454322815,0.0,0.0,0.5724194115336528,0.0,0.0,-0.6687437100855971,0.0,0.0,0.0,0.47673849760026715,0.0,0.0,0.0,auto
1761304290.6265802,15.577709436416626,0.0,0.0,0.5076527736897661,0.0,0.0,-0.5945502984250313,0.0,0.0,0.0,0.47398628748470223,0.0,0.0,0.0,auto
1761304290.7330084,15.68413758277893,0.0,0.0,0.4481549875315325,0.0,0.0,-0.5247424605448294,0.0,0.0,0.0,0.4708170483661239,0.0,0.0,0.0,auto
1761304290.8375716,15.788700819015503,0.0,0.0,0.39656041190583774,0.0,0.0,-0.4632641374880296,0.0,0.0,0.0,0.4679263300654254,0.0,0.0,0.0,auto
1761304290.9395993,15.89072847366333,0.0,0.0,0.3520769943685316,0.0,0.0,-0.4097374085689436,0.0,0.0,0.0,0.46518415279292946,0.0,0.0,0.0,auto
1761304291.0429118,15.994040966033936,0.0,0.0,0.312285098799963,0.0,0.0,-0.36153931068651685,0.0,0.0,0.0,0.46261696563754046,0.0,0.0,0.0,auto
1761304291.148209,16.09933829307556,0.0,0.0,0.27671475092038006,0.0,0.0,-0.3182669980974712,0.0,0.0,0.0,0.4602649454608664,0.0,0.0,0.0,auto
1761304291.2532594,16.20438861846924,0.0,0.0,0.24518901729946346,0.0,0.0,-0.2798200023892381,0.0,0.0,0.0,0.4581294934895716,0.0,0.0,0.0,auto
1761304291.3571594,16.30828857421875,0.0,0.0,0.21788378350736012,0.0,0.0,-0.24647723525286083,0.0,0.0,0.0,0.45620643711524733,0.0,0.0,0.0,auto
1761304291.4605155,16.41164469718933,0.0,0.0,0.1939516836417457,0.0,0.0,-0.21723322948351503,0.0,0.0,0.0,0.45453058213951103,0.0,0.0,0.0,auto
1761304291.5606792,16.511808395385742,0.0,0.0,0.17347168068959606,0.0,0.0,-0.19221057877277392,0.0,0.0,0.0,0.4530794808503985,0.0,0.0,0.0,auto
1761304291.6649346,16.616063833236694,0.0,0.0,0.15465608515521262,0.0,0.0,-0.16922560354749816,0.0,0.0,0.0,0.45178657682793566,0.0,0.0,0.0,auto
1761304291.7658396,16.716968774795532,0.0,0.0,0.13858957410050263,0.0,0.0,-0.14964453727805258,0.0,0.0,0.0,0.45043525100383175,0.0,0.0,0.0,auto
1761304291.8711288,16.82225799560547,0.0,0.0,0.12380425751712604,0.0,0.0,-0.1316070351432097,0.0,0.0,0.0,0.4495821631145114,0.0,0.0,0.0,auto
1761304291.9737935,16.924922704696655,0.0,0.0,0.11110277966832971,0.0,0.0,-0.1161507025793168,0.0,0.0,0.0,0.44867211732864076,0.0,0.0,0.0,auto
1761304292.0795863,17.030715465545654,0.0,0.0,0.09957166596637632,0.0,0.0,-0.10214522612916371,0.0,0.0,0.0,0.4478452079406038,0.0,0.0,0.0,auto
1761304292.1856463,17.136775493621826,0.0,0.0,0.15778800312044827,0.0,0.0,1.338524887264159,0.0,0.0,0.0,1.0,0.0,0.0,0.0,auto
1761304292.2903476,17.2414767742157,0.0,0.0,0.3797177164700048,0.0,0.0,2.896160197380388,0.0,0.0,0.0,1.0,0.0,0.0,0.0,auto
1761304292.3948874,17.34601664543152,0.0,0.0,0.7452206388082625,0.0,0.0,3.928388335529834,0.0,0.0,0.0,0.8728289720471494,0.0,0.0,0.0,auto
1761304292.4978578,17.448987007141113,0.0,0.0,1.160267679723844,0.0,0.0,4.030060430523274,0.0,0.0,0.0,0.4406481395252959,0.0,0.0,0.0,auto
1761304292.6020212,17.553150415420532,0.0022182622294434416,0.0,1.5730671767584958,0.07836585451034819,0.0,3.8852821559126665,0.0,-0.2099574710435261,0.0,0.35,0.0,-0.3,0.0,auto
1761304292.70679,17.65791916847229,0.024619641921435734,0.0,1.9700219453008683,0.38190024038865755,0.0,3.6694205155357724,0.0,-0.4663531649999962,0.0,0.35,0.0,-0.11344962868058289,0.0,auto
1761304292.8093984,17.76052761077881,0.08358306096472093,0.0,2.3294913792430543,0.7662170757007274,0.0,3.3385786287561707,0.0,-0.49148129557450587,0.0,0.35,0.0,-0.08400324168978732,0.0,auto
1761304292.9137397,17.864868879318237,0.18410648935568874,0.0,2.6601740210857248,1.161897563904899,0.0,2.9992915447914097,0.0,-0.5113180751479182,0.0,0.35,0.0,-0.011948885727210257,0.0,auto
1761304293.019555,17.97068428993225,0.32815490000029307,0.0,2.9595447920593116,1.5615353828370677,0.0,2.659038938270843,0.0,-0.5195437075889195,0.0,0.35,0.0,0.010173763582120575,0.0,auto
1761304293.1233737,18.07450294494629,0.510459523210995,0.0,3.21915686754573,1.9413862528902925,0.0,2.3548185144974916,0.0,-0.4206803582895791,0.0,0.35,0.0,0.10182195932219999,0.0,auto
1761304293.2268732,18.17800235748291,0.7257884924622849,0.0,3.448736645836587,2.2090786743639446,0.0,2.0876530540686624,0.0,-0.3229976922163644,0.0,0.35,0.0,0.09584657378702548,0.0,auto
1761304293.3327494,18.283878564834595,0.9707701724405373,0.0,3.6565423134121935,2.4065440999549295,0.0,1.8404490541435514,0.0,-0.2392820960512347,0.0,0.35,0.0,0.03741415514358209,0.0,auto
1761304293.4360847,18.387213945388794,1.2270998439963539,0.0,3.8349564486807166,2.545499071346858,0.0,1.6143074398999147,0.0,-0.17961905558932106,0.0,0.35,0.0,0.007915982356442586,0.0,auto
1761304293.5405145,18.49164366722107,1.4984932301784442,0.0,3.9920250711110112,2.646196048465488,0.0,1.3951445034491032,0.0,-0.13964261472177192,0.0,0.35,0.0,0.00779000567519341,0.0,auto
1761304293.6438646,18.594993829727173,1.775839451980609,0.0,4.125295928949382,2.717333137777108,0.0,1.1854317224300126,0.0,-0.11282501259457575,0.0,0.3535591078869326,0.0,0.012043286670250966,0.0,auto
1761304293.7499683,18.70109748840332,2.06726145584246,0.0,4.241946774557205,2.773028116136775,0.0,1.0183762995043808,0.0,-0.09099273130103415,0.0,0.37689357780232724,0.0,0.009751652146126878,0.0,auto
1761304293.854984,18.806113243103027,2.3606888759470244,0.0,4.341498132378177,2.813068055786599,0.0,0.8813574697861526,0.0,-0.07507710003837832,0.0,0.3882761369913506,0.0,0.006648142319787092,0.0,auto
1761304293.9603639,18.911493062973022,2.6587025311369836,0.0,4.428133465223075,2.839004582379836,0.0,0.7660949333111796,0.0,-0.043133102765381744,0.0,0.3946223424205771,0.0,0.06080755169752671,0.0,auto
1761304294.065259,19.016388177871704,2.955722359336183,0.0,4.503183086743646,2.818885553096543,0.0,0.6677532415346562,0.0,-0.002218306609657106,0.0,0.4030415622992675,0.0,0.03692410383261479,0.0,auto
1761304294.170078,19.121207237243652,3.248830328247037,0.0,4.568629662496784,2.7689461083992684,0.0,0.5831304442453604,0.0,0.028004802361333358,0.0,0.40810145277995474,0.0,0.009202508488028418,0.0,auto
1761304294.2755735,19.22670269012451,3.537440364823517,0.0,4.626182335300641,2.6991353351008063,0.0,0.5096419433898534,0.0,0.04793845354026754,0.0,0.4132994317365996,0.0,-0.0011260610227749417,0.0,auto
1761304294.3811972,19.332326412200928,3.8182720973228044,0.0,4.676560134120815,2.6165481906373564,0.0,0.4457058000294986,0.0,0.05986263933086514,0.0,0.41716771135239633,0.0,-0.001333728335059959,0.0,auto
1761304294.4859607,19.437089920043945,4.087745727469551,0.0,4.7202963037334165,2.5270559748437007,0.0,0.3904624978269285,0.0,0.06654762486262383,0.0,0.4207876214981355,0.0,0.0011278033861743908,0.0,auto
1761304294.5918546,19.542983770370483,4.350358112013854,0.0,4.759002307752061,2.4325962823130736,0.0,0.3416658687029447,0.0,0.07029583743259536,0.0,0.4236983250933213,0.0,0.0019004249273452429,0.0,auto
1761304294.6967375,19.64786672592163,4.600516657050786,0.0,4.792571730934172,2.3376586795729235,0.0,0.29940508450523995,0.0,0.07215430813375058,0.0,0.42620840470940174,0.0,0.0014658504530841228,0.0,auto
1761304294.8019657,19.753094911575317,4.841501972822313,0.0,4.822078849748803,2.242752152136778,0.0,0.2622421596756649,0.0,0.07277732728931853,0.0,0.42817616847290796,0.0,0.0003392160944883075,0.0,auto
1761304294.9073694,19.858498573303223,5.072949224058238,0.0,4.847963533152002,2.1491815343721266,0.0,0.22962053130553062,0.0,0.07243595410523637,0.0,0.43000171571558476,0.0,-0.0005613553342012723,0.0,auto
1761304295.0115857,19.962714910507202,5.292201680653627,0.0,4.870388422105934,2.058849884259115,0.0,0.20133079175601884,0.0,0.07141266620971058,0.0,0.431527373114315,0.0,-0.0008593761273061372,0.0,auto
1761304295.1167092,20.067838430404663,5.503961083790082,0.0,4.8902081822669325,1.970387250282491,0.0,0.17629047660684766,0.0,0.0699241511871629,0.0,0.4329323280496566,0.0,-0.0009294933695622808,0.0,auto
1761304295.2239726,20.17510175704956,5.710604756558761,0.0,4.907889021450123,1.883157212578568,0.0,0.15389024703641266,0.0,0.06808353082729245,0.0,0.4341031594782482,0.0,-0.0008426343073866088,0.0,auto
1761304295.3304784,20.281607627868652,5.906699835132284,0.0,4.923218823858107,1.7997171446336104,0.0,0.13441512793523208,0.0,0.06607900948940286,0.0,0.43511795792481894,0.0,-0.0008270469414100978,0.0,auto
1761304295.4346797,20.38580894470215,6.090115387409604,0.0,4.936334889415577,1.7212157364384724,0.0,0.11769268382699771,0.0,0.0639845996010845,0.0,0.43595060302844085,0.0,-0.0009465026985141743,0.0,auto
1761304295.5378013,20.488930463790894,6.263738159525877,0.0,4.947705529401818,1.646630956311727,0.0,0.10314389921265919,0.0,0.06188462742423246,0.0,0.43670793595438995,0.0,-0.0010852848160086777,0.0,auto
1761304295.6419823,20.593111515045166,6.431494551464672,0.0,4.9577635645534075,1.574351707209538,0.0,0.09022338074826348,0.0,0.05975217115121943,0.0,0.4374090890959919,0.0,-0.0010368207752053347,0.0,auto
1761304295.7456229,20.696752071380615,6.591063879583224,0.0,4.966516078684164,1.5054203494213751,0.0,0.07891828098076072,0.0,0.05764590607117688,0.0,0.43793066573655387,0.0,-0.0009949978972225034,0.0,auto
1761304295.8511684,20.802297592163086,6.746379821038705,0.0,4.974300808635423,1.4381776411624227,0.0,0.06881103755617521,0.0,0.05553810926637393,0.0,0.43845570725839067,0.0,-0.0009662648583444964,0.0,auto
1761304295.9553533,20.906482458114624,6.892881536388243,0.0,4.981004304188182,1.3746248918624482,0.0,0.060048096640670595,0.0,0.053500308644765314,0.0,0.43886572232076093,0.0,-0.0009921752084215008,0.0,auto
1761304296.061392,21.012521266937256,7.035338779863526,0.0,4.9869489170442165,1.3127195133699499,0.0,0.052236308022381286,0.0,0.05148909582183378,0.0,0.43930550453697065,0.0,-0.0009187410199025277,0.0,auto
1761304296.1654289,21.116558074951172,7.168864624478482,0.0,4.992025673275122,1.2546019867007432,0.0,0.04550318968175778,0.0,0.04954599546911121,0.0,0.4396688674657304,0.0,-0.0008794611706699633,0.0,auto
1761304296.273616,21.224745273590088,7.300840602536512,0.0,4.996589083150511,1.197075461412909,0.0,0.0393976449976903,0.0,0.047609117784813096,0.0,0.4399948984191738,0.0,-0.0008211688465696355,0.0,auto
1761304296.3791952,21.330324411392212,7.424938093441718,0.0,5.000482649896142,1.1429047303720092,0.0,0.03412584965138483,0.0,0.04574854278174349,0.0,0.4402177601046828,0.0,-0.0008100225263780999,0.0,auto
1761304296.4846485,21.43577766418457,7.5427262545113924,0.0,5.003834162270911,1.0914191648675995,0.0,0.029535849773232918,0.0,0.04396013066101272,0.0,0.4404348363654797,0.0,-0.0008322399862328315,0.0,auto
1761304296.590482,21.541611194610596,7.655601544593923,0.0,5.006741968802702,1.042022127760516,0.0,0.02550208255054527,0.0,0.042224967911549574,0.0,0.4406557847790015,0.0,-0.0008073410629820933,0.0,auto
1761304296.692524,21.64365315437317,7.758564464789003,0.0,5.0091430826261965,0.9969116627921499,0.0,0.02207107340437495,0.0,0.04060814209760981,0.0,0.440650464210786,0.0,-0.0009321846511503848,0.0,auto
1761304296.7971072,21.748236417770386,7.861448696520821,0.0,5.011311335040545,0.9517648085677183,0.0,0.019013059833490054,0.0,0.03897278603856843,0.0,0.4409841893725195,0.0,-0.0007008739692790779,0.0,auto
1761304296.9033504,21.854479551315308,7.960245670611463,0.0,5.013182188748719,0.9083832764794535,0.0,0.01627000971294704,0.0,0.03741244435881906,0.0,0.4410721887834093,0.0,-0.0007802192839409146,0.0,auto
1761304297.0075393,21.95866847038269,8.052755109215507,0.0,5.014752107847461,0.8677208506250691,0.0,0.013916534336961108,0.0,0.03590956233006217,0.0,0.4412119136543452,0.0,-0.0007316980968217642,0.0,auto
1761304297.1127768,22.063905954360962,8.141990165400419,0.0,5.016104591245259,0.8284562119684155,0.0,0.011833416287827763,0.0,0.03444508192145104,0.0,0.44128722524015407,0.0,-0.0006401310914696559,0.0,auto
1761304297.2181625,22.169291734695435,8.227302483220052,0.0,5.017253252591946,0.790879139903651,0.0,0.010008050851153322,0.0,0.03302838703937034,0.0,0.44138490120245305,0.0,-0.0005867391702473908,0.0,auto
1761304297.323895,22.27502417564392,8.30900508512134,0.0,5.0182246415949745,0.7548552168574408,0.0,0.008405492610381144,0.0,0.03166546027631608,0.0,0.4414654605379255,0.0,-0.0006014525756621608,0.0,auto
1761304297.429829,22.380958080291748,8.387129723500639,0.0,5.019038802723793,0.7203781930847243,0.0,0.007003869513460923,0.0,0.0303453661724904,0.0,0.441555235277696,0.0,-0.000558363047529015,0.0,auto
1761304297.5363626,22.487491846084595,8.462096812165123,0.0,5.0197172759633615,0.6872646146921289,0.0,0.0057656515363111,0.0,0.029068539729895777,0.0,0.44155700375234225,0.0,-0.0005292650940161654,0.0,auto
1761304297.6421542,22.5932834148407,8.533129566726618,0.0,5.020269436392047,0.655860344771446,0.0,0.0046980915523448675,0.0,0.0278422028622949,0.0,0.44162845221820524,0.0,-0.0005044389241487811,0.0,auto
1761304297.7474082,22.698537349700928,8.600578771170307,0.0,5.020713805793514,0.6260155871068086,0.0,0.0037683236848104064,0.0,0.02667257050835551,0.0,0.44166865411370576,0.0,-0.0005160870746240366,0.0,auto
1761304297.8549407,22.80606985092163,8.66631834934149,0.0,5.021073439106648,0.5969019144050487,0.0,0.002937409620310124,0.0,0.02552429471384622,0.0,0.4416864518617209,0.0,-0.0005531694321899566,0.0,auto
1761304297.9581313,22.909260511398315,8.726526173061012,0.0,5.021340432745593,0.5702208349685088,0.0,0.002246336319426228,0.0,0.024462859589975447,0.0,0.4417242933729572,0.0,-0.0005179856431305692,0.0,auto
1761304298.0617137,23.012842893600464,8.784255143788995,0.0,5.021541142395594,0.5446198103853673,0.0,0.0016452112733818171,0.0,0.02343646753011565,0.0,0.44180650557003853,0.0,-0.00046435334851948273,0.0,auto
1761304298.1652534,23.116382598876953,8.839369160746008,0.0,5.021682966968352,0.5201608075678312,0.0,0.001113972119688227,0.0,0.022449941717658555,0.0,0.44181857785402934,0.0,-0.0004453245614174402,0.0,auto
1761304298.267175,23.21830415725708,8.891203117925343,0.0,5.021771949897542,0.49713743326726517,0.0,0.0006550650266940875,0.0,0.02154310679131059,0.0,0.4417982687047847,0.0,-0.0005520944239048703,0.0,auto
1761304298.371509,23.322638273239136,8.941887560404535,0.0,5.021818601221467,0.47461629728989346,0.0,0.00024922434191793346,0.0,0.02060888969184618,0.0,0.44182988883244967,0.0,-0.0004542994550607983,0.0,auto
1761304298.477212,23.428341150283813,8.990895137224772,0.0,5.021825567532186,0.45282666394501486,0.0,-0.00010916252512410605,0.0,0.01970528806942838,0.0,0.4418314943768005,0.0,-0.00037838841825301155,0.0,auto
1761304298.5824904,23.53361964225769,9.03746870335742,0.0,5.02179758809403,0.4321040048494347,0.0,-0.0004165007946247656,0.0,0.018848765169616692,0.0,0.4418277712436292,0.0,-0.00035666799272501837,0.0,auto
1761304298.6875,23.63862919807434,9.081799544782305,0.0,5.021739631720643,0.41236858984323266,0.0,-0.0006809837483800661,0.0,0.018031641592172243,0.0,0.4418503092597676,0.0,-0.00034581807987863996,0.0,auto
1761304298.7928023,23.743931531906128,9.124220358886552,0.0,5.021655459698047,0.3934727800068112,0.0,-0.0009134608360160355,0.0,0.017247246445408607,0.0,0.4418484653629572,0.0,-0.0003611354614885612,0.0,auto
1761304298.9010625,23.85219168663025,9.165614377046522,0.0,5.021546019574474,0.37502476987859207,0.0,-0.001115784754177099,0.0,0.01647654213636804,0.0,0.4418678124984595,0.0,-0.00035236473108200394,0.0,auto
1761304299.0099137,23.961042881011963,9.205644549721235,0.0,5.021414181710843,0.3571742280888302,0.0,-0.0012651704855948696,0.0,0.015720632505080406,0.0,0.4421318204697019,0.0,-0.00022283640395415644,0.0,auto
1761304299.1154118,24.066540956497192,9.24245250092869,0.0,5.021270658421042,0.3407472388902245,0.0,-0.0014363412578732152,0.0,0.015024747323884742,0.0,0.44185370093518217,0.0,-0.0003090816850469285,0.0,auto
1761304299.221798,24.172927141189575,9.27785633771454,0.0,5.0211116169848,0.3249451725791232,0.0,-0.001553574276680458,0.0,0.014364046149293335,0.0,0.44189252904123755,0.0,-0.0003138287278771429,0.0,auto
1761304299.3272421,24.278371334075928,9.311325953773185,0.0,5.020942108208601,0.30999897605731236,0.0,-0.001656686196134189,0.0,0.013735433750803085,0.0,0.441891564305619,0.0,-0.0003325825612937985,0.0,auto
1761304299.4304335,24.38156270980835,9.342589145233324,0.0,5.020766548190475,0.29603412635273596,0.0,-0.0017424752504418672,0.0,0.013135695430934874,0.0,0.44190091184050934,0.0,-0.00028843852416217245,0.0,auto
1761304299.5352738,24.486402988433838,9.372909569742971,0.0,5.020579818449408,0.2824837326096572,0.0,-0.0018213341804517317,0.0,0.012551891095056377,0.0,0.44187385834560405,0.0,-0.0002760294076120034,0.0,auto
1761304299.6396015,24.590730667114258,9.401703664813361,0.0,5.020387104757337,0.26960959570102927,0.0,-0.0018762773302770546,0.0,0.011997028218033796,0.0,0.44189064036347725,0.0,-0.00023776626399037097,0.0,auto
1761304299.745706,24.69683527946472,9.429642329448585,0.0,5.020185236261429,0.25711346508876914,0.0,-0.0019275190397106722,0.0,0.011460446618941552,0.0,0.4418956931263127,0.0,-0.0002421714582691576,0.0,auto
1761304299.8524694,24.803598642349243,9.456447296707552,0.0,5.019977278651606,0.24511997040794622,0.0,-0.0019675408514759248,0.0,0.010940471589227138,0.0,0.44190209479518366,0.0,-0.00022273015099818667,0.0,auto
1761304299.9574416,24.908570766448975,9.48158291516243,0.0,5.0197691213998,0.23386882179641544,0.0,-0.001997612960552366,0.0,0.010451863513551058,0.0,0.4418966167452429,0.0,-0.00020515786379642298,0.0,auto
1761304300.0632865,25.014415740966797,9.50575937022641,0.0,5.019556286600997,0.22304363818593595,0.0,-0.002022566601961995,0.0,0.009982663691260668,0.0,0.441892510665448,0.0,-0.00020654509974788327,0.0,auto
1761304300.1680455,25.11917471885681,9.5285855105173,0.0,5.019343473583134,0.21281998840132965,0.0,-0.002036872825212044,0.0,0.009536819550069131,0.0,0.44193169756752126,0.0,-0.00019334306654603467,0.0,auto
1761304300.274472,25.225601196289062,9.550594868646305,0.0,5.01912679381008,0.20295901488569199,0.0,-0.0020529680649263226,0.0,0.00910551508713067,0.0,0.4418994870907756,0.0,-0.0001898324379086747,0.0,auto
1761304300.3802595,25.33138871192932,9.571668168529179,0.0,5.018908148940787,0.1935143621048761,0.0,-0.0020584374613073528,0.0,0.008691482000755516,0.0,0.44191380865905694,0.0,-0.00017762537325935625,0.0,auto
1761304300.4849653,25.436094522476196,9.591462080684927,0.0,5.018692318621191,0.1846407085882307,0.0,-0.0020603124760936145,0.0,0.008301774998592434,0.0,0.4419312048685141,0.0,-0.00017188123157233962,0.0,auto
1761304300.586237,25.537366151809692,9.609742700670882,0.0,5.018483403780626,0.17643937392645392,0.0,-0.0020584601491546546,0.0,0.007948031638030288,0.0,0.4419106281058141,0.0,-0.00021426533110386643,0.0,auto
1761304300.689818,25.640947103500366,9.62760056859624,0.0,5.0182701835211345,0.16843145954558442,0.0,-0.002056226885643658,0.0,0.007593190756875911,0.0,0.4419144430905714,0.0,-0.0001841909973918813,0.0,auto
1761304300.7992437,25.750372886657715,9.645586266660615,0.0,5.0180451794756005,0.1603642140967971,0.0,-0.0020479347182206405,0.0,0.007234222083753972,0.0,0.4419495739229883,0.0,-0.00013247014786634887,0.0,auto
1761304300.9034176,25.854546785354614,9.661907386076203,0.0,5.017831926828661,0.15303876463359833,0.0,-0.0020431983092010953,0.0,0.0069038303570294855,0.0,0.4418989964401566,0.0,-0.0001203273488854097,0.0,auto
1761304301.0082672,25.959396362304688,9.677505772072031,0.0,5.017619287442967,0.14603776515996586,0.0,-0.002031932979690103,0.0,0.0065943288570668125,0.0,0.44191612141417846,0.0,-0.00012809842506953615,0.0,auto
1761304301.1109524,26.062081575393677,9.692233901194705,0.0,5.017410111735882,0.1394261676243697,0.0,-0.002022194258367985,0.0,0.0063029051702592764,0.0,0.441896919591521,0.0,-0.00013944740458943355,0.0,auto
1761304301.2176654,26.168794631958008,9.70676174570677,0.0,5.017195118479692,0.13290349460065504,0.0,-0.0020056869484347544,0.0,0.006015265914529277,0.0,0.4419193758041372,0.0,-0.00013386409468131436,0.0,auto
1761304301.3218262,26.272955417633057,9.720286283347805,0.0,5.016986851602479,0.1268295841483194,0.0,-0.0019907197464483313,0.0,0.005743764497464811,0.0,0.44191688289044884,0.0,-0.00012422609507273987,0.0,auto
1761304301.4248853,26.376014471054077,9.733059294453158,0.0,5.016782399600853,0.1210922765543317,0.0,-0.001976154718733039,0.0,0.0054869661259740726,0.0,0.44189899595623433,0.0,-0.00011416574574456025,0.0,auto
1761304301.5284348,26.47956395149231,9.745311147555451,0.0,5.016578649614574,0.11558799049936867,0.0,-0.001959344338249773,0.0,0.005241192258214137,0.0,0.4419028179884435,0.0,-0.00011139048541452357,0.0,auto
1761304301.630833,26.58196210861206,9.756878979920032,0.0,5.016378935495933,0.11039013292843912,0.0,-0.0019423028710030949,0.0,0.005008434604010079,0.0,0.44190136002460034,0.0,-0.00010656618222363311,0.0,auto
1761304301.7343817,26.685510873794556,9.76799396433461,0.0,5.016179787443914,0.1053949091671098,0.0,-0.0019237680720321287,0.0,0.004784982485974296,0.0,0.44190470359522077,0.0,-0.00010318291860026393,0.0,auto
1761304301.8381073,26.789236545562744,9.778726646686016,0.0,5.015980214904519,0.10057068607910721,0.0,-0.0019042721510382596,0.0,0.004569213453974526,0.0,0.44190944597421494,0.0,-0.0001004487693296914,0.0,auto
1761304301.9433806,26.89450979232788,9.78906744246797,0.0,5.0157806628261685,0.09592211361823831,0.0,-0.0018856308712406431,0.0,0.004360568567617377,0.0,0.4419113669980063,0.0,-9.693775155091354e-05,0.0,auto
1761304302.0464604,26.997589588165283,9.798729458912494,0.0,5.015587100389338,0.09157789437176966,0.0,-0.001866073038840605,0.0,0.004169272299230531,0.0,0.44186336916244306,0.0,-8.568297577003676e-05,0.0,auto
1761304302.1523254,27.10345458984375,9.808197040927608,0.0,5.015390775181149,0.08731944076532029,0.0,-0.001845881544692752,0.0,0.003971377099662019,0.0,0.4418969001233361,0.0,-6.946986087468421e-05,0.0,auto
1761304302.2565773,27.207706451416016,9.817090103613523,0.0,5.015199465713036,0.08331961355476297,0.0,-0.0018255728548654331,0.0,0.003790384803539047,0.0,0.44190731796411997,0.0,-7.124617792095517e-05,0.0,auto
1761304302.3629591,27.314088344573975,9.82574511021852,0.0,5.015006341005213,0.0794266662931575,0.0,-0.001806070931988014,0.0,0.0036164622042267375,0.0,0.4418957669513066,0.0,-7.835573101231328e-05,0.0,auto
1761304302.4675176,27.418646812438965,9.833857600015534,0.0,5.014818662939424,0.07577756294972944,0.0,-0.001783877147057463,0.0,0.003453052057467802,0.0,0.4419110124248189,0.0,-7.689305964198086e-05,0.0,auto
1761304302.5701592,27.52128839492798,9.841458693727493,0.0,5.014636507468213,0.07235810050029201,0.0,-0.0017656174184547803,0.0,0.0032983346966641513,0.0,0.4418939086284458,0.0,-7.17041482537713e-05,0.0,auto
1761304302.6745114,27.625640630722046,9.848834911559162,0.0,5.014453377184941,0.06903937045285241,0.0,-0.0017454226360901226,0.0,0.003148101213488782,0.0,0.44190197716550866,0.0,-6.83173780022842e-05,0.0,auto
1761304302.7794821,27.730611324310303,9.855913528547845,0.0,5.014271310442873,0.06585393663389139,0.0,-0.0017243775999867391,0.0,0.0030043354864094035,0.0,0.44189636476912314,0.0,-6.578204597978037e-05,0.0,auto
1761304302.8825555,27.83368468284607,9.862546298729796,0.0,5.014094643031297,0.06286903985767614,0.0,-0.0017041219727136762,0.0,0.0028691618047515283,0.0,0.4418980729193144,0.0,-6.148307863843753e-05,0.0,auto
1761304302.9877377,27.93886685371399,9.869004925696988,0.0,5.013916428830271,0.05996223184653572,0.0,-0.0016857166280709378,0.0,0.002737601400643676,0.0,0.4418963925861792,0.0,-6.182873326361857e-05,0.0,auto
1761304303.0917363,28.04286551475525,9.87509720738042,0.0,5.013742330337679,0.05721995008618396,0.0,-0.001663856966443202,0.0,0.0026129193064752297,0.0,0.44191105053877094,0.0,-5.640689711262872e-05,0.0,auto
1761304303.1977775,28.148906707763672,9.881022340198946,0.0,5.013566916340346,0.05455270989179945,0.0,-0.0016439066944416599,0.0,0.0024922261297470106,0.0,0.44190645944385293,0.0,-5.44810132166999e-05,0.0,auto
1761304303.3030794,28.2542085647583,9.886632803171734,0.0,5.013394867189293,0.052026832838126306,0.0,-0.0016224326473196304,0.0,0.002377523090665391,0.0,0.44191438026703433,0.0,-5.058842982434136e-05,0.0,auto
1761304303.4094772,28.36060643196106,9.892037852874278,0.0,5.01322314990816,0.04959326280999479,0.0,-0.0016041060927216117,0.0,0.0022669829482264247,0.0,0.4419022875799696,0.0,-4.982336621482512e-05,0.0,auto
1761304303.514786,28.465915203094482,9.897138572759005,0.0,5.013055303271146,0.04729650306910968,0.0,-0.001582394132349769,0.0,0.0021626378506162496,0.0,0.4419161480605009,0.0,-4.645734627330643e-05,0.0,auto
1761304303.6206753,28.571804523468018,9.901938360043964,7.866357280333122e-05,5.018639607612993,0.03493353226097475,0.009385139665440688,0.3549422544281001,0.03942110675198523,0.041530821124891426,0.0018795465719914732,1.0,0.3,0.3,-0.002683638253753855,auto
1761304303.7265382,28.677667379379272,9.89158873073495,0.01477011644475722,5.114940259093951,-0.31398694116280107,0.3511349280317498,1.4253568934801382,0.2825353768102963,0.28501824711597834,0.021699316669881237,1.0,0.3,0.3,-0.051185447289853685,auto
1761304303.8335917,28.78472089767456,9.817838661123744,0.09272660963149089,5.312822280411133,-1.1537999110934443,1.2058275264523692,2.2658199694956656,0.5007603276005221,0.5002384386555462,0.04175708680119874,1.0,-0.05718741035912661,-0.055454234049279,-0.09641803973933646,auto
1761304303.9412117,28.892340898513794,9.638525964286067,0.27965805815112293,5.594522562452762,-2.1352386449569103,2.1976321004240202,2.9346785722762387,0.40009967851334377,0.4383504268981404,0.046845574671536286,1.0,-0.3,-0.3,-0.09862937983802374,auto
1761304304.046857,28.997986316680908,9.377149128694883,0.542219951898108,5.944122656276835,-2.7372741492436705,2.691890092774489,3.7211328015005587,0.16309445117702281,0.20110798394413099,0.05798510345509139,1.0,-0.2992637575040976,-0.3,-0.12,auto
1761304304.151083,29.10221219062805,9.08230334798649,0.8298456001403557,6.369065578561784,-2.853647018089238,2.795026739472741,4.316376944274041,0.09305028754580426,0.056403776077109814,0.05870489820276802,0.5956544768304222,-0.015064363735898291,0.10749733396599281,-0.12,auto
1761304304.2560759,29.207205057144165,8.780982339239399,1.1256277923829447,6.839957091739832,-2.8712269129357235,2.8266055182827357,4.62114481172809,0.07513168547018714,0.04445330454106819,0.04182081740944414,0.5861192096765672,0.019375638130295886,0.08970699798758042,-0.07852839785328292,auto
1761304304.360534,29.311663150787354,8.48076030566596,1.4220107297573947,7.332598286374151,-2.8709044148168505,2.8385221679907087,4.796640024421455,0.06179557707519628,0.04321276263227517,0.026449803674959187,0.5577455397761258,0.05396224295000862,0.0651868123588597,-0.046068739449842994,auto
1761304304.4646082,29.41573739051819,8.18219435813545,1.7179633906825806,7.83746905675509,-2.8654248911137756,2.843095056992064,4.89740883671968,0.05532385694669491,0.04743997788457435,0.016237455050761167,0.529114324692107,0.05724962245460924,0.03653766667395655,-0.02761142243306267,auto
1761304304.5712461,29.522375345230103,7.877036501066634,2.0213076803141763,8.363304396891627,-2.858774020151106,2.844130128305821,4.958748341657137,0.05552688040894812,0.05312493971997057,0.009784527859285748,0.5210948505107855,0.0384373736793789,0.013578461702480053,-0.01723323741105999,auto
1761304304.675432,29.626561164855957,7.579582277406347,2.3175654923805706,8.88190895291134,-2.852947862453325,2.84357358930642,4.993665749475967,0.058956095654483356,0.05842799594900844,0.005902116723398864,0.5152111492746813,0.012260564409031682,-0.0029070366420034296,-0.011204964937338061,auto
1761304304.7815597,29.732688903808594,7.277357064048814,2.6191795393231248,9.413085108044951,-2.836364074807501,2.840720378196585,5.0145639941642015,0.05114921238089318,0.023752417161942888,0.003366760109591811,0.5066186040111693,-0.06703686882603804,-0.006578334143142171,-0.007187470884039742,auto
1761304304.8873792,29.838508367538452,6.980211845987591,2.9176180236666047,9.944403469129035,-2.778259649800143,2.795363911664468,5.026437558900155,0.019331488882422698,0.004199836752064599,0.001731365755708514,0.5042260129353763,-0.04139247626050121,-0.025946725215441457,-0.00458405375905541,auto
1761304304.9921849,29.94331407546997,6.693109328262889,3.20708987800764,10.47158270448736,-2.7000615454129773,2.7248806429552257,5.0331942816181945,-0.0016494978225287955,-0.007828941856981504,0.0007123117986077529,0.5033709497504718,-0.014745419565722992,-0.02606106840344031,-0.0029695521897766352,auto
1761304305.1023085,30.05343770980835,6.400875480883185,3.502470277158464,11.026086990934214,-2.6067071759065605,2.636543225186234,5.037094642669302,-0.015607062368867558,-0.017203077407660833,3.903013519396165e-05,0.5019567263756497,-0.0010655287774671777,-0.01812431093434126,-0.0018857242125119036,auto
1761304305.20822,30.15934920310974,6.129769051632325,3.776930105191176,11.559696354908004,-2.5121178309150674,2.5445024130127214,5.039224886504648,-0.023961831228189512,-0.02365596063969296,-0.00037049276798639273,0.5009225803413697,0.00591708531242841,-0.0067511777538930414,-0.0012443823475235874,auto
1761304305.3100765,30.261205673217773,5.878562050347105,4.031496089130824,12.073034073727298,-2.4197080716283232,2.453284625324189,5.040267615327647,-0.028842368077587038,-0.028551024895204807,-0.0006275653647327815,0.4998362801419356,0.0060342033181147205,0.003036565050029555,-0.0008117346667165229,auto
1761304305.4149585,30.366087675094604,5.629716694695166,4.283835766046262,12.601704996927364,-2.3252851838536044,2.3587847289445296,5.040885989545558,-0.030630698019423523,-0.03092848495567844,-0.0008005248294645219,0.4992438740484092,0.0016660855992424823,0.004447833113609979,-0.0005381520973063269,auto
1761304305.520558,30.47168731689453,5.38911502107049,4.52792180095152,13.134035973625833,-2.231790785648147,2.2646133653695912,5.0411284336461275,-0.03131072184622475,-0.03185067983429005,-0.0009138819158503299,0.4985152022633695,-0.0012097243240013072,0.0027031028017173524,-0.0003480525020007245,auto
1761304305.624941,30.576070308685303,5.160887636918892,4.759520486588537,13.660246887348888,-2.1415810938938113,2.1734554356747116,5.04115745597562,-0.031508360703839354,-0.03191571704347247,-0.0009864488957709676,0.4978314057753441,-0.001970985368071911,0.0006601693510402307,-0.00022233545233698833,auto
1761304305.7350616,30.686190843582153,4.930173024710702,4.993687164008698,14.215376455509858,-2.0492764579031117,2.080058982729214,5.041045189240031,-0.03159292869785514,-0.03169882304225172,-0.0010351023146324657,0.4971573473042731,-0.0016389484203898734,-0.00043119321735128255,-0.00013392388255350688,auto
1761304305.8404493,30.79157853126526,4.718735965339554,5.208314125062867,14.746631294246564,-1.963909957985154,1.9935861951028666,5.040861637567993,-0.03128318424115077,-0.03113675002851565,-0.001063948140642375,0.4965806910180175,-0.0008752985747801654,-0.0008263793478134216,-8.051805025129275e-05,auto
1761304305.9456933,30.896822452545166,4.516399821194692,5.413718918051844,15.277139044362707,-1.8817434672676985,1.9103093360342462,5.04062383166734,-0.030891028602608728,-0.030572387170643082,-0.0010814097559054218,0.49603145079302835,-3.101138764333458e-05,-0.0005243803115280129,-4.489469375907438e-05,auto
1761304306.0506635,31.001792669296265,4.323039641477999,5.6100218570220655,15.806240376681346,-1.8028592938664292,1.8303257209379504,5.040353572956815,-0.030352529571919272,-0.029966654872239006,-0.0010913660383688648,0.4955258866538269,0.0005023092319301922,3.0107367236644145e-05,-2.107983976628689e-05,auto
1761304306.1558483,31.106977462768555,4.1370323204935175,5.7988659565678935,16.323338788837553,-1.7349258535491978,1.761409106028528,4.765531594211487,-0.03342490459009575,-0.033003161546681745,-0.0010971991594764747,0.35,0.0006364008977912509,0.0004743590880866889,-3.186810495221236e-06,auto
1761304306.2610955,31.21222472190857,3.957915317758564,5.980717758531957,16.809321407710488,-1.6691877107574422,1.6946886718804672,4.471580214181128,-0.035397053057311376,-0.03498198017506233,-0.0010995728004993166,0.35,-0.001838843666431022,-0.0017262407977792073,8.490160471811957e-06,auto
1761304306.3665695,31.31769871711731,3.7852659800499526,6.156004834799092,17.265938013134402,-1.6049357719827444,1.6294607170004403,4.188647270289589,-0.037211280651385674,-0.03677708656888945,-0.001099341088583182,0.35,-0.001768817300883321,-0.001661103571238913,1.5627082042044712e-05,auto
1761304306.472651,31.4237802028656,3.618360074854721,6.325461345344883,17.695657547020225,-1.5421011129526891,1.5656660586315911,3.9147295904862385,-0.038905482511043,-0.0384375397366135,-0.0010975037027438014,0.35,-0.0008931127008026302,-0.0008671570324151404,2.0119565840467924e-05,auto
1761304306.579067,31.53019618988037,3.4575274049567044,6.488751714999208,18.098061023376967,-1.4808982917860234,1.5035254355234373,3.6496449360526344,-0.040265173392631734,-0.039771554063067704,-0.0010946795670019,0.35,-0.00023373393753221128,-0.0002489786410960697,2.3141571535625973e-05,auto
1761304306.6843858,31.635514974594116,3.304670334582769,6.643944144125597,18.4690055820666,-1.4221465255505596,1.443871369761704,3.395941004188105,-0.04124058931770983,-0.04073373540683789,-0.001091282257635843,0.35,-0.0001935544854377039,-0.00020396682827645928,2.5133318772711096e-05,auto
1761304306.7913973,31.742526531219482,3.155596293308944,6.795295112608485,18.81897578688193,-1.3642986998240063,1.3851337667604402,3.146123597186539,-0.0419542961668348,-0.041441098192668176,-0.0010874344892516559,0.35,-0.0003169730971966598,-0.000314179253039067,2.643908536106183e-05,auto
1761304306.898136,31.849265098571777,3.0129708877939887,6.940098278540505,19.141814483635244,-1.3084448558248625,1.3284206621322274,2.90416689744795,-0.04240846173942507,-0.041892220454035324,-0.0010833372175406417,0.35,-0.00031022277432895536,-0.00030348644950322647,2.7378744580994464e-05,auto
1761304307.003314,31.954443216323853,2.8781663526624937,7.076960551092609,19.43501334800626,-1.2552072380254393,1.2743648273862822,2.672115147938274,-0.04271159310537705,-0.04219324051570455,-0.0010791327958742422,0.35,-9.711169895315966e-05,-9.499519891394432e-05,2.7895810284716826e-05,auto
1761304307.1089783,32.060107469558716,2.7482825527713626,7.2088264728395455,19.70529898174113,-1.203511693868213,1.2218761389683133,2.444726344178258,-0.04283338785914406,-0.042314835372493496,-0.001074801907271012,0.35,3.717407341772605e-05,3.5575494997329866e-05,2.832624978479317e-05,auto
1761304307.2146277,32.165756940841675,2.6237852538242867,7.335223329364045,19.951802823286744,-1.1535798139596922,1.1711796897710651,2.2225360765301456,-0.04278557917173482,-0.04226897024191249,-0.0010704029414732043,0.35,-2.236407148160669e-05,-2.3044458131805385e-05,2.846811398351388e-05,auto
1761304307.3199048,32.27103400230408,2.5048835220533023,7.4559390412853075,20.17433463291806,-1.1055401243381169,1.1224059619993862,2.00573389172152,-0.04260104697165384,-0.04208797227094936,-0.0010659811708082436,0.35,8.989942047754121e-05,8.829590331638883e-05,2.8627807289083288e-05,auto
1761304307.4242249,32.375354051589966,2.391963405845779,7.570581657559068,20.372545448078522,-1.0596170320208051,1.0757770125237773,1.7949516966261847,-0.04227558607019246,-0.04175919705159636,-0.0010615797445040886,0.35,0.00019740892108991614,0.00017193618786681474,2.8645043741860378e-05,auto
1761304307.5294437,32.48057293891907,2.2828347620142395,7.681374506111427,20.55038441559868,-1.01497364233732,1.030450914903934,1.585980638322865,-0.04184300909704969,-0.04133356601881747,-0.0010571312741477952,0.35,0.0002845819029430429,0.0002667124806969237,2.868264414188538e-05,auto
1761304307.634611,32.585740089416504,2.1783677167152486,7.787434530667434,20.7063368964271,-0.9719800341955741,0.986801902505996,1.3803219167285754,-0.04130990296397171,-0.040810548984146565,-0.0010526856596381107,0.35,0.000365764083209933,0.00036161956662173844,2.881969554933691e-05,auto
1761304307.7413218,32.69245100021362,2.0769026745511576,7.890446904393848,20.842627195048603,-0.9299675552191872,0.9441508948218627,1.174509302527478,-0.04069338299189189,-0.04020350797713293,-0.0010481780703537709,0.35,0.00032891390731348824,0.00032881726675759303,2.8687677461281096e-05,auto
1761304307.8449914,32.79612064361572,1.9825437090146718,7.9862451637880465,20.954129028579477,-0.8906537186698232,0.9042413123123837,0.976953017195271,-0.040021825555742636,-0.03954042564681121,-0.001043810426599729,0.35,0.00037367994559466455,0.0003707554630171232,2.86145256312232e-05,auto
1761304307.9512703,32.90239953994751,1.88996160128102,8.080239973351045,21.047290074943902,-0.8518393496889485,0.8648404038969164,0.776513934566734,-0.03927131176078332,-0.0387986379777357,-0.0010393448870926701,0.35,0.0004175766008229534,0.00041217192199798606,2.8566563054912164e-05,auto
1761304308.061942,33.01307129859924,1.7978528291149123,8.17375493540244,21.12176671463254,-0.8129506532130897,0.8253654056154154,0.569679642776869,-0.03845091968577671,-0.03798760521198722,-0.0010347032508927565,0.35,0.0005922604721351117,0.000584194599640282,2.84263628167301e-05,auto
1761304308.1671169,33.11824607849121,1.7142330631204352,8.258652092550264,21.171412479445678,-0.7773877926159561,0.7892674936992639,0.37460064672549365,-0.037530475948225825,-0.03707789457011148,-0.0010303229908510485,0.35,0.0004491895327386387,0.0004440646888886739,2.8397998392538655e-05,auto
1761304308.2767987,33.227927923202515,1.6309390658852922,8.343219458337352,21.201401263257186,-0.7416749823042437,0.7530183024607562,0.1724277131608126,-0.03651237889752303,-0.03607150255286976,-0.0010257681024115684,0.35,0.0002918077269417291,0.00028970737011922297,2.8247833024278307e-05,auto
1761304308.383439,33.33456826210022,1.5536416061287048,8.421699645820613,21.209354975856165,-0.708215516432625,0.7190570380687422,-0.02310037963898455,-0.03545980165103979,-0.03503086460071632,-0.0010213585418961508,0.35,0.00047903575294364276,0.00047417134888818046,2.8182044040968323e-05,auto
1761304308.488597,33.43972611427307,1.4808498997482007,8.495606221725078,21.196827412475518,-0.6763944449455382,0.6867594623750676,-0.21501884210144856,-0.03435861090010251,-0.03394201907628452,-0.0010170312646096183,0.35,0.000646019812307528,0.0006384725427047744,2.8141231588261226e-05,auto
1761304308.592239,33.543368101119995,1.4122035989352106,8.565304902568037,21.165417522404578,-0.654936623693764,0.6649753788190099,-0.38681665702694923,0.016408807902825524,0.016237498556451856,-0.0015171240551035497,0.35,-0.05554416555819344,-0.05486023294388108,0.0012124762192421324,auto
1761304308.6988342,33.64996337890625,1.34220926916217,8.636370686198166,21.1147423017566,-0.6531763199154798,0.6631578649062578,-0.5675663782739472,-0.0016036051281145842,-0.0015611025427650724,-0.002409711223726159,0.35,0.03276874925424611,0.03238099124958172,0.0033450285654344093,auto
1761304308.8026853,33.753814458847046,1.2743826951853532,8.705232995845,21.04622404985598,-0.6514798481666887,0.6614157358823183,-0.7519387847308682,-0.004203503459057047,-0.004123192187608686,-0.002465630781751197,0.35,0.025411034728624136,0.02508347160000142,0.0031545309536066043,auto
1761304308.9054594,33.85658860206604,1.2075994980551639,8.773033519750255,20.961629849822707,-0.6484928704638915,0.6583591102820204,-0.8606037474274727,-0.0013685579136791552,-0.001322457232895029,-0.002177237155240159,0.4221160863236689,0.003605505935034811,0.0035501623476841097,0.002329202617926692,auto
1761304309.0091367,33.96026587486267,1.140575136779304,8.841076096287345,20.871909803353713,-0.6449690116514014,0.654753171159861,-0.8608467006888108,5.560729541151301e-05,8.344295587382386e-05,-0.001837855316284484,0.4477388799272619,-0.0028635582345972743,-0.0028328394929352887,0.0015763962389343216,auto
1761304309.1127489,34.06387805938721,1.0739395075419498,8.90872104740318,20.78460754258541,-0.6415005918688351,0.6512026441279569,-0.8194673581210816,0.00029160929756576507,0.00031588247353565044,-0.0015626050024071983,0.4663866783562561,-0.002482569807101264,-0.002452859500288992,0.0010485520692868357,auto
