timestamp,simulation_time,position_x,position_y,position_z,velocity_x,velocity_y,velocity_z,attitude_roll,attitude_pitch,attitude_yaw,control_throttle,control_roll,control_pitch,control_yaw,estimated_position_x,estimated_position_y,estimated_position_z,flight_mode,battery_level,setpoint_altitude,setpoint_position_x,setpoint_position_y,setpoint_position_z,position_error,attitude_error
1760988368.798488,0.11103367805480957,1.215258439963272e-05,-4.016091532995205e-05,-10.042210145275908,0.0010221593795004288,-0.0019742763691453402,-0.7634110866689434,-0.003415608115944967,-0.003883670559247745,-0.002158470450008284,0.65,0.006018735651265552,0.0004973417624471873,-0.052176228922226064,-2.359636224079677e-05,-1.5641514051880772e-05,10.109812718682953,stabilize,85.0,10.0,0.0,0.0,-10.0,20.10981271870288,0.02470289298936404
1760988368.90617,0.21871566772460938,0.00038778328981033745,-0.0006014856297073623,-10.163726323514988,0.0033751881335766687,-0.009259454629722257,-1.5033780517151694,-0.004522450579659566,-0.00023827813633886725,-0.009245688667359456,0.65,0.004342934953994799,-0.011129458926954092,-0.15,-0.5809615394051045,-0.012075613474180453,9.087957696729177,stabilize,85.0,10.0,0.0,0.0,-10.0,19.09680054780987,0.08951356430186255
1760988369.012077,0.32462286949157715,0.0010403618452318672,-0.001853743179084105,-10.362621407890373,0.007910720674969448,-0.014563477823707783,-2.234712087033657,-0.005135191361300814,-6.841553856286234e-05,-0.01857270185037274,0.65,0.007243808590979768,-0.011389875792910575,0.12988377618627134,-0.5814458084794037,-0.010932753732257862,10.19073792407327,stabilize,85.0,10.0,0.0,0.0,-10.0,20.199111284210325,0.07306849010160449
1760988369.1202452,0.43279099464416504,0.0022147835968736843,-0.003968816426844958,-10.644332391657246,0.014185028241047646,-0.025756425239474273,-2.9731780432283115,-0.00911143889332775,-1.828171088310822e-05,-0.016663130949885106,0.65,-0.00131931304779192,0.0008115903633102196,0.108290657655225,0.33366455061237865,-0.15403153459562946,9.443657706776142,stabilize,85.0,10.0,0.0,0.0,-10.0,19.44713045064131,0.06821660614309762
1760988369.2270072,0.5395529270172119,0.003559201758994881,-0.0077287514989485065,-11.002199946587211,0.013381460105068722,-0.042666296419984824,-3.698156777883228,-0.004775745899415512,-0.005523414430713632,-0.009314829554700517,0.65,-0.012224113539189497,0.008092473235157141,0.07908279674515523,0.33675835886087657,-0.15400364354093074,10.781765138809638,stabilize,85.0,10.0,0.0,0.0,-10.0,20.785064002767232,0.06526130963026198
1760988369.3349924,0.6475381851196289,0.005326963673065034,-0.013059878726825642,-11.438451481386927,0.018231462687934314,-0.05907231946055279,-4.418090964516023,-0.009580889798823884,-0.004577649086535695,-0.000390008606652498,0.65,0.012102319680287299,-0.00654027986495789,-0.15,0.3399652457532991,-0.15459404338469107,11.313490241599823,stabilize,85.0,10.0,0.0,0.0,-10.0,21.316761995325205,0.09176111453399764
1760988369.440607,0.7531528472900391,0.007955435623512913,-0.019797010857162484,-11.944633502123605,0.03011883027500662,-0.07079916057385595,-5.119667620506188,-0.017280636668710825,-0.004351509044545347,0.001885851964241955,0.65,0.017046555189000095,-0.006458077400713637,-0.08764649832429608,0.3433703816150174,-0.1558594293168422,11.32099406693635,stabilize,85.0,10.0,0.0,0.0,-10.0,21.32432843920325,0.03665532052731576
1760988369.54785,0.8603956699371338,0.011806282901452489,-0.028677935972000686,-12.531269955924595,0.04260828224823437,-0.08800225765193703,-5.819079727413345,-0.002205816692343605,-0.006640022100913085,0.003097514933818084,0.65,-0.012825254856081676,0.0011686378898483139,0.15,0.0037878695563540402,-1.2550936717631158,11.571429091721853,stabilize,85.0,10.0,0.0,0.0,-10.0,21.607911225568277,0.06941878931894373
1760988369.6551945,0.9677402973175049,0.017102967792155237,-0.038909529620709295,-13.192945454454273,0.059498011634757306,-0.10411967900725373,-6.507023722435581,-0.0034913648381592922,-0.0155579465762687,0.005470409708457291,0.65,-0.0069658260845001044,0.010222814141441244,-0.08426183326865577,0.005572765329529713,-1.2640281489491079,12.445521965430741,stabilize,85.0,10.0,0.0,0.0,-10.0,22.48108659557369,0.03247365103797305
1760988369.7621918,1.074737548828125,0.024813259885113098,-0.05033881042818268,-13.925302969237766,0.08378890983355666,-0.1149621291810958,-7.179997549174649,-0.014461969463455095,-0.013985431796866453,0.002184960494996827,0.65,0.01794283637195147,0.0006754797281305334,-0.12415111442985305,1.6944205991612091,-0.5754460321158374,12.642307181576331,stabilize,85.0,10.0,0.0,0.0,-10.0,22.71290984897362,0.06743676934650872
1760988369.8701947,1.1827404499053955,0.03529039729580202,-0.06341784193402676,-14.732860194995126,0.11038797646869931,-0.1275684196679624,-7.842236632676851,-0.01478609881871296,-0.009564439264019568,-0.0031956668567474154,0.65,0.007469586616432334,0.002469872796710572,0.10308696386312904,0.15827031790708518,-0.9232297317454511,13.482435514365157,stabilize,85.0,10.0,0.0,0.0,-10.0,23.501110193295702,0.04384338830865941
1760988369.9769757,1.2895214557647705,0.047726872321249315,-0.07863535820430871,-15.609086896809615,0.12589912209552023,-0.1527556150664011,-8.489474898142399,-0.010720204430105618,-0.01843073500671079,0.0014885128653949569,0.65,-0.017599222721188145,0.023410579306447334,0.09575637957948371,0.6138712055011915,-0.6873814252621753,13.671503762146305,stabilize,85.0,10.0,0.0,0.0,-10.0,23.689436916947724,0.06919296223060245
1760988370.0846086,1.3971543312072754,0.06236888654711233,-0.09658836214751143,-16.552318086603712,0.14525945290829478,-0.18460326493093607,-9.118986921669624,-0.015736683209236962,-0.014979809426027143,0.0030751500328646056,0.65,-0.002331796536252507,0.0022437386649670067,-0.083790377238579,0.6197563580833078,-0.7034838218830761,15.794462161529621,stabilize,85.0,10.0,0.0,0.0,-10.0,25.81149483531745,0.03442184208586629
1760988370.1900342,1.502579927444458,0.07911456166591907,-0.11743627821687878,-17.550711289209772,0.1651179747249914,-0.21295901717637628,-9.726099065674406,-0.023830917022388234,-0.002624131375037699,-0.0017171042468956033,0.65,0.008151252597048405,-0.030022171721669173,-0.15,0.364459844267145,-0.04717581383341328,16.08051746965653,stabilize,85.0,10.0,0.0,0.0,-10.0,26.08310656383847,0.13583423232193173
1760988370.2978635,1.6104092597961426,0.09794127398032061,-0.14217455727269815,-18.63204386189948,0.18793285416727354,-0.24397409748831272,-10.327481704879894,-0.021114172694857703,-0.010445033354628534,-0.013732664543560312,0.65,-0.003226693874645779,0.0008848279647841857,0.15,0.37923026699186047,-0.06851600988213723,17.373807638630627,stabilize,85.0,10.0,0.0,0.0,-10.0,27.37652013451975,0.05672019777207715
1760988370.4046614,1.7172071933746338,0.11859613039189243,-0.17017662423878557,-19.765968474631514,0.2045037534929,-0.27621542422120876,-10.90444071544545,-0.010419911882123536,-0.0211927265636966,-0.019641617405862444,0.65,-0.01201327439938965,0.01837396860666275,0.09402430333109696,0.39452793103134914,-0.09099018837987104,18.594488746546933,stabilize,85.0,10.0,0.0,0.0,-10.0,28.597355090622358,0.039241142567582314
1760988370.5115004,1.8240461349487305,0.14144438791184413,-0.2008251847591486,-20.96108448915358,0.21578735382955344,-0.3029208355299801,-11.464872675887452,-0.022122854650336914,-0.005663428720864918,-0.017169891279539832,0.65,0.019121620010009076,-0.015735028385784406,0.005070423419804369,0.41073764712365723,-0.11433453039208223,19.844927853935413,stabilize,85.0,10.0,0.0,0.0,-10.0,29.847973070314413,0.029651849269188433
1760988370.619036,1.931581735610962,0.16541624214918102,-0.2346832482714011,-22.223438172056028,0.22340592318551517,-0.3281877810152955,-12.010065862076265,-0.02323109692523983,0.009390172952387256,-0.005030867499854794,0.65,0.029045250766636686,-0.030497885626526056,0.06560897376383563,-1.3030426695852828,0.7441667327116304,18.147259995284397,stabilize,85.0,10.0,0.0,0.0,-10.0,28.18723025710352,0.06045619619403393
1760988370.7266304,2.0391762256622314,0.18924015792267798,-0.2709546559841581,-23.544240054020097,0.22771740301204826,-0.3418668435059601,-12.538538829136886,-0.01709904387155009,-0.0068352243823316585,0.012319383403402877,0.65,-0.0075929997189313455,0.0184566367527491,-0.15,-0.07524329302624505,1.2884360630553873,17.79957332421999,stabilize,85.0,10.0,0.0,0.0,-10.0,27.82951681309632,0.07979307825746128
1760988370.834952,2.1474978923797607,0.21364820940754983,-0.3098261497619693,-24.923797831510537,0.2320050421724026,-0.37387401690293276,-13.048935909770302,-0.008625319087753283,-0.021318887824011677,0.02608866278104278,0.65,-0.03511207868747329,0.04252180448702465,-0.09975375406137241,-0.05436300641067866,1.2510099946074005,22.862639519824285,stabilize,85.0,10.0,0.0,0.0,-10.0,32.88648746146342,0.040781029822978855
1760988370.9444962,2.2570419311523438,0.23965600237444076,-0.35213895363239023,-26.373103563350636,0.23777875644522836,-0.410294721625076,-13.54576064014997,-0.021334596132155083,-0.006535796340346117,0.03286104789498231,0.65,0.010460772335918954,-0.00823001157890938,0.05653863518786212,0.7764133061821319,0.8739417863453489,24.589509933840965,stabilize,85.0,10.0,0.0,0.0,-10.0,34.60925872264848,0.013289218872541276
1760988371.0500143,2.3625600337982178,0.2658811163819609,-0.39666557215087855,-27.842093533811386,0.2473876628444863,-0.43047903350488814,-14.01385993905507,-0.028968951967020453,0.00675634035166807,0.030623332565414555,0.65,0.03353302645071494,-0.03972265635085456,-0.11862210316678093,1.9235273214033406,0.9733651004723726,24.63701862387266,stabilize,85.0,10.0,0.0,0.0,-10.0,34.70404091925758,0.10359224624567813
1760988371.2598991,2.5724449157714844,0.3319419265015555,-0.4782737859625037,-30.872995004505846,0.6347144280028183,-0.0569421868387498,-14.71444963385417,0.6165714925427837,-0.6700268966273247,0.00487320754565098,0.65,0.1520185610843887,-0.15615324833218514,-0.15,1.7803787160760038,0.971825395413512,23.542558770440955,stabilize,85.0,10,0.0,0.0,-10.0,33.60383076139256,0.14505842052289772
1760988371.3671172,2.6796629428863525,0.4477495040943273,-0.4110325835292621,-32.40787752663736,1.5116055001167217,1.3842597767715232,-13.936750654400218,1.012321854534927,-1.138758031802965,-0.01514025219497588,0.65,-0.2,0.2,0.05298422036015393,0.5341497434990382,0.7639753644589896,26.804108796406567,stabilize,85.0,10,0.0,0.0,-10.0,36.8159123016626,0.6449244714636253
1760988371.4744954,2.787041187286377,0.6628156616905057,-0.19605067214230804,-33.88174954452705,2.4287941047415638,2.3785110216900827,-13.630513624051577,0.20955631158876967,-0.35957007869537233,-0.026735810330855442,0.65,0.2,-0.2,-0.08657633129555833,0.375578755636576,-0.30333653124151194,29.549601402324804,stabilize,85.0,10,0.0,0.0,-10.0,39.55254787666204,0.4619465032034387
1760988371.582866,2.895411729812622,0.9519015558672239,0.07383195032805817,-35.380653439990816,2.948860208339847,2.6665486681032062,-13.99459996054788,0.4332938670066706,-0.5346908883002836,-0.029191715677206933,0.65,0.2,-0.2,-0.1333157707300516,1.7070984428694125,-0.14484115541792875,28.857178270261453,stabilize,85.0,10,0.0,0.0,-10.0,38.89492855348663,0.2852760734447638
1760988371.685002,2.9975478649139404,1.2944846523666544,0.39855474434341986,-36.78285384647584,3.7628139563178986,3.8547213598886083,-13.431138340650392,1.076477488888768,-1.0973092525314372,-0.02402360183555946,0.65,-0.2,0.2,0.15,1.9342910382482286,0.05051407589326352,33.29264040892348,stabilize,85.0,10,0.0,0.0,-10.0,43.3358598284246,0.66803814362471
1760988371.7926178,3.10516357421875,1.7428473788131444,0.8901262666666561,-38.19723461218366,4.512412563681267,5.080032514922409,-12.951294662503068,0.3930490512576262,-0.3773178482881994,-0.005280210209352415,0.65,0.2,-0.2,-0.1168457840292739,1.9923565185403709,0.2645786956297806,32.71110001546537,stabilize,85.0,10,0.0,0.0,-10.0,42.75836235070559,0.2857048237409342
1760988371.9024732,3.2150189876556396,2.2576948641559786,1.4646467785978237,-39.64215345502223,4.861079563213184,5.3398631263642695,-13.360345705615138,0.2624960867582434,-0.37820623495031097,0.012607948350814838,0.65,0.2,-0.2,-0.15,2.564229884200717,0.947864662072462,36.85389213717663,stabilize,85.0,10,0.0,0.0,-10.0,46.93357999043772,0.48124828553612575
1760988372.0120838,3.324629545211792,2.833954081082207,2.096645978036309,-41.097146477753085,5.661334091329186,6.393737600805408,-12.952432598502025,1.030889033513317,-1.107396832681361,0.02830349209890631,0.65,-0.2,0.2,-0.1367050501239025,2.8370013849476217,2.3451306614228073,32.407161151552685,stabilize,85.0,10,0.0,0.0,-10.0,42.56660112824489,0.6217236148816558
1760988372.120777,3.4333226680755615,3.485931292457559,2.868118992837241,-42.46118694635169,6.340415907770082,7.692356865701986,-12.313410344124197,0.5287406760380157,-0.5092004813429967,0.03622946073440742,0.65,0.05733728341216927,-0.2,0.03646746690412143,3.065993053568966,3.12038124393843,38.385973539394875,stabilize,85.0,10,0.0,0.0,-10.0,48.58332561555535,0.10763904238462987
1760988372.2270854,3.5396311283111572,4.179867722817445,3.7064237271280254,-43.78610337782712,6.673599651268037,7.98724981397779,-12.653313918190166,0.22190491266935256,-0.31913680349007423,0.043563860825201924,0.65,0.2,-0.2,-0.028126990325322752,4.080568513485745,3.644830335453021,39.00700459272345,stabilize,85.0,10,0.0,0.0,-10.0,49.31148270655332,0.5389630703818389
1760988372.335286,3.647831678390503,4.9367705810601805,4.60640501560743,-45.15335934922922,7.358735859285162,8.860917065183815,-12.379518451824218,0.9833918086611181,-1.090022853186408,0.061034022660074815,0.65,-0.2,0.2,-0.15,4.549207662766645,4.323781863222494,43.40402509561816,stabilize,85.0,10,0.0,0.0,-10.0,53.77155638786291,0.559890492309987
1760988372.4454741,3.7580199241638184,5.781008843881344,5.659141199046114,-46.4694312692319,7.979386250608406,10.166826100435143,-11.633821375253518,0.6071689242411977,-0.6362373359455005,0.07453976254461261,0.65,-0.2,0.06309149371291659,0.13115783447667145,4.975473757276003,5.069824601673256,45.027253139390545,stabilize,85.0,10,0.0,0.0,-10.0,55.483844934067434,0.07051809605259747
1760988372.552921,3.865466833114624,6.659362562972037,6.772777908766012,-47.73126838624901,8.300346883269379,10.428561165180353,-11.927561445799434,0.16704655783835537,-0.28167048549898155,0.08576232069062534,0.65,0.2,-0.2,-0.046153919090637006,5.3531144825480546,5.825381793940309,46.53507616990034,stabilize,85.0,10,0.0,0.0,-10.0,57.085950506625274,0.6041930550986883
1760988372.6529355,3.9654812812805176,7.51226146912226,7.835222038372583,-48.929615386500565,8.824294581302562,11.015475005539498,-11.83901726865447,0.890456704290555,-1.0166216924302178,0.09533582982881675,0.65,-0.2,0.2,-0.13055423094505314,5.670259648552728,6.483648333798131,47.78685273796441,stabilize,85.0,10,0.0,0.0,-10.0,58.425250444970736,0.42494051776501385
1760988372.7626176,4.0751633644104,8.507431311412342,9.116685471087122,-50.17851076225394,9.314206404080409,12.331579737379712,-10.974932372131597,0.820660110366117,-0.8330967687343903,0.10328196465726415,0.65,-0.2,0.2,-0.15,8.02849942752534,8.407587263362025,47.64742048476472,stabilize,85.0,10,0.0,0.0,-10.0,58.80790265938833,0.36944386632545745
1760988372.8704448,4.182990550994873,9.532673193942612,10.479516067615949,-51.36104779660629,9.608011718745523,12.736874814301938,-11.11432716683956,0.1483462955704867,-0.21450165054483902,0.10867694045464471,0.65,0.2,-0.2,-0.1439108148063265,9.485871973987281,10.431867215179786,45.267047548426305,stabilize,85.0,10,0.0,0.0,-10.0,57.037287500564354,0.6492226263536818
1760988372.976407,4.288952827453613,10.564655316911317,11.838130592376588,-52.55252457165283,9.975468466456073,13.100762789924854,-11.207687927096337,0.789323462727693,-0.9062743320249643,0.11666009928389025,0.65,-0.2,0.2,-0.04522864890813476,10.20633591437045,11.545617715498107,50.51485040833092,stabilize,85.0,10,0.0,0.0,-10.0,62.446118383547756,0.25379623590105865
1760988373.0834646,4.396010398864746,11.655093048794317,13.305189368111725,-53.707243901787535,10.359688888296946,14.325645693253495,-10.333684837483903,0.9575133353263346,-0.9814883231635404,0.12117191738970214,0.65,-0.2,0.2,-0.15,11.60406943224689,11.949365539503969,43.92527918126592,stabilize,85.0,10,0.0,0.0,-10.0,56.43914863782553,0.5498717589593909
1760988373.1923747,4.504920482635498,12.803860392002633,14.90849093538294,-54.81743379584697,10.660088847328767,14.873991268693501,-10.274845158763911,0.16863978895333528,-0.22318653110241984,0.11917316996130976,0.65,0.2,-0.2,-0.15,12.23361270853925,13.482129383838615,51.64954194126776,stabilize,85.0,10,0.0,0.0,-10.0,64.2813745512122,0.6466091992349163
1760988373.3000963,4.612642049789429,13.958672858782672,16.50797025571143,-55.94338256989606,10.886167650496562,14.957110348176412,-10.5307166637035,0.5939414241898319,-0.7438759728241408,0.11301202036760681,0.65,0.1832522586097639,0.06615580330173391,-0.15,13.078973294238507,15.406638055195584,53.78822889532476,stabilize,85.0,10,0.0,0.0,-10.0,66.91309426560356,0.17770677636244744
1760988373.406281,4.718826770782471,15.139072835160864,18.148724136452174,-57.02511014226447,11.28879334073622,16.015764525637362,-9.738031234470508,1.0277064807695981,-1.0865691303538147,0.10586663891658525,0.65,-0.2,0.2,-0.15,13.947120908435092,16.77735832548068,55.85438361808119,stabilize,85.0,10,0.0,0.0,-10.0,69.37435964197063,0.6398880290258852
1760988373.514645,4.82719087600708,16.376578983555646,19.92367501474139,-58.046741662995366,11.620161922661014,16.68089396336826,-9.451180172286376,0.2497376280240115,-0.2862546208851721,0.09679774770000879,0.65,0.2,-0.2,0.15,14.908501527890097,18.25744176897952,55.05775327676515,stabilize,85.0,10,0.0,0.0,-10.0,69.19616217085472,0.4856417885784286
1760988373.6213126,4.933858394622803,17.623433933799088,21.70312401143212,-59.08026791480053,11.70227246873516,16.57842309516811,-9.79849689430737,0.4160564332159931,-0.5188470005063985,0.08804171156067746,0.65,0.2,-0.2,-0.15,16.51804550825995,21.152320363057918,51.84421587876253,stabilize,85.0,10,0.0,0.0,-10.0,67.41641878513991,0.32984266504152904
1760988373.7310207,5.043566465377808,18.932833721805846,23.562107208966488,-60.13052141915246,12.131222245232816,17.44385933481705,-9.161607050086397,1.0463998595411765,-1.1163546445822845,0.0702835702386062,0.65,-0.2,0.2,-0.15,17.579327523574644,22.79398809761405,58.193991437826924,stabilize,85.0,10,0.0,0.0,-10.0,74.02039663361506,0.6615406852375622
1760988373.8388343,5.1513800621032715,20.261289889457135,25.490635839541703,-61.08069063111807,12.50810571551094,18.15286440741628,-8.68859709749296,0.34462664641849505,-0.3844789914853609,0.05003277258298188,0.65,0.2,-0.2,-0.03015830972721513,18.683695590103618,23.964422043301198,56.10970109328324,stabilize,85.0,10,0.0,0.0,-10.0,72.75896222058401,0.3226176934615968
1760988373.946329,5.258874893188477,21.60610898717256,27.429854846355482,-62.03510177603132,12.50890819390346,17.910887151100024,-9.072795995547107,0.2862951645511957,-0.3588972794291032,0.0394027904300643,0.65,0.2,-0.2,0.050588374941147866,19.751718458247993,25.674828135709827,60.412900398161895,stabilize,85.0,10,0.0,0.0,-10.0,77.50679792336669,0.48467114713668247
1760988374.0527554,5.365301132202148,22.95803265004056,29.357154111866098,-62.99118133439411,12.909786960142089,18.49354692012384,-8.659917777812256,1.0582908716467132,-1.1244462116528322,0.02776460374821177,0.65,-0.2,0.2,0.09767202061742832,21.405092381525204,28.379656085920107,54.210488638115194,stabilize,85.0,10,0.0,0.0,-10.0,73.39325384912603,0.6389325596755626
1760988374.1643727,5.476918458938599,24.408543539413856,31.458085538990392,-63.902180718565525,13.295906048025172,19.2964566609111,-7.958569688623427,0.4928358283584095,-0.5413297868998435,0.028742732706371666,0.65,0.11210464729598879,-0.2,0.15,22.55261385701373,30.24598051178756,61.71615978211516,stabilize,85.0,10,0.0,0.0,-10.0,81.03485239572461,0.11451749179072435
1760988374.273139,5.585684776306152,25.868291783573934,33.559696219954525,-64.79249114786235,13.279915333913687,18.956785857999975,-8.343875080912161,0.12312259847370408,-0.24778171946143246,0.04129006162107445,0.65,0.2,-0.2,-0.15,24.59824397727483,33.20491026438941,56.29175139050694,stabilize,85.0,10,0.0,0.0,-10.0,78.11680980974882,0.671935971884148
1760988374.381211,5.693756818771362,27.31770624666758,35.60793298672886,-65.70016777281846,13.626810055548296,19.188988860588985,-8.211006741092485,0.958678783467572,-1.077266808291847,0.043534712169338845,0.65,-0.2,0.2,0.02214048657846709,25.692278365717907,35.28163703665549,61.03313515920278,stabilize,85.0,10,0.0,0.0,-10.0,83.37021872439466,0.5139132129084416
1760988374.4885135,5.801059246063232,28.79477027223312,37.71567541965516,-66.5316337932316,13.90901400368853,20.066281655429954,-7.343176936824961,0.8269559269639885,-0.8417414873919602,0.04290003569420424,0.65,-0.2,0.2,-0.15,27.7292554755442,37.682064978613354,62.733581539574196,stabilize,85.0,10,0.0,0.0,-10.0,86.48134778005212,0.3813656167416749
1760988374.5960224,5.9085681438446045,30.292923024367276,39.871785256102505,-67.31842007502532,13.977499132912888,20.024155895449436,-7.52260049973376,0.12196404268181044,-0.17685402221416463,0.03610360783020551,0.65,0.2,-0.2,0.15,29.037881744372765,40.15031691168359,58.84129064850608,stabilize,85.0,10,0.0,0.0,-10.0,84.8196311148598,0.6871143953296722
1760988374.70444,6.016985893249512,31.815224055231912,42.03660111377487,-68.15639784906304,14.111977984022719,19.924555271900903,-7.700099895166457,0.7821038069317758,-0.8834303909621035,0.03512756303635887,0.65,-0.2,0.2,0.13009616367849805,30.315514790063784,42.10568730623031,66.36638449066523,stabilize,85.0,10,0.0,0.0,-10.0,92.32412480328603,0.22086985547236873
1760988374.813019,6.125564813613892,33.35620568811445,44.23331967102885,-68.94434019989299,14.36455584305519,20.76058424725416,-6.8379523359362935,1.0109615370379876,-1.015426832938425,0.036644260964299784,0.65,-0.2,0.2,0.14344022161772532,31.824935138815118,43.4990365942256,67.54090344194228,stabilize,85.0,10,0.0,0.0,-10.0,94.43296240089147,0.57462982922465
1760988374.9200873,6.232633113861084,34.91349280308194,46.491072550700125,-69.66298837315838,14.501454180821828,20.98383896734717,-6.758961410292031,0.19819300927829694,-0.20933487354702637,0.034512822263437305,0.65,0.2,-0.2,0.10544240883657931,33.00746805281444,45.45445356862725,68.76450451427156,stabilize,85.0,10,0.0,0.0,-10.0,96.74423738837761,0.5819914868156392
1760988375.0280879,6.3406336307525635,36.4712378918513,48.73375030314345,-70.41659295960098,14.44914451589063,20.65184486225713,-7.12545592118818,0.5314336525365735,-0.6332154471276936,0.034509371106641755,0.65,0.2,-0.2,-0.08792667186832198,35.301254918086464,47.77370241573736,61.997989000234924,stabilize,85.0,10,0.0,0.0,-10.0,93.3392503793399,0.16719925470996855
1760988375.1351357,6.447681427001953,38.03601646405563,50.975164371302476,-71.14951470834579,14.730980126167625,21.32571663380138,-6.421878389357587,1.0805286589286955,-1.1378265267850711,0.036908946335805354,0.65,-0.2,0.2,0.08693426720895896,36.61219342294179,49.80297818730331,69.47265567125241,stabilize,85.0,10,0.0,0.0,-10.0,100.68114194329223,0.688072279494729
1760988375.2359529,6.548498630523682,39.53236352997263,53.1557459217338,-71.76596591523442,14.950660239438346,21.771776654204093,-6.017186640024674,0.3642839057070555,-0.40035831688829254,0.03894811497058651,0.65,0.2,-0.2,-0.06724375325411784,38.157655629377835,52.146522769722,64.63838812433346,stabilize,85.0,10,0.0,0.0,-10.0,98.7226189983935,0.29370105708377564
1760988375.3456748,6.658220529556274,41.164397211976855,55.51853312695151,-72.45096617919555,14.787043699681124,21.26700547057479,-6.479532347614036,0.24761693215051128,-0.3417361298448952,0.0458765461945453,0.65,0.2,-0.2,-0.05338540790723882,39.51816205780427,54.291717158279745,70.8806396326321,stabilize,85.0,10,0.0,0.0,-10.0,105.12351569370777,0.5230865219885202
1760988375.454336,6.766881704330444,42.77675364541058,57.82717469953883,-73.14705026980857,15.0382238247769,21.63421843308682,-6.146505547626978,1.0682225982759612,-1.1270770891101873,0.05434745891721981,0.65,-0.2,0.2,-0.08130734668489682,40.78485725155329,56.30409692213305,72.54912194722071,stabilize,85.0,10,0.0,0.0,-10.0,107.92549951472843,0.6482007843636048
1760988375.560947,6.87349271774292,44.386066674086436,60.17469728138694,-73.75715176240537,15.18295286014331,22.32762522916172,-5.427873282918781,0.6628200413275074,-0.6415803827840195,0.055843849570391055,0.65,-0.2,0.15569238220015677,0.12957125671080452,44.298420586732405,59.610802653300574,62.5787931052547,stabilize,85.0,10,0.0,0.0,-10.0,103.84353166213654,0.12039828608911089
1760988375.666974,6.979519844055176,45.992935808067486,62.531432942117426,-74.34802185679604,15.028803655866144,21.963947539114855,-5.807874010445662,0.10217862383250177,-0.16100696371682055,0.061406388791980605,0.65,0.2,-0.2,0.047821817177429046,45.28188986133693,61.92230128496975,68.85783703454837,stabilize,85.0,10,0.0,0.0,-10.0,110.01535987128435,0.7221112877747085
1760988375.7694914,7.0820372104644775,47.538701266028376,64.77649825961902,-74.9636028528378,15.105067977840422,21.831156102700433,-5.96509990709465,0.8303481704798229,-0.9292153276472559,0.06198492253516747,0.65,-0.2,0.2,-0.11734681350719417,46.95528620135072,63.08610237604061,68.2882985624566,stabilize,85.0,10,0.0,0.0,-10.0,110.9671704021301,0.309451556451516
1760988375.8771434,7.1896891593933105,49.173129276769,67.16633131294317,-75.56151612288292,15.222594654144636,22.589288334016743,-5.10886914429162,1.0235154105964077,-1.034035578026165,0.05635415115462272,0.65,-0.2,0.2,0.0688065730126332,48.34616010268693,65.24185986137714,74.1074372090481,stabilize,85.0,10,0.0,0.0,-10.0,116.90984761225283,0.6036934995551123
1760988375.9845412,7.297086954116821,50.81510086977224,69.61076875088948,-76.09591661534627,15.267409123008996,22.690007155811518,-5.088314706711993,0.16554959400745148,-0.179143314337177,0.05321648925398706,0.65,0.2,-0.2,-0.15,49.886358346713344,68.45049103760977,71.6574923717997,stabilize,85.0,10,0.0,0.0,-10.0,117.65230355941662,0.6389388268783714
1760988376.091663,7.404208660125732,52.43409208616786,72.00724960803478,-76.66908355650804,15.04814228626069,22.136018268666238,-5.569068985409499,0.41216599768576034,-0.5050100823740096,0.042382524103552005,0.65,0.2,-0.2,0.05853846755098841,51.212835781881765,70.55985922842817,75.5178079666971,stabilize,85.0,10,0.0,0.0,-10.0,122.12593402953556,0.3221642483992372
1760988376.198432,7.510977745056152,54.05555344765106,74.39077330632021,-77.24377140139951,15.27479346887821,22.65717654118691,-4.991791097270781,1.1363352265967548,-1.2078009120646407,0.036760814063071884,0.65,-0.2,0.2,-0.039482387299377406,52.42291605684546,73.52286858165412,69.30592278302551,stabilize,85.0,10,0.0,0.0,-10.0,120.17988068243974,0.7625446618654546
1760988376.3017228,7.61426854133606,55.63985070900943,76.76482661109713,-77.71932497365417,15.444475730775432,23.190828287782907,-4.392783481836233,0.5200531741373603,-0.5576502630632353,0.0334707896471612,0.65,0.037838460660912995,-0.14733196350578903,-0.020852307977103624,55.2908438269354,75.85620879358763,69.95820480060056,stabilize,85.0,10,0.0,0.0,-10.0,123.30675706775239,0.06820899433084929
1760988376.4091496,7.721695423126221,57.29255314943911,79.23180698401725,-78.21414221645185,15.233614517552303,22.61699791461034,-4.8769187628482085,0.09885439271163074,-0.17368024115109842,0.030445152270775003,0.65,0.2,-0.2,0.15,56.761201859261725,78.58593081921421,73.29303800794415,stabilize,85.0,10,0.0,0.0,-10.0,127.8096738898234,0.713210108148839
1760988376.5161538,7.828699588775635,58.923189916322194,81.63593961159854,-78.75156518892807,15.35652801060199,22.56654987916465,-4.937285013489969,0.9546886347641954,-1.0145859892757616,0.034684188804729364,0.65,-0.2,0.2,0.0914787833368734,59.034105162549324,81.35505244064117,76.37472762287032,stabilize,85.0,10,0.0,0.0,-10.0,132.53023693439715,0.4711233968852689
1760988376.6235492,7.9360949993133545,60.57809252354868,84.09817383451697,-79.23714223872206,15.45340446808178,23.275492375346833,-4.134275240006422,0.9207896729546392,-0.88102132734084,0.046845074551491866,0.65,-0.2,0.2,-0.11471656441012522,60.61110788292806,83.67955180270425,73.04737914803192,stabilize,85.0,10,0.0,0.0,-10.0,132.56259265740985,0.4662994105724096
1760988376.7298243,8.042370080947876,62.22231192752672,86.57672624392146,-79.67769812122059,15.369877048193324,23.131363640145146,-4.349132319618814,0.0987341937116971,-0.11590103183485999,0.05629307900186616,0.65,0.2,-0.2,0.15,61.96231528887925,85.91471751116948,78.70081855523559,stabilize,85.0,10,0.0,0.0,-10.0,138.1611465403764,0.7067882969018515
1760988376.8381357,8.150681495666504,63.863731011999555,89.03520700382884,-80.1754434918578,15.221316307580436,22.630282660009417,-4.792252215684178,0.5663637588314714,-0.6956704042209917,0.06631711271641687,0.65,0.2,-0.0074684369630687,0.15,63.24988556457574,88.05241465500553,80.17838836519735,stabilize,85.0,10,0.0,0.0,-10.0,141.01743678940318,0.150532852515171
1760988376.94611,8.258655786514282,65.52736699423171,91.51894382785741,-80.66521953310901,15.379630252307082,23.252347162964497,-4.109932353124115,1.0820399466038422,-1.1203245380462157,0.08338899830707336,0.65,-0.2,0.2,-0.15,63.50156303732268,91.43163931625818,78.62270375731954,stabilize,85.0,10,0.0,0.0,-10.0,142.28906070917404,0.7200342084294229
1760988377.054592,8.367137670516968,67.20047718760267,94.06978435622308,-81.08421584433582,15.44194695777433,23.570574459168455,-3.8686920227913553,0.27798898207681083,-0.2875524035629521,0.09215047172453907,0.65,0.2,-0.2,-0.1445537669631219,64.85423199095978,94.31716273325107,72.00876045364572,stabilize,85.0,10,0.0,0.0,-10.0,140.80921626204457,0.43386894869251463
1760988377.164057,8.476602792739868,68.86570261775951,96.60201668571054,-81.53663621001273,15.154202739029083,22.91946240718219,-4.428333310694321,0.26149958911707083,-0.3645930950387762,0.09707291526843155,0.65,0.2,-0.2,0.15,66.25865572959258,96.61441262369398,80.15211656652589,stabilize,85.0,10,0.0,0.0,-10.0,147.8240789152381,0.4849796994581579
1760988377.271367,8.58391284942627,70.50913630082778,99.08128690225558,-82.00976304071068,15.310241390864784,23.271690971757593,-4.103650793014585,1.0923417350540172,-1.1487385949596678,0.10851087521204585,0.65,-0.2,0.2,-0.15,67.27520441372842,97.85610139989255,78.99618733742987,stabilize,85.0,10,0.0,0.0,-10.0,148.39842004109718,0.7134480567699699
1760988377.3801172,8.692662954330444,72.17249858537436,101.65172545445809,-82.41278574224722,15.315582089141976,23.914585530580894,-3.456648588292608,0.6394250474760943,-0.5909967893783875,0.11271163984160232,0.65,-0.2,0.05999344323599931,-0.15,70.23466209207277,100.31288343746341,73.1075002894962,stabilize,85.0,10,0.0,0.0,-10.0,147.99472607864908,0.18195898529696325
1760988377.4878495,8.800395250320435,73.7974220416179,104.18673550850552,-82.8032160841474,15.047236670083308,23.422596031088503,-3.9406446807767326,0.07611463615511686,-0.12831275658891694,0.10842133989311085,0.65,0.2,-0.2,-0.15,72.41798209945931,102.91448732166033,78.87017605744649,stabilize,85.0,10,0.0,0.0,-10.0,154.05734005401797,0.750964024996103
1760988377.5948195,8.907365322113037,75.41619010855379,106.69186809040586,-83.25136151857723,15.070984309716536,23.222393855438714,-4.160234531397853,0.8493692904065003,-0.9551936233339038,0.10047564717959417,0.65,-0.2,0.2,-0.019115536119490212,73.79449030799508,105.15538516790878,82.31848306115837,stabilize,85.0,10,0.0,0.0,-10.0,158.19603074774477,0.3622958996614456
1760988377.703034,9.01557970046997,77.05213506222235,109.24184766820738,-83.66052027954164,15.140304980503448,23.914249419126723,-3.3884198274910435,0.9618272647507488,-0.985489107518006,0.09345014779453462,0.65,-0.2,0.2,-0.00354149929810315,75.09603612087398,107.35935608853637,83.1659100125348,stabilize,85.0,10,0.0,0.0,-10.0,160.764836855814,0.555784496681154
1760988377.8101192,9.12266492843628,78.67820196565839,111.81317685562868,-84.01804699228512,15.137065589733645,23.86540786085354,-3.512853236588845,0.13612775597791066,-0.17182706562294828,0.07590508597659039,0.65,0.2,-0.2,-0.15,76.29320645545283,109.51915988543166,83.87951394312456,stabilize,85.0,10,0.0,0.0,-10.0,163.1822995041509,0.6567161599526109
1760988377.9188824,9.231428146362305,80.30893189999975,114.37082627177057,-84.43052425392446,14.94537073575957,23.274074344678063,-3.9609914807660656,0.5120920857698418,-0.6212239711923693,0.05565925139654921,0.65,0.2,-0.2,-0.15,79.48715549649927,114.77204720800732,66.98497658789408,stabilize,85.0,10,0.0,0.0,-10.0,159.4287217833735,0.23156936184303561
1760988378.0257778,9.338323593139648,81.92106047213822,116.88072838192265,-84.83115379579667,15.1704043518101,23.786262460979284,-3.390254795290794,1.0554580774269362,-1.1170059460726278,0.043081913731181636,0.65,-0.2,0.2,-0.13884831884094312,80.73273439059464,115.88225918920435,76.55572856587033,stabilize,85.0,10,0.0,0.0,-10.0,165.64530341831264,0.6753481956601896
1760988378.1345117,9.447057485580444,83.5733402906584,119.47873220001775,-85.17245043922293,15.341664470703549,24.030997732444337,-3.1601795943783872,0.2938407742772328,-0.3336605521952805,0.03431941593638458,0.65,0.2,-0.2,-0.15,82.327136823971,118.54142675536114,79.44305569598102,stabilize,85.0,10,0.0,0.0,-10.0,169.79366162216968,0.43147962153826636
1760988378.2419932,9.55453896522522,85.21863327406801,122.04020033551143,-85.54408450134495,15.153572855575437,23.4264664841435,-3.7080440949061066,0.3400591488034147,-0.41792504761686816,0.0317519545494717,0.65,0.2,-0.2,0.15,84.5245201658797,121.20958209820887,81.14175072914409,stabilize,85.0,10,0.0,0.0,-10.0,173.6173264039856,0.4106775875105705
1760988378.3428636,9.655409336090088,86.75087044672196,124.39828514099615,-85.91145395317587,15.371759371398918,23.720034473113788,-3.41529988165526,1.0547709240712182,-1.092977191788413,0.035545153490956875,0.65,-0.2,0.2,-0.08449177259642207,87.80213533830693,122.30981722542776,80.67385307379307,stabilize,85.0,10,0.0,0.0,-10.0,175.75737250804508,0.6349502982316871
1760988378.4504602,9.76300597190857,88.41980227655533,126.99387900588398,-86.24547077617991,15.518992973455479,24.185279898859513,-2.937531770709567,0.5104720073386987,-0.4939286747762201,0.04259038891618108,0.65,0.10144969588629316,-0.2,0.01111502193095467,89.20444352489758,124.69550575470558,85.40136321427212,stabilize,85.0,10,0.0,0.0,-10.0,180.57636058784087,0.10408702875502993
1760988378.556534,9.869079828262329,90.05701339549807,129.5339632132449,-86.58287475985377,15.293689309220191,23.604792074698427,-3.468918848279008,0.1406186203857002,-0.22957020548055979,0.051012950278593365,0.65,0.2,-0.2,0.010587494714549856,90.51102033972097,126.97733555069757,86.10241400291133,stabilize,85.0,10,0.0,0.0,-10.0,183.16976421800294,0.6347564072489437
1760988378.6652303,9.977776050567627,91.71603529924798,132.07360031609525,-86.97244920174926,15.459506142548562,23.584482474709297,-3.4906284174727316,0.9595161669357909,-1.0634896019717386,0.06366847671356311,0.65,-0.2,0.2,-0.15,91.7623991520418,129.1715288593738,86.68054475449419,stabilize,85.0,10,0.0,0.0,-10.0,185.61451855938543,0.538033388705124
1760988378.772393,10.084938764572144,93.37766520489535,134.63537172706575,-87.30596034692282,15.560836257210969,24.202989374485764,-2.792884826175083,0.819118722401602,-0.8248407657608483,0.07186717276876403,0.65,-0.2,0.2,-0.15,92.8412495648794,133.10284566390672,83.65716547167067,stabilize,85.0,10,0.0,0.0,-10.0,187.37003439393902,0.4044727407130589
1760988378.879973,10.192518711090088,95.05217218133112,137.23423812639732,-87.61685494226336,15.45237653011225,23.888986328123178,-3.1428854694333763,0.09848803644565102,-0.1562124951934706,0.07087699345406251,0.65,0.2,-0.2,-0.01659446513014334,94.17456270110672,135.4325972797228,86.69759891872259,stabilize,85.0,10,0.0,0.0,-10.0,191.20999529972906,0.6771607432519043
1760988378.9884746,10.301020383834839,96.72748772599833,139.80669289883323,-87.9874003094582,15.427311751991205,23.513301180791256,-3.5017629434184507,0.7349515927071189,-0.8551921038685856,0.0698681860489461,0.65,-0.2,0.2,0.016469708913596587,95.92855605191396,138.21295291247674,74.45314607651201,stabilize,85.0,10,0.0,0.0,-10.0,188.24835218724328,0.2059110582808427
1760988379.0951803,10.407726049423218,98.38347774013229,142.34532496113724,-88.32832300087884,15.573416620972242,24.102160989300863,-2.8368516174371434,0.9757331866024511,-1.0131851237033305,0.06304180578537587,0.65,-0.2,0.2,0.11106928919292543,97.55465053152663,141.0588823881938,79.2927684490656,stabilize,85.0,10,0.0,0.0,-10.0,193.35903557432485,0.5858961693776581
1760988379.2029364,10.515482187271118,100.06800582571819,144.95405764717128,-88.6257840006344,15.60147895072522,24.080146296429795,-2.9189360484893854,0.15935685441572447,-0.18877177799681286,0.05347229044960393,0.65,0.2,-0.2,-0.024762947570420663,98.98930941306601,143.47111359894194,87.4737227724976,stabilize,85.0,10,0.0,0.0,-10.0,199.70971545352003,0.5884389708676014
1760988379.3121266,10.624672412872314,101.75404634988762,147.54408351457448,-88.97767618971129,15.378381139275735,23.463734006349537,-3.4710399472168936,0.4677003769038081,-0.550900079299782,0.03637667972145017,0.65,0.2,-0.2,0.15,100.36865765132936,145.78891190991376,88.35391010541392,stabilize,85.0,10,0.0,0.0,-10.0,202.48892786429136,0.22407081645848878
1760988379.4204416,10.732987403869629,103.43378510190766,150.1041762863271,-89.33482302968142,15.599116705296332,23.925171180356422,-2.9519131253343516,1.0700097202390222,-1.138296835791025,0.022748245847289808,0.65,-0.2,0.2,-0.013987228183432548,101.66656503725504,147.99346170835443,89.02005728601303,stabilize,85.0,10,0.0,0.0,-10.0,205.04420718426033,0.717661944180776