timestamp,simulation_time,position_x,position_y,position_z,velocity_x,velocity_y,velocity_z,attitude_roll,attitude_pitch,attitude_yaw,control_throttle,control_roll,control_pitch,control_yaw,estimated_position_x,estimated_position_y,estimated_position_z,flight_mode,battery_level,setpoint_altitude,setpoint_position_x,setpoint_position_y,setpoint_position_z,position_error,attitude_error
1761041001.724449,0.10941171646118164,0.0,0.0,-0.0,0.0,0.0,-0.0,0.0,0.0,0.0,0.0,0.0,0.0,0.0,-3.488111380045015e-05,-7.341625212426434e-05,-0.10911093236077646,manual,85.0,0.0,0.0,0.0,0.0,0.10911096263564038,0.0586187058369116
1761041001.8363912,0.22135400772094727,0.0,0.0,-0.0,0.0,0.0,-0.0,0.0,0.0,0.0,0.0,0.0,0.0,0.0,-0.08738360510001834,-0.10272987195894658,0.1753922663259958,manual,85.0,0.0,0.0,0.0,0.0,0.22125046467735734,0.02942454436251986
1761041001.944118,0.32908082008361816,0.0,0.0,-0.0,0.0,0.0,-0.0,0.0,0.0,0.0,0.0,0.0,0.0,0.0,-0.3260479711976776,-0.045595833644265955,0.39919341559111904,manual,85.0,0.0,0.0,0.0,0.0,0.5174375736445326,0.03736285089430541
1761041002.0523164,0.43727922439575195,0.0,0.0,-0.0,0.0,0.0,-0.0,0.0,0.0,0.0,0.0,0.0,0.0,0.0,-0.3266069283457034,-0.04511246745630098,0.22716104744787322,manual,85.0,0.0,0.0,0.0,0.0,0.4003865155584365,0.035005199518510145
1761041002.1595743,0.5445370674133301,0.0,0.0,-0.0,0.0,0.0,-0.0,0.0,0.0,0.0,0.0,0.0,0.0,0.0,-0.3271263016275686,-0.04471734256502488,0.4541085088634261,manual,85.0,0.0,0.0,0.0,0.0,0.5614497268364934,0.0025916120323626413
1761041002.2680995,0.6530623435974121,0.0,0.0,-0.0,0.0,0.0,-0.0,0.0,0.0,0.0,0.0,0.0,0.0,0.0,-0.32765404366796147,-0.04441251876884859,0.6815511720643077,manual,85.0,0.0,0.0,0.0,0.0,0.7575233622124081,0.02114174912356037
1761041002.376544,0.7615067958831787,0.0,0.0,-0.0,0.0,0.0,-0.0,0.0,0.0,0.0,0.0,0.0,0.0,0.0,-0.32808857915206147,-0.04397693122715521,0.8538975452756035,manual,85.0,0.0,0.0,0.0,0.0,0.9158149944600589,0.016823076376839156
1761041002.483762,0.8687248229980469,0.0,0.0,-0.0,0.0,0.0,-0.0,0.0,0.0,0.0,0.0,0.0,0.0,0.0,-0.7350721215150168,0.22857168120781665,0.8519872428716786,manual,85.0,0.0,0.0,0.0,0.0,1.148241394174082,0.02185539902475703
1761041002.5918133,0.976776123046875,0.0,0.0,-0.0,0.0,0.0,-0.0,0.0,0.0,0.0,0.0,0.0,0.0,0.0,-0.8456020613295482,-0.28776273393999807,0.9120084724968018,manual,85.0,0.0,0.0,0.0,0.0,1.2765616675567824,0.03917483824892763
1761041002.6998446,1.0848073959350586,0.0,0.0,-0.0,0.0,0.0,-0.0,0.0,0.0,0.0,0.0,0.0,0.0,0.0,-0.6022429454253023,-0.35975769033112065,1.009288690736635,manual,85.0,0.0,0.0,0.0,0.0,1.2291402777208942,0.02159667448968814
1761041002.8084059,1.193368673324585,0.0,0.0,-0.0,0.0,0.0,-0.0,0.0,0.0,0.0,0.0,0.0,0.0,0.0,-0.3353527620752867,-0.2956749312836934,0.9352256009294301,manual,85.0,0.0,0.0,0.0,0.0,1.0365963846430077,0.037968306150613265
1761041002.9171498,1.3021125793457031,0.0,0.0,-0.0,0.0,0.0,-0.0,0.0,0.0,0.0,0.0,0.0,0.0,0.0,-0.3316405596370794,-0.29578760829922457,0.939863380698251,manual,85.0,0.0,0.0,0.0,0.0,1.0396244246829316,0.011885077276796144
1761041003.0253484,1.410311222076416,0.0,0.0,-0.0,0.0,0.0,-0.0,0.0,0.0,0.0,0.0,0.0,0.0,0.0,-0.32171862359931674,-0.5640714469802499,0.8782893911807726,manual,85.0,0.0,0.0,0.0,0.0,1.0922782267946771,0.04640951201203575
1761041003.1257792,1.510741949081421,0.0,0.0,-0.0,0.0,0.0,-0.0,0.0,0.0,0.0,0.0,0.0,0.0,0.0,-0.3187910217114323,-0.5627976704358406,0.9823172088864797,manual,85.0,0.0,0.0,0.0,0.0,1.1761445626479559,0.04725638142335999
1761041003.2310476,1.6160104274749756,0.0,0.0,-0.0,0.0,0.0,-0.0,0.0,0.0,0.0,0.0,0.0,0.0,0.0,-0.4820621940594914,-0.44232681781607286,1.2662770034297477,manual,85.0,0.0,0.0,0.0,0.0,1.425305027745207,0.015860047634287874
1761041003.331807,1.7167696952819824,0.0,0.0,-0.0,0.0,0.0,-0.0,0.0,0.0,0.0,0.0,0.0,0.0,0.0,-0.24387453000821954,-0.3165020899226767,1.1808876690293433,manual,85.0,0.0,0.0,0.0,0.0,1.246653137876654,0.018797578232874347
1761041003.4408793,1.8258421421051025,0.0,0.0,-0.0,0.0,0.0,-0.0,0.0,0.0,0.0,0.0,0.0,0.0,0.0,-0.10295108834474431,-0.49123482241676675,1.2658739377537143,manual,85.0,0.0,0.0,0.0,0.0,1.3617442504487745,0.05558358153934714
1761041003.5508125,1.9357752799987793,0.0,0.0,-0.0,0.0,0.0,-0.0,0.0,0.0,0.0,0.0,0.0,0.0,0.0,-0.09826891718745628,-0.48970298520743816,1.2697384413897403,manual,85.0,0.0,0.0,0.0,0.0,1.3644418284958573,0.01650682564924153
1761041003.6597924,2.044755220413208,0.0,0.0,-0.0,0.0,0.0,-0.0,0.0,0.0,0.0,0.0,0.0,0.0,0.0,-0.09380637574385861,-0.4881967677151749,1.3438835810424217,manual,85.0,0.0,0.0,0.0,0.0,1.4328847823649833,0.016797016062872802
1761041003.7697728,2.154735565185547,0.0,0.0,-0.0,0.0,0.0,-0.0,0.0,0.0,0.0,0.0,0.0,0.0,0.0,-0.09835605785497026,-0.14475862885904947,1.2665851105898658,manual,85.0,0.0,0.0,0.0,0.0,1.2786191055642273,0.03220948698172739
1761041003.879074,2.2640368938446045,0.0,0.0,-0.0,0.0,0.0,-0.0,0.0,0.0,0.0,0.0,0.0,0.0,0.0,-0.09357373980425784,-0.14427740729099015,1.108377868456043,manual,85.0,0.0,0.0,0.0,0.0,1.1216387628460094,0.034828562683379055
1761041003.9848495,2.369812250137329,0.0,0.0,-0.0,0.0,0.0,-0.0,0.0,0.0,0.0,0.0,0.0,0.0,0.0,0.12186319223076454,-0.14504741867644594,1.1183138127993968,manual,85.0,0.0,0.0,0.0,0.0,1.134246523108313,0.04682014535998858
1761041004.0944197,2.4793825149536133,0.0,0.0,-0.0,0.0,0.0,-0.0,0.0,0.0,0.0,0.0,0.0,0.0,0.0,0.261173565148226,-0.4399058046597901,1.0166950043961513,manual,85.0,0.0,0.0,0.0,0.0,1.1381552969914528,0.03850494122814761
1761041004.2048059,2.589768648147583,0.0,0.0,-0.0,0.0,0.0,-0.0,0.0,0.0,0.0,0.0,0.0,0.0,0.0,-0.10640471177737712,-0.6361326759609345,1.0123766156414684,manual,85.0,0.0,0.0,0.0,0.0,1.2003720906499449,0.053517145316634915
1761041004.3146603,2.6996231079101562,0.0,0.0,-0.0,0.0,0.0,-0.0,0.0,0.0,0.0,0.0,0.0,0.0,0.0,-0.016997400393106456,-0.09628518665606692,0.8087121800485709,manual,85.0,0.0,0.0,0.0,0.0,0.8146012146740449,0.03191111014431531
1761041004.424765,2.809727907180786,0.0,0.0,-0.0,0.0,0.0,-0.0,0.0,0.0,0.0,0.0,0.0,0.0,0.0,-0.03789411109419977,-0.05497185684741741,0.8959997269043747,manual,85.0,0.0,0.0,0.0,0.0,0.8984839338093846,0.03622602171881593
1761041004.534076,2.919038772583008,0.0,0.0,-0.0,0.0,0.0,-0.0,0.0,0.0,0.0,0.0,0.0,0.0,0.0,-0.038320414345097774,-0.050994983659356445,1.0132742869356677,manual,85.0,0.0,0.0,0.0,0.0,1.0152801204982709,0.0407338849120504
1761041004.6424246,3.0273873805999756,0.0,0.0,-0.0,0.0,0.0,-0.0,0.0,0.0,0.0,0.0,0.0,0.0,0.0,-0.4594100833591404,-0.09893078708921291,1.065876267512411,manual,85.0,0.0,0.0,0.0,0.0,1.1648764496599338,0.06661970258623809
1761041004.7517257,3.136688470840454,0.0,0.0,-0.0,0.0,0.0,-0.0,0.0,0.0,0.0,0.0,0.0,0.0,0.0,-0.32057440241083823,0.1498579572856836,1.1485064026939256,manual,85.0,0.0,0.0,0.0,0.0,1.201787132512179,0.04352435804887841
1761041004.8614497,3.246412515640259,0.0,0.0,-0.0,0.0,0.0,-0.0,0.0,0.0,0.0,0.0,0.0,0.0,0.0,-0.3192265405781211,0.15386056734372575,1.2316174762752643,manual,85.0,0.0,0.0,0.0,0.0,1.2815850600952943,0.054431845300363886
1761041004.971231,3.356193780899048,0.0,0.0,-0.0,0.0,0.0,-0.0,0.0,0.0,0.0,0.0,0.0,0.0,0.0,0.16109553579723598,0.21794666172480887,1.1052334225749,manual,85.0,0.0,0.0,0.0,0.0,1.137977784224022,0.08885753163467522
1761041005.0805197,3.465482473373413,0.0,0.0,-0.0,0.0,0.0,-0.0,0.0,0.0,0.0,0.0,0.0,0.0,0.0,-0.1790225471589572,0.2872551575048661,1.0467554422413998,manual,85.0,0.0,0.0,0.0,0.0,1.1001188816516219,0.04322568728987693
1761041005.1892607,3.574223518371582,0.0,0.0,-0.0,0.0,0.0,-0.0,0.0,0.0,0.0,0.0,0.0,0.0,0.0,-0.18163905723108667,0.2895059899947115,1.0380850567703808,manual,85.0,0.0,0.0,0.0,0.0,1.0928984630076943,0.03295979203617012
1761041005.298443,3.683405876159668,0.0,0.0,-0.0,0.0,0.0,-0.0,0.0,0.0,0.0,0.0,0.0,0.0,0.0,-0.5861361390567069,0.18591866694944975,0.9343350710263438,manual,85.0,0.0,0.0,0.0,0.0,1.1185273126653488,0.03732566824173469
1761041005.4066594,3.7916221618652344,0.0,0.0,-0.0,0.0,0.0,-0.0,0.0,0.0,0.0,0.0,0.0,0.0,0.0,0.22589303669330757,-0.42157696763593694,0.7980356734810037,manual,85.0,0.0,0.0,0.0,0.0,0.9303847267748514,0.08244861370792826
1761041005.5151978,3.900160551071167,0.0,0.0,-0.0,0.0,0.0,-0.0,0.0,0.0,0.0,0.0,0.0,0.0,0.0,0.22533996754964594,-0.41787074100325367,0.8762340422346367,manual,85.0,0.0,0.0,0.0,0.0,0.996584243269346,0.11051373981200266
1761041005.624268,4.009230852127075,0.0,0.0,-0.0,0.0,0.0,-0.0,0.0,0.0,0.0,0.0,0.0,0.0,0.0,0.1004498952223532,-0.08130018221955868,0.9013556840136617,manual,85.0,0.0,0.0,0.0,0.0,0.9105723311098637,0.07195208955242628
1761041005.7325897,4.1175525188446045,0.0,0.0,-0.0,0.0,0.0,-0.0,0.0,0.0,0.0,0.0,0.0,0.0,0.0,0.445865605916314,-0.3405975663939912,0.8701430106946212,manual,85.0,0.0,0.0,0.0,0.0,1.0353510032029383,0.06631565112647711
1761041005.841145,4.226107835769653,0.0,0.0,-0.0,0.0,0.0,-0.0,0.0,0.0,0.0,0.0,0.0,0.0,0.0,0.6488437719054205,-0.5539937132916483,0.8719568766457743,manual,85.0,0.0,0.0,0.0,0.0,1.2199246162927349,0.059813081674498544
1761041005.9495502,4.334512948989868,0.0,0.0,-0.0,0.0,0.0,-0.0,0.0,0.0,0.0,0.0,0.0,0.0,0.0,0.8287382174496941,-0.457796516249896,0.8798977050515195,manual,85.0,0.0,0.0,0.0,0.0,1.2925187250895704,0.04486318384600092
1761041006.059708,4.444670915603638,0.0,0.0,-0.0,0.0,0.0,-0.0,0.0,0.0,0.0,0.0,0.0,0.0,0.0,0.1458462433793939,-0.9552584149675728,0.7512672804123528,manual,85.0,0.0,0.0,0.0,0.0,1.2240066554935123,0.03615363139969514
1761041006.1679244,4.552887201309204,0.0,0.0,-0.0,0.0,0.0,-0.0,0.0,0.0,0.0,0.0,0.0,0.0,0.0,0.4846429270010164,-0.9660543237453497,0.9544793103660117,manual,85.0,0.0,0.0,0.0,0.0,1.4419328961626385,0.041512175436976766
1761041006.2768605,4.661823272705078,0.0,0.0,-0.0,0.0,0.0,-0.0,0.0,0.0,0.0,0.0,0.0,0.0,0.0,0.3374138733739636,-1.3244329071614447,0.9733816740348835,manual,85.0,0.0,0.0,0.0,0.0,1.6779280469866071,0.039348964431361814
1761041006.383615,4.768577814102173,0.0,0.0,-0.0,0.0,0.0,-0.0,0.0,0.0,0.0,0.0,0.0,0.0,0.0,-0.22346982256434636,-1.1524114307146422,0.9340103463995806,manual,85.0,0.0,0.0,0.0,0.0,1.5001220598405232,0.036168512038071594
1761041006.4960122,4.880975008010864,0.0,0.0,-0.0,0.0,0.0,-0.0,0.0,0.0,0.0,0.0,0.0,0.0,0.0,-0.37848712162643455,-1.7026460690757432,0.8717553233638162,manual,85.0,0.0,0.0,0.0,0.0,1.949926532356872,0.04161478293115213
1761041006.5954711,4.980433940887451,0.0,0.0,-0.0,0.0,0.0,-0.0,0.0,0.0,0.0,0.0,0.0,0.0,0.0,-0.38155399808375307,-1.7045367740404216,0.9335606990198883,manual,85.0,0.0,0.0,0.0,0.0,1.9805465524103003,0.035614197029997206
1761041006.7057118,5.090674638748169,0.0,0.0,-0.0,0.0,0.0,-0.0,0.0,0.0,0.0,0.0,0.0,0.0,0.0,-0.6149103089489013,-1.9356875460823946,0.8807586900059156,manual,85.0,0.0,0.0,0.0,0.0,2.213760789726625,0.04126691824013571
1761041006.8140206,5.198983430862427,0.0,0.0,-0.0,0.0,0.0,-0.0,0.0,0.0,0.0,0.0,0.0,0.0,0.0,-0.25050130093185874,-1.6947979513260125,0.9191063900844789,manual,85.0,0.0,0.0,0.0,0.0,1.9441830042157875,0.09921244454559738
1761041006.922209,5.307171821594238,0.0,0.0,-0.0,0.0,0.0,-0.0,0.0,0.0,0.0,0.0,0.0,0.0,0.0,-0.2539788844799006,-1.6979650682858973,1.127881708527092,manual,85.0,0.0,0.0,0.0,0.0,2.054192735677638,0.027788785020071642
1761041007.0311952,5.416157960891724,0.0,0.0,-0.0,0.0,0.0,-0.0,0.0,0.0,0.0,0.0,0.0,0.0,0.0,-0.7242695744105192,-0.9586593319927864,0.9957618792497918,manual,85.0,0.0,0.0,0.0,0.0,1.5604921824221765,0.0344065855263108
1761041007.1394875,5.524450302124023,0.0,0.0,-0.0,0.0,0.0,-0.0,0.0,0.0,0.0,0.0,0.0,0.0,0.0,-0.4218575345893876,-0.9246975990235788,0.9307937187034143,manual,85.0,0.0,0.0,0.0,0.0,1.3781895282970111,0.04747588252451172
1761041007.2482874,5.6332502365112305,0.0,0.0,-0.0,0.0,0.0,-0.0,0.0,0.0,0.0,0.0,0.0,0.0,0.0,-0.423162143376312,-0.9256463882457563,0.89559753558582,manual,85.0,0.0,0.0,0.0,0.0,1.3557220885589503,0.03303912874858197
1761041007.3559828,5.74094557762146,0.0,0.0,-0.0,0.0,0.0,-0.0,0.0,0.0,0.0,0.0,0.0,0.0,0.0,-0.8085568259277589,-1.072767939386682,1.043955979726747,manual,85.0,0.0,0.0,0.0,0.0,1.701305169608778,0.04207816924546301
1761041007.4643373,5.849300146102905,0.0,0.0,-0.0,0.0,0.0,-0.0,0.0,0.0,0.0,0.0,0.0,0.0,0.0,-0.6518238683809224,-0.7612970413679253,0.8976770244973491,manual,85.0,0.0,0.0,0.0,0.0,1.3454633331670696,0.031301990499817904
1761041007.5650766,5.950039386749268,0.0,0.0,-0.0,0.0,0.0,-0.0,0.0,0.0,0.0,0.0,0.0,0.0,0.0,-0.6519621230932119,-0.7597724136707713,0.9677356674401206,manual,85.0,0.0,0.0,0.0,0.0,1.392415545934149,0.06462429273100057
1761041007.6746838,6.0596466064453125,0.0,0.0,-0.0,0.0,0.0,-0.0,0.0,0.0,0.0,0.0,0.0,0.0,0.0,-0.5884066914343864,-0.44854137343701755,0.9588250631941678,manual,85.0,0.0,0.0,0.0,0.0,1.2110975600746734,0.040176971136310725
1761041007.784123,6.169085741043091,0.0,0.0,-0.0,0.0,0.0,-0.0,0.0,0.0,0.0,0.0,0.0,0.0,0.0,-0.11046429381733222,-0.8773314953186839,0.7592517470310323,manual,85.0,0.0,0.0,0.0,0.0,1.1654939417501724,0.041416178755119354
1761041007.8938675,6.278830289840698,0.0,0.0,-0.0,0.0,0.0,-0.0,0.0,0.0,0.0,0.0,0.0,0.0,0.0,-0.22176081831756125,-0.8580564897467566,0.7568158406491408,manual,85.0,0.0,0.0,0.0,0.0,1.1654222482837995,0.04541355187780224
1761041008.0017872,6.386749982833862,0.0,0.0,-0.0,0.0,0.0,-0.0,0.0,0.0,0.0,0.0,0.0,0.0,0.0,-0.22195069976989565,-0.8574458680662694,0.7341143596422264,manual,85.0,0.0,0.0,0.0,0.0,1.150390986936694,0.03845454216154569
1761041008.1112916,6.4962544441223145,0.0,0.0,-0.0,0.0,0.0,-0.0,0.0,0.0,0.0,0.0,0.0,0.0,0.0,-0.4211909724512795,-0.7972646886936309,0.984442673124921,manual,85.0,0.0,0.0,0.0,0.0,1.3349757285364954,0.03723980949299271
1761041008.2196062,6.604568958282471,0.0,0.0,-0.0,0.0,0.0,-0.0,0.0,0.0,0.0,0.0,0.0,0.0,0.0,-0.35443721461383126,-0.6231626696576391,1.103490534375558,manual,85.0,0.0,0.0,0.0,0.0,1.3159212785780545,0.03558402172177716
1761041008.3267617,6.711724519729614,0.0,0.0,-0.0,0.0,0.0,-0.0,0.0,0.0,0.0,0.0,0.0,0.0,0.0,-0.7218849920103244,-0.5684507211037934,1.0846817593577662,manual,85.0,0.0,0.0,0.0,0.0,1.4215444710231995,0.04352813801118383
1761041008.4367287,6.821691513061523,0.0,0.0,-0.0,0.0,0.0,-0.0,0.0,0.0,0.0,0.0,0.0,0.0,0.0,-0.7225624583929693,-0.5672127742343289,1.2169902222074918,manual,85.0,0.0,0.0,0.0,0.0,1.5247596658103648,0.04505225918477354
1761041008.550393,6.93535590171814,0.0,0.0,-0.0,0.0,0.0,-0.0,0.0,0.0,0.0,0.0,0.0,0.0,0.0,-1.2491549880753676,-1.0296820986198054,1.0962389826475505,manual,85.0,0.0,0.0,0.0,0.0,1.9550890812256598,0.07991588355058937
1761041008.660252,7.045214891433716,0.0,0.0,-0.0,0.0,0.0,-0.0,0.0,0.0,0.0,0.0,0.0,0.0,0.0,-0.8255924741071001,-0.9950361220777721,1.217102212180333,manual,85.0,0.0,0.0,0.0,0.0,1.7756794790828987,0.08212508149590275
1761041008.7670739,7.152036666870117,0.0,0.0,-0.0,0.0,0.0,-0.0,0.0,0.0,0.0,0.0,0.0,0.0,0.0,-0.825676154733448,-0.9939433908742149,1.2991301486373361,manual,85.0,0.0,0.0,0.0,0.0,1.8323219476545087,0.054869971839788055
1761041008.8768284,7.261791229248047,0.0,0.0,-0.0,0.0,0.0,-0.0,0.0,0.0,0.0,0.0,0.0,0.0,0.0,-0.8262360076746,-0.9927694669828889,1.3854079950183549,manual,85.0,0.0,0.0,0.0,0.0,1.894099381661989,0.04545250863260402
1761041008.9853764,7.3703391551971436,0.0,0.0,-0.0,0.0,0.0,-0.0,0.0,0.0,0.0,0.0,0.0,0.0,0.0,-0.28935461419795894,-0.5237967697696406,1.2052649467063858,manual,85.0,0.0,0.0,0.0,0.0,1.345642129445235,0.038967119429376494
1761041009.0880773,7.4730401039123535,0.0,0.0,-0.0,0.0,0.0,-0.0,0.0,0.0,0.0,0.0,0.0,0.0,0.0,0.4713205707930409,-0.3805711097498862,0.857830081643291,manual,85.0,0.0,0.0,0.0,0.0,1.0501666053541567,0.05369857792571024
1761041009.1968055,7.581768274307251,0.0,0.0,-0.0,0.0,0.0,-0.0,0.0,0.0,0.0,0.0,0.0,0.0,0.0,0.8237793873292871,-0.37970363689819203,0.7851832681913452,manual,85.0,0.0,0.0,0.0,0.0,1.1997083376846107,0.05124152655749575
1761041009.3052824,7.690245151519775,0.0,0.0,-0.0,0.0,0.0,-0.0,0.0,0.0,0.0,0.0,0.0,0.0,0.0,0.9919201746954752,-0.4244010238461112,0.6821887380683269,manual,85.0,0.0,0.0,0.0,0.0,1.2764808405756767,0.039694800785413396
1761041009.414263,7.799225807189941,0.0,0.0,-0.0,0.0,0.0,-0.0,0.0,0.0,0.0,0.0,0.0,0.0,0.0,0.5438712320475322,-0.396777822398985,0.7018927653996389,manual,85.0,0.0,0.0,0.0,0.0,0.9725646567282473,0.04322873103040126
1761041009.5236077,7.9085705280303955,0.0,0.0,-0.0,0.0,0.0,-0.0,0.0,0.0,0.0,0.0,0.0,0.0,0.0,0.7893284401734463,-0.2803915949616889,0.7125149902100857,manual,85.0,0.0,0.0,0.0,0.0,1.0996983423948061,0.105346912131203
1761041009.6318007,8.01676344871521,0.0,0.0,-0.0,0.0,0.0,-0.0,0.0,0.0,0.0,0.0,0.0,0.0,0.0,-0.021554779575352984,-0.13088751597644055,0.5832747505475127,manual,85.0,0.0,0.0,0.0,0.0,0.598168525573929,0.05600514191888664
1761041009.7406387,8.125601530075073,0.0,0.0,-0.0,0.0,0.0,-0.0,0.0,0.0,0.0,0.0,0.0,0.0,0.0,-0.023618317238819596,-0.13314574355212752,0.6577975235796496,manual,85.0,0.0,0.0,0.0,0.0,0.6715528244023414,0.04904329654526598
1761041009.8490782,8.234040975570679,0.0,0.0,-0.0,0.0,0.0,-0.0,0.0,0.0,0.0,0.0,0.0,0.0,0.0,-0.025963984205340067,-0.13531875131580437,0.8707210856213349,manual,85.0,0.0,0.0,0.0,0.0,0.8815557281755246,0.0665515049329814
1761041009.9587297,8.343692541122437,0.0,0.0,-0.0,0.0,0.0,-0.0,0.0,0.0,0.0,0.0,0.0,0.0,0.0,0.01774851840234371,-0.13164708962774496,0.8169036739154214,manual,85.0,0.0,0.0,0.0,0.0,0.8276337224699384,0.134920152171786
1761041010.0680747,8.45303750038147,0.0,0.0,-0.0,0.0,0.0,-0.0,0.0,0.0,0.0,0.0,0.0,0.0,0.0,0.6476355620604854,-0.6259339927883335,0.9402699690757027,manual,85.0,0.0,0.0,0.0,0.0,1.3020494611645785,0.07351800178541844
1761041010.1782527,8.563215494155884,0.0,0.0,-0.0,0.0,0.0,-0.0,0.0,0.0,0.0,0.0,0.0,0.0,0.0,0.7227883192430516,-0.7445597759187885,0.9489160481851365,manual,85.0,0.0,0.0,0.0,0.0,1.4061414867835058,0.045900625822791474
1761041010.286763,8.671725749969482,0.0,0.0,-0.0,0.0,0.0,-0.0,0.0,0.0,0.0,0.0,0.0,0.0,0.0,0.7727769924369116,-0.7357832244838028,0.8129297639364833,manual,85.0,0.0,0.0,0.0,0.0,1.3414231377777286,0.04942210589492728
1761041010.3951116,8.78007435798645,0.0,0.0,-0.0,0.0,0.0,-0.0,0.0,0.0,0.0,0.0,0.0,0.0,0.0,0.772047684895848,-0.736281193561765,1.0776257928374964,manual,85.0,0.0,0.0,0.0,0.0,1.5163920908308703,0.048092278683814695
1761041010.5041065,8.889069318771362,0.0,0.0,-0.0,0.0,0.0,-0.0,0.0,0.0,0.0,0.0,0.0,0.0,0.0,0.770756478988103,-0.7366071130817413,1.1158900002267358,manual,85.0,0.0,0.0,0.0,0.0,1.5433295440542762,0.09072882367959596
1761041010.6142006,8.999163389205933,0.0,0.0,-0.0,0.0,0.0,-0.0,0.0,0.0,0.0,0.0,0.0,0.0,0.0,0.3321363015482608,-0.07662357545306442,1.0561837966693968,manual,85.0,0.0,0.0,0.0,0.0,1.1098242687328252,0.048652974098736215
1761041010.7234354,9.108398199081421,0.0,0.0,-0.0,0.0,0.0,-0.0,0.0,0.0,0.0,0.0,0.0,0.0,0.0,0.31370514139547123,0.42223309790602365,1.0206522966444362,manual,85.0,0.0,0.0,0.0,0.0,1.1482259426397021,0.04525569611375212
1761041010.8327594,9.217722177505493,0.0,0.0,-0.0,0.0,0.0,-0.0,0.0,0.0,0.0,0.0,0.0,0.0,0.0,0.7457442631224664,0.21867943255866595,0.9616897125223208,manual,85.0,0.0,0.0,0.0,0.0,1.2364474527352607,0.049999356013325974
1761041010.942113,9.327075719833374,0.0,0.0,-0.0,0.0,0.0,-0.0,0.0,0.0,0.0,0.0,0.0,0.0,0.0,0.8088069604141852,-0.2098519350755308,0.90103725611414,manual,85.0,0.0,0.0,0.0,0.0,1.2288509554763247,0.05187112829355934
1761041011.05124,9.436202764511108,0.0,0.0,-0.0,0.0,0.0,-0.0,0.0,0.0,0.0,0.0,0.0,0.0,0.0,0.8083214556984973,-0.20622320151421553,0.9080274320818951,manual,85.0,0.0,0.0,0.0,0.0,1.2330553118163643,0.11764571506781415
1761041011.1602802,9.54524302482605,0.0,0.0,-0.0,0.0,0.0,-0.0,0.0,0.0,0.0,0.0,0.0,0.0,0.0,0.33294875720086736,-0.25465235162086003,0.9482514366240922,manual,85.0,0.0,0.0,0.0,0.0,1.0367658762552376,0.0721305263651153
1761041011.2694385,9.654401302337646,0.0,0.0,-0.0,0.0,0.0,-0.0,0.0,0.0,0.0,0.0,0.0,0.0,0.0,0.5007145919086076,0.02111577340256436,0.8735309389738374,manual,85.0,0.0,0.0,0.0,0.0,1.0070835515393475,0.046165152663563434
1761041011.3781097,9.763072490692139,0.0,0.0,-0.0,0.0,0.0,-0.0,0.0,0.0,0.0,0.0,0.0,0.0,0.0,-0.20000201843333415,-0.018269379393451437,0.8558214768761266,manual,85.0,0.0,0.0,0.0,0.0,0.8790705192891319,0.04502325623540938
1761041011.4849029,9.869865655899048,0.0,0.0,-0.0,0.0,0.0,-0.0,0.0,0.0,0.0,0.0,0.0,0.0,0.0,-0.10834464437335298,-0.29994739881865806,0.9454285929873929,manual,85.0,0.0,0.0,0.0,0.0,0.9977686247124575,0.06000460252050382
1761041011.5941327,9.979095458984375,0.0,0.0,-0.0,0.0,0.0,-0.0,0.0,0.0,0.0,0.0,0.0,0.0,0.0,-0.10721340588845657,-0.29516891295913855,1.0959461246670414,manual,85.0,0.0,0.0,0.0,0.0,1.1400514504847528,0.048834369331013545
1761041011.703735,10.088697910308838,0.0,0.0,-0.0,0.0,0.0,-0.0,0.0,0.0,0.0,0.0,0.0,0.0,0.0,-0.11141426192256453,-0.5052481838323023,1.0796448188052938,manual,85.0,0.0,0.0,0.0,0.0,1.197214182925806,0.08704657719072481
1761041011.8115458,10.196508646011353,0.0,0.0,-0.0,0.0,0.0,-0.0,0.0,0.0,0.0,0.0,0.0,0.0,0.0,0.3305792968156707,-0.4823632662927684,1.201600661550988,manual,85.0,0.0,0.0,0.0,0.0,1.336338707810091,0.06023664964147682
1761041011.9198077,10.304770469665527,0.0,0.0,-0.0,0.0,0.0,-0.0,0.0,0.0,0.0,0.0,0.0,0.0,0.0,0.32780716248020675,-0.4773791704089132,1.1599363300375831,manual,85.0,0.0,0.0,0.0,0.0,1.2964569787905358,0.06297444164704186
1761041012.0277889,10.4127516746521,0.0,0.0,-0.0,0.0,0.0,-0.0,0.0,0.0,0.0,0.0,0.0,0.0,0.0,-0.14328492723069836,-0.2921198742022224,1.2484209574522283,manual,85.0,0.0,0.0,0.0,0.0,1.2901238228485539,0.06660559773205416
1761041012.13739,10.522352695465088,0.0,0.0,-0.0,0.0,0.0,-0.0,0.0,0.0,0.0,0.0,0.0,0.0,0.0,-0.38964651460770733,-0.18512824768648584,1.1754815533117395,manual,85.0,0.0,0.0,0.0,0.0,1.252139671368008,0.08044207932255426
1761041012.2466688,10.63163161277771,0.0,0.0,-0.0,0.0,0.0,-0.0,0.0,0.0,0.0,0.0,0.0,0.0,0.0,0.13838206833220368,0.13423290557289247,1.126859772381716,manual,85.0,0.0,0.0,0.0,0.0,1.143232704389886,0.05111339729508221
1761041012.3552542,10.740216970443726,0.0,0.0,-0.0,0.0,0.0,-0.0,0.0,0.0,0.0,0.0,0.0,0.0,0.0,-0.047980665322050975,-0.09877147550343218,1.0834317054081786,manual,85.0,0.0,0.0,0.0,0.0,1.0889821894326583,0.045843446054921626
1761041012.4632688,10.848231554031372,0.0,0.0,-0.0,0.0,0.0,-0.0,0.0,0.0,0.0,0.0,0.0,0.0,0.0,0.2547035503197026,0.13516506212054713,0.8962820351903337,manual,85.0,0.0,0.0,0.0,0.0,0.9415226917968781,0.10700432629823582
1761041012.5714161,10.956378936767578,0.0,0.0,-0.0,0.0,0.0,-0.0,0.0,0.0,0.0,0.0,0.0,0.0,0.0,0.005688389250478692,0.5653763210388278,0.9146906544444252,manual,85.0,0.0,0.0,0.0,0.0,1.0753333136714567,0.05212522417487653
1761041012.6808841,11.065846920013428,0.0,0.0,-0.0,0.0,0.0,-0.0,0.0,0.0,0.0,0.0,0.0,0.0,0.0,0.528446221273659,0.4936078621724298,0.9536964287640656,manual,85.0,0.0,0.0,0.0,0.0,1.1968462760998915,0.09558114923147609
1761041012.7900934,11.175056219100952,0.0,0.0,-0.0,0.0,0.0,-0.0,0.0,0.0,0.0,0.0,0.0,0.0,0.0,-0.0910781193666042,0.4780174288546556,0.7972444097756957,manual,85.0,0.0,0.0,0.0,0.0,0.9340206288057937,0.06546233541791374
1761041012.898219,11.28318190574646,0.0,0.0,-0.0,0.0,0.0,-0.0,0.0,0.0,0.0,0.0,0.0,0.0,0.0,0.2856529560476156,0.9237761814986081,0.6836206674609179,manual,85.0,0.0,0.0,0.0,0.0,1.1841863289966665,0.062095884140638276
1761041013.005405,11.39036774635315,0.0,0.0,-0.0,0.0,0.0,-0.0,0.0,0.0,0.0,0.0,0.0,0.0,0.0,0.5064537018290725,0.6177037144003771,0.7025984555717749,manual,85.0,0.0,0.0,0.0,0.0,1.0638128691890492,0.06967096332991639
1761041013.1136675,11.498630285263062,0.0,0.0,-0.0,0.0,0.0,-0.0,0.0,0.0,0.0,0.0,0.0,0.0,0.0,0.44175233992312357,0.6964245236601233,0.67827022041427,manual,85.0,0.0,0.0,0.0,0.0,1.067802762163316,0.06106860587091128
1761041013.2243745,11.609337329864502,0.0,0.0,-0.0,0.0,0.0,-0.0,0.0,0.0,0.0,0.0,0.0,0.0,0.0,0.5947752289059892,0.6181738438383937,0.7280173669807462,manual,85.0,0.0,0.0,0.0,0.0,1.1251247756367668,0.058010720923914814
1761041013.333093,11.718055725097656,0.0,0.0,-0.0,0.0,0.0,-0.0,0.0,0.0,0.0,0.0,0.0,0.0,0.0,0.4348748029281739,0.45504377268360696,0.5751945607775141,manual,85.0,0.0,0.0,0.0,0.0,0.8526603732014204,0.057818114237222856
1761041013.4422374,11.827200174331665,0.0,0.0,-0.0,0.0,0.0,-0.0,0.0,0.0,0.0,0.0,0.0,0.0,0.0,0.5061026252219216,0.16988520347525368,0.6280087907510252,manual,85.0,0.0,0.0,0.0,0.0,0.8242547487742574,0.06592898347748165
1761041013.551488,11.936450719833374,0.0,0.0,-0.0,0.0,0.0,-0.0,0.0,0.0,0.0,0.0,0.0,0.0,0.0,0.5404744440092792,0.12746556572202591,0.661599669052805,manual,85.0,0.0,0.0,0.0,0.0,0.8637558782218253,0.08975831241501636
1761041013.6626742,12.047636985778809,0.0,0.0,-0.0,0.0,0.0,-0.0,0.0,0.0,0.0,0.0,0.0,0.0,0.0,0.5386801758363977,0.13342191676459444,0.9350579500396498,manual,85.0,0.0,0.0,0.0,0.0,1.0873413031999764,0.06728389755666013
1761041013.771502,12.15646481513977,0.0,0.0,-0.0,0.0,0.0,-0.0,0.0,0.0,0.0,0.0,0.0,0.0,0.0,0.29739287001788534,0.11894114231171125,1.0165530457616847,manual,85.0,0.0,0.0,0.0,0.0,1.0658187506885246,0.08277355554283622
1761041013.8801851,12.265147924423218,0.0,0.0,-0.0,0.0,0.0,-0.0,0.0,0.0,0.0,0.0,0.0,0.0,0.0,0.29567980581625747,0.12478900951661656,1.0770012742838104,manual,85.0,0.0,0.0,0.0,0.0,1.1238018460888153,0.08238807197155404
1761041013.9883702,12.373332977294922,0.0,0.0,-0.0,0.0,0.0,-0.0,0.0,0.0,0.0,0.0,0.0,0.0,0.0,0.43734579277376656,0.005574977995568105,1.0950750095338395,manual,85.0,0.0,0.0,0.0,0.0,1.179191120786662,0.06597292856729922
1761041014.0977452,12.482707977294922,0.0,0.0,-0.0,0.0,0.0,-0.0,0.0,0.0,0.0,0.0,0.0,0.0,0.0,0.07472601971437139,0.051462636096192164,1.0432779512657424,manual,85.0,0.0,0.0,0.0,0.0,1.0472159588802905,0.06562014438233292
1761041014.206789,12.59175181388855,0.0,0.0,-0.0,0.0,0.0,-0.0,0.0,0.0,0.0,0.0,0.0,0.0,0.0,-0.03487334614862235,-0.06652211943505518,1.019798108500396,manual,85.0,0.0,0.0,0.0,0.0,1.0225602792729231,0.08724202047537805
1761041014.3160343,12.700997114181519,0.0,0.0,-0.0,0.0,0.0,-0.0,0.0,0.0,0.0,0.0,0.0,0.0,0.0,-0.4688580154403148,-0.2073523533266289,0.9410095070017964,manual,85.0,0.0,0.0,0.0,0.0,1.0715977460504877,0.0950710342157718
1761041014.4241192,12.80908203125,0.0,0.0,-0.0,0.0,0.0,-0.0,0.0,0.0,0.0,0.0,0.0,0.0,0.0,-0.4695983121992447,-0.20138688533790836,1.1310683835409083,manual,85.0,0.0,0.0,0.0,0.0,1.2411264805217583,0.07564047534485396
1761041014.5329576,12.917920351028442,0.0,0.0,-0.0,0.0,0.0,-0.0,0.0,0.0,0.0,0.0,0.0,0.0,0.0,-0.39502123038415,0.4116490766141988,1.171300268657438,manual,85.0,0.0,0.0,0.0,0.0,1.3028588005185047,0.07703093642806887
1761041014.6404455,13.025408267974854,0.0,0.0,-0.0,0.0,0.0,-0.0,0.0,0.0,0.0,0.0,0.0,0.0,0.0,-0.39689116909085176,0.4174125702164063,1.2071244295010177,manual,85.0,0.0,0.0,0.0,0.0,1.337499623242985,0.07715691498756835
1761041014.7410164,13.12597918510437,0.0,0.0,-0.0,0.0,0.0,-0.0,0.0,0.0,0.0,0.0,0.0,0.0,0.0,-0.39909357577736976,0.42316497946165277,1.2633611614241615,manual,85.0,0.0,0.0,0.0,0.0,1.39083633338526,0.08020377442276504
1761041014.848641,13.233603715896606,0.0,0.0,-0.0,0.0,0.0,-0.0,0.0,0.0,0.0,0.0,0.0,0.0,0.0,-0.19868063419147852,0.3171105215110301,1.2046231454430516,manual,85.0,0.0,0.0,0.0,0.0,1.2614079434476528,0.07544655695927097
1761041014.9578595,13.342822313308716,0.0,0.0,-0.0,0.0,0.0,-0.0,0.0,0.0,0.0,0.0,0.0,0.0,0.0,-0.16077208523348543,0.8565960956434489,1.2809453282188328,manual,85.0,0.0,0.0,0.0,0.0,1.5493306517162748,0.12451896542241958
1761041015.0663605,13.45132327079773,0.0,0.0,-0.0,0.0,0.0,-0.0,0.0,0.0,0.0,0.0,0.0,0.0,0.0,-0.08567049120634636,0.7862633508313599,1.1961793817171564,manual,85.0,0.0,0.0,0.0,0.0,1.4340134598982444,0.08318464736109708
1761041015.1739712,13.558933973312378,0.0,0.0,-0.0,0.0,0.0,-0.0,0.0,0.0,0.0,0.0,0.0,0.0,0.0,-0.17655861279540253,0.6876194104358093,1.0453078405309466,manual,85.0,0.0,0.0,0.0,0.0,1.2635908668694142,0.09280183576621105
1761041015.2831216,13.668084383010864,0.0,0.0,-0.0,0.0,0.0,-0.0,0.0,0.0,0.0,0.0,0.0,0.0,0.0,-0.4160150374110064,0.5297933384065349,1.0455811086081028,manual,85.0,0.0,0.0,0.0,0.0,1.2437802649383738,0.07443475108850191
1761041015.3919253,13.776888132095337,0.0,0.0,-0.0,0.0,0.0,-0.0,0.0,0.0,0.0,0.0,0.0,0.0,0.0,-0.6037756580220123,0.5684674566257725,1.0102264074629888,manual,85.0,0.0,0.0,0.0,0.0,1.3070033239430054,0.08320513273922525
1761041015.4996588,13.884621620178223,0.0,0.0,-0.0,0.0,0.0,-0.0,0.0,0.0,0.0,0.0,0.0,0.0,0.0,-0.607899245316938,0.5678377289358854,0.9788368809777213,manual,85.0,0.0,0.0,0.0,0.0,1.2845632792595936,0.08327058670253844
1761041015.608135,13.99309778213501,0.0,0.0,-0.0,0.0,0.0,-0.0,0.0,0.0,0.0,0.0,0.0,0.0,0.0,-1.036234249495713,0.2587123024572914,1.0691593141782165,manual,85.0,0.0,0.0,0.0,0.0,1.5112296696282572,0.0775632617268924
1761041015.7166266,14.101589441299438,0.0,0.0,-0.0,0.0,0.0,-0.0,0.0,0.0,0.0,0.0,0.0,0.0,0.0,-0.6162184366565625,0.4432024702698678,1.0842409909426376,manual,85.0,0.0,0.0,0.0,0.0,1.323530172594884,0.07864664246586776
1761041015.8265676,14.211530447006226,0.0,0.0,-0.0,0.0,0.0,-0.0,0.0,0.0,0.0,0.0,0.0,0.0,0.0,-0.29097126420953845,-0.33553962188614506,0.9191721313192052,manual,85.0,0.0,0.0,0.0,0.0,1.0208469627936816,0.10471853448671432
1761041015.9348173,14.319780111312866,0.0,0.0,-0.0,0.0,0.0,-0.0,0.0,0.0,0.0,0.0,0.0,0.0,0.0,-0.6025681075002728,-0.18500704807832202,0.8996707757570507,manual,85.0,0.0,0.0,0.0,0.0,1.098509643456264,0.08225812628970346
1761041016.0432432,14.428205966949463,0.0,0.0,-0.0,0.0,0.0,-0.0,0.0,0.0,0.0,0.0,0.0,0.0,0.0,-0.5816879440131038,0.10672650431843977,0.8679601101418289,manual,85.0,0.0,0.0,0.0,0.0,1.0502886097314592,0.08537697992757481
1761041016.1513577,14.536320447921753,0.0,0.0,-0.0,0.0,0.0,-0.0,0.0,0.0,0.0,0.0,0.0,0.0,0.0,-0.904863420792569,-0.0844370625166377,0.8719464870606056,manual,85.0,0.0,0.0,0.0,0.0,1.259443569244847,0.10047122110564057
1761041016.262042,14.647004842758179,0.0,0.0,-0.0,0.0,0.0,-0.0,0.0,0.0,0.0,0.0,0.0,0.0,0.0,-1.1229248002669754,0.05538858319664775,0.8426479507539693,manual,85.0,0.0,0.0,0.0,0.0,1.405020843657852,0.09193928132760405
1761041016.3705423,14.755505084991455,0.0,0.0,-0.0,0.0,0.0,-0.0,0.0,0.0,0.0,0.0,0.0,0.0,0.0,-0.680630791167745,0.22428312517562163,0.8903009153629042,manual,85.0,0.0,0.0,0.0,0.0,1.1428897208480788,0.09237517358677257
1761041016.4800308,14.864993572235107,0.0,0.0,-0.0,0.0,0.0,-0.0,0.0,0.0,0.0,0.0,0.0,0.0,0.0,-0.6852130037131169,0.22449462121001915,0.8829075580156116,manual,85.0,0.0,0.0,0.0,0.0,1.1399300204007579,0.09313266670534404
1761041016.5882475,14.973210334777832,0.0,0.0,-0.0,0.0,0.0,-0.0,0.0,0.0,0.0,0.0,0.0,0.0,0.0,-0.715482607075571,0.10575437337000658,1.131106034601156,manual,85.0,0.0,0.0,0.0,0.0,1.3425722364274075,0.08672386014442164
1761041016.696611,15.081573724746704,0.0,0.0,-0.0,0.0,0.0,-0.0,0.0,0.0,0.0,0.0,0.0,0.0,0.0,-0.633991358214688,0.24876688551174198,1.0520258329452825,manual,85.0,0.0,0.0,0.0,0.0,1.253231167343971,0.08825347794485967
1761041016.8065343,15.191497087478638,0.0,0.0,-0.0,0.0,0.0,-0.0,0.0,0.0,0.0,0.0,0.0,0.0,0.0,-0.7725415898618057,0.12771686974550872,0.906091047807223,manual,85.0,0.0,0.0,0.0,0.0,1.1975529607496234,0.0927820962796161
1761041016.9152493,15.300212144851685,0.0,0.0,-0.0,0.0,0.0,-0.0,0.0,0.0,0.0,0.0,0.0,0.0,0.0,-0.8192042180496313,-0.17707390755013763,1.060900545162771,manual,85.0,0.0,0.0,0.0,0.0,1.3520209637176666,0.11362981603787375
1761041017.023772,15.408734798431396,0.0,0.0,-0.0,0.0,0.0,-0.0,0.0,0.0,0.0,0.0,0.0,0.0,0.0,-0.9112499649646161,-0.020968832080141928,1.0407530844154287,manual,85.0,0.0,0.0,0.0,0.0,1.3834678071017943,0.1229011473201045
1761041017.1309366,15.515899419784546,0.0,0.0,-0.0,0.0,0.0,-0.0,0.0,0.0,0.0,0.0,0.0,0.0,0.0,-0.6344389887208822,-0.14738142061201706,0.900156503111925,manual,85.0,0.0,0.0,0.0,0.0,1.1110876849490687,0.08704671815446177
1761041017.2393405,15.624303340911865,0.0,0.0,-0.0,0.0,0.0,-0.0,0.0,0.0,0.0,0.0,0.0,0.0,0.0,-0.6363605040250823,-0.1470054245099442,0.8991820719662794,manual,85.0,0.0,0.0,0.0,0.0,1.1113476883783837,0.11316984393496382
1761041017.347552,15.73251485824585,0.0,0.0,-0.0,0.0,0.0,-0.0,0.0,0.0,0.0,0.0,0.0,0.0,0.0,-0.7372746182584742,-0.23711211307281227,1.067153638149805,manual,85.0,0.0,0.0,0.0,0.0,1.3185647137362648,0.08496120369888943
1761041017.4565356,15.841498374938965,0.0,0.0,-0.0,0.0,0.0,-0.0,0.0,0.0,0.0,0.0,0.0,0.0,0.0,-1.0883213953704822,-0.12812260693542685,0.7437455651277411,manual,85.0,0.0,0.0,0.0,0.0,1.324392814717849,0.09379929824754563
1761041017.5657718,15.950734615325928,0.0,0.0,-0.0,0.0,0.0,-0.0,0.0,0.0,0.0,0.0,0.0,0.0,0.0,-1.3039606546171294,0.2248685143887079,0.8329460715221397,manual,85.0,0.0,0.0,0.0,0.0,1.5635467359874735,0.0783161051238962
1761041017.6736465,16.05860924720764,0.0,0.0,-0.0,0.0,0.0,-0.0,0.0,0.0,0.0,0.0,0.0,0.0,0.0,-1.3049899992599283,0.227078472873458,0.8510615247454769,manual,85.0,0.0,0.0,0.0,0.0,1.5744425203585763,0.08882025502234368
1761041017.7832143,16.168177127838135,0.0,0.0,-0.0,0.0,0.0,-0.0,0.0,0.0,0.0,0.0,0.0,0.0,0.0,-1.3066159470946757,0.22971232095156113,1.0836550865243664,manual,85.0,0.0,0.0,0.0,0.0,1.7129860858013999,0.08036593659339596
1761041017.8913307,16.276293516159058,0.0,0.0,-0.0,0.0,0.0,-0.0,0.0,0.0,0.0,0.0,0.0,0.0,0.0,-1.08861952413532,0.8092294631741447,1.2389451666042126,manual,85.0,0.0,0.0,0.0,0.0,1.8370982331518544,0.08676081591940311
1761041018.0001652,16.385128021240234,0.0,0.0,-0.0,0.0,0.0,-0.0,0.0,0.0,0.0,0.0,0.0,0.0,0.0,-0.5008834561581406,0.7715345906052566,1.12506178565791,manual,85.0,0.0,0.0,0.0,0.0,1.453242540906751,0.07871523121209838
1761041018.1092114,16.494174242019653,0.0,0.0,-0.0,0.0,0.0,-0.0,0.0,0.0,0.0,0.0,0.0,0.0,0.0,-0.5067496719002541,0.779071712135407,1.0987256131435268,manual,85.0,0.0,0.0,0.0,0.0,1.4390781547915419,0.10866218242954055
1761041018.216905,16.60186791419983,0.0,0.0,-0.0,0.0,0.0,-0.0,0.0,0.0,0.0,0.0,0.0,0.0,0.0,-0.5131553030457713,0.7867727914226949,1.067832586933602,manual,85.0,0.0,0.0,0.0,0.0,1.4221836112416586,0.08249358207005258
1761041018.325762,16.71072483062744,0.0,0.0,-0.0,0.0,0.0,-0.0,0.0,0.0,0.0,0.0,0.0,0.0,0.0,-0.5202783346328448,0.7949639396295516,1.2456368113690668,manual,85.0,0.0,0.0,0.0,0.0,1.5666104418895466,0.08819659073033896
1761041018.4340951,16.819057941436768,0.0,0.0,-0.0,0.0,0.0,-0.0,0.0,0.0,0.0,0.0,0.0,0.0,0.0,-0.24257318461066743,0.5212721145380765,1.0653383010288069,manual,85.0,0.0,0.0,0.0,0.0,1.2105833564551032,0.08482152918125656
1761041018.5430923,16.92805504798889,0.0,0.0,-0.0,0.0,0.0,-0.0,0.0,0.0,0.0,0.0,0.0,0.0,0.0,-0.2766183339242107,0.3807731266290704,0.9264419782246983,manual,85.0,0.0,0.0,0.0,0.0,1.0391345512698424,0.09784434822488881
1761041018.650468,17.035430908203125,0.0,0.0,-0.0,0.0,0.0,-0.0,0.0,0.0,0.0,0.0,0.0,0.0,0.0,-0.2830499616803321,0.38551377326119324,1.0253407198241078,manual,85.0,0.0,0.0,0.0,0.0,1.1313981358967937,0.10415164072595502
1761041018.7595818,17.14454460144043,0.0,0.0,-0.0,0.0,0.0,-0.0,0.0,0.0,0.0,0.0,0.0,0.0,0.0,-0.24956258459015557,-0.05877711889085739,1.0092104419843855,manual,85.0,0.0,0.0,0.0,0.0,1.0412693933573325,0.10884252795786328
1761041018.8692193,17.25418210029602,0.0,0.0,-0.0,0.0,0.0,-0.0,0.0,0.0,0.0,0.0,0.0,0.0,0.0,-0.35801167462029926,-0.12375913194994134,1.1228304723849574,manual,85.0,0.0,0.0,0.0,0.0,1.1850050428676075,0.09217940076494417
1761041018.9782858,17.363248586654663,0.0,0.0,-0.0,0.0,0.0,-0.0,0.0,0.0,0.0,0.0,0.0,0.0,0.0,0.03506643058683423,-0.052378549210882384,1.0401064762778454,manual,85.0,0.0,0.0,0.0,0.0,1.0420147066940344,0.08223332706233005
1761041019.0884898,17.4734525680542,0.0,0.0,-0.0,0.0,0.0,-0.0,0.0,0.0,0.0,0.0,0.0,0.0,0.0,0.23861252795676013,0.3316919602970926,1.1572374494220126,manual,85.0,0.0,0.0,0.0,0.0,1.2272546636164838,0.07770998098037393
1761041019.1972184,17.582181215286255,0.0,0.0,-0.0,0.0,0.0,-0.0,0.0,0.0,0.0,0.0,0.0,0.0,0.0,-0.12871468378836487,0.4016444679891016,1.0785541246755552,manual,85.0,0.0,0.0,0.0,0.0,1.1580866756610406,0.07606032692709379
1761041019.3072777,17.692240476608276,0.0,0.0,-0.0,0.0,0.0,-0.0,0.0,0.0,0.0,0.0,0.0,0.0,0.0,0.004899148246898546,0.40273494933281123,1.0734234959935975,manual,85.0,0.0,0.0,0.0,0.0,1.1464979035387566,0.08140939660992169
1761041019.4170606,17.80202341079712,0.0,0.0,-0.0,0.0,0.0,-0.0,0.0,0.0,0.0,0.0,0.0,0.0,0.0,0.6745471193004561,0.2972441604402959,0.8545784670987993,manual,85.0,0.0,0.0,0.0,0.0,1.1285708943178243,0.0782684054834751
1761041019.5268433,17.911806106567383,0.0,0.0,-0.0,0.0,0.0,-0.0,0.0,0.0,0.0,0.0,0.0,0.0,0.0,0.5859200506756729,0.4365177494637347,0.9299081268775375,manual,85.0,0.0,0.0,0.0,0.0,1.1826153964047472,0.06795265252046175
1761041019.6343772,18.01934003829956,0.0,0.0,-0.0,0.0,0.0,-0.0,0.0,0.0,0.0,0.0,0.0,0.0,0.0,0.5797702464417096,0.4389754354254496,1.0645896781584414,manual,85.0,0.0,0.0,0.0,0.0,1.2892572103376183,0.06728795433947442
1761041019.7428663,18.12782907485962,0.0,0.0,-0.0,0.0,0.0,-0.0,0.0,0.0,0.0,0.0,0.0,0.0,0.0,0.5076679848956483,-0.04696071873429969,0.9939117102058206,manual,85.0,0.0,0.0,0.0,0.0,1.1170463641569714,0.06601714481705265
1761041019.8506484,18.23561120033264,0.0,0.0,-0.0,0.0,0.0,-0.0,0.0,0.0,0.0,0.0,0.0,0.0,0.0,-0.06500820427162102,0.11798509510678956,0.9054653169453953,manual,85.0,0.0,0.0,0.0,0.0,0.915431040265188,0.0673613525501994
1761041019.9592052,18.344167947769165,0.0,0.0,-0.0,0.0,0.0,-0.0,0.0,0.0,0.0,0.0,0.0,0.0,0.0,-0.07056027824527765,0.12044918770981401,0.9342020087221455,manual,85.0,0.0,0.0,0.0,0.0,0.9445740589210021,0.06947001129809174
1761041020.0689974,18.453960180282593,0.0,0.0,-0.0,0.0,0.0,-0.0,0.0,0.0,0.0,0.0,0.0,0.0,0.0,-0.07658306154102762,0.12293602973456226,1.1062398301446423,manual,85.0,0.0,0.0,0.0,0.0,1.1156813140500028,0.0695199169809877
1761041020.1768558,18.561818599700928,0.0,0.0,-0.0,0.0,0.0,-0.0,0.0,0.0,0.0,0.0,0.0,0.0,0.0,0.24660583733216684,0.21068255380381765,1.143468134966103,manual,85.0,0.0,0.0,0.0,0.0,1.1885793844613222,0.08179133399123992
1761041020.2867646,18.671727418899536,0.0,0.0,-0.0,0.0,0.0,-0.0,0.0,0.0,0.0,0.0,0.0,0.0,0.0,0.1692224244105669,-0.15939236292521947,1.1874956997646153,manual,85.0,0.0,0.0,0.0,0.0,1.2100364421130994,0.07450721348854292
1761041020.3942304,18.77919316291809,0.0,0.0,-0.0,0.0,0.0,-0.0,0.0,0.0,0.0,0.0,0.0,0.0,0.0,0.16622530079529976,-0.15755883386545752,1.1723783065068318,manual,85.0,0.0,0.0,0.0,0.0,1.1945403008359985,0.08130054914914354
1761041020.5039525,18.888915300369263,0.0,0.0,-0.0,0.0,0.0,-0.0,0.0,0.0,0.0,0.0,0.0,0.0,0.0,0.16255834503244013,-0.1557317022013543,1.2672406365869946,manual,85.0,0.0,0.0,0.0,0.0,1.2870805761985644,0.07353328808651173
1761041020.6133683,18.99833106994629,0.0,0.0,-0.0,0.0,0.0,-0.0,0.0,0.0,0.0,0.0,0.0,0.0,0.0,0.5782376018121618,-0.10026749006614907,1.3147210884861127,manual,85.0,0.0,0.0,0.0,0.0,1.439758255480327,0.076699289009176
1761041020.7230394,19.108002185821533,0.0,0.0,-0.0,0.0,0.0,-0.0,0.0,0.0,0.0,0.0,0.0,0.0,0.0,0.8745540534445604,-0.5632598161848392,1.1373722601100573,manual,85.0,0.0,0.0,0.0,0.0,1.541337753703824,0.0714767315428749
1761041020.8322651,19.217227935791016,0.0,0.0,-0.0,0.0,0.0,-0.0,0.0,0.0,0.0,0.0,0.0,0.0,0.0,0.8750286172422533,-0.5614583082121751,1.1185508189694875,manual,85.0,0.0,0.0,0.0,0.0,1.527110489607965,0.0722587281235233
1761041020.940943,19.325905799865723,0.0,0.0,-0.0,0.0,0.0,-0.0,0.0,0.0,0.0,0.0,0.0,0.0,0.0,0.8750189308836746,-0.5595737735675194,1.208997357294891,manual,85.0,0.0,0.0,0.0,0.0,1.5938806565786012,0.09627795405872873
1761041021.0512362,19.436198949813843,0.0,0.0,-0.0,0.0,0.0,-0.0,0.0,0.0,0.0,0.0,0.0,0.0,0.0,0.6371500216161301,-0.645048675836508,1.1620573653829909,manual,85.0,0.0,0.0,0.0,0.0,1.473914944861041,0.07798748753994163
1761041021.159634,19.544596910476685,0.0,0.0,-0.0,0.0,0.0,-0.0,0.0,0.0,0.0,0.0,0.0,0.0,0.0,0.6633970083251751,-0.5652578586375504,1.001844973032294,manual,85.0,0.0,0.0,0.0,0.0,1.3278950965329976,0.08561068166473343
1761041021.268356,19.653318881988525,0.0,0.0,-0.0,0.0,0.0,-0.0,0.0,0.0,0.0,0.0,0.0,0.0,0.0,0.2802347866064863,-0.26855269325913256,0.9420553444745896,manual,85.0,0.0,0.0,0.0,0.0,1.0188819150099064,0.07725468558576293
1761041021.3758404,19.76080322265625,0.0,0.0,-0.0,0.0,0.0,-0.0,0.0,0.0,0.0,0.0,0.0,0.0,0.0,0.2806043062276861,-0.2658146307679827,0.8736111306151298,manual,85.0,0.0,0.0,0.0,0.0,0.9552971276720587,0.07050654672302764
1761041021.476537,19.861499786376953,0.0,0.0,-0.0,0.0,0.0,-0.0,0.0,0.0,0.0,0.0,0.0,0.0,0.0,-0.29674474338804496,0.49417742680203364,0.928889857796759,manual,85.0,0.0,0.0,0.0,0.0,1.0932086442243307,0.07939118174392373
1761041021.5852613,19.970224142074585,0.0,0.0,-0.0,0.0,0.0,-0.0,0.0,0.0,0.0,0.0,0.0,0.0,0.0,-0.4370511149923715,0.38064398791704446,0.9406347338809012,manual,85.0,0.0,0.0,0.0,0.0,1.104851675672649,0.07223032563294297
1761041021.6940858,20.07904863357544,0.0,0.0,-0.0,0.0,0.0,-0.0,0.0,0.0,0.0,0.0,0.0,0.0,0.0,-0.3998756390458067,0.1758241477669555,0.8720133796618611,manual,85.0,0.0,0.0,0.0,0.0,0.9753061016673532,0.07317532958459266
1761041021.8022513,20.187214136123657,0.0,0.0,-0.0,0.0,0.0,-0.0,0.0,0.0,0.0,0.0,0.0,0.0,0.0,-0.40154434842082415,0.17835441349503134,0.996877058950564,manual,85.0,0.0,0.0,0.0,0.0,1.0894090284295368,0.0851598260213456
1761041021.9100351,20.294997930526733,0.0,0.0,-0.0,0.0,0.0,-0.0,0.0,0.0,0.0,0.0,0.0,0.0,0.0,-0.3095771445455823,0.4399380483503128,0.8187440012194117,manual,85.0,0.0,0.0,0.0,0.0,0.9796556713172494,0.06422247557174009
1761041022.0195332,20.40449595451355,0.0,0.0,-0.0,0.0,0.0,-0.0,0.0,0.0,0.0,0.0,0.0,0.0,0.0,-0.3009788844529493,0.3567169122667526,0.836847633134169,manual,85.0,0.0,0.0,0.0,0.0,0.9582010256026282,0.06005031215829962
1761041022.128545,20.513507843017578,0.0,0.0,-0.0,0.0,0.0,-0.0,0.0,0.0,0.0,0.0,0.0,0.0,0.0,-0.3489728456018707,0.06610025418005455,0.9545772577519143,manual,85.0,0.0,0.0,0.0,0.0,1.0185131474788627,0.06336026478329615
1761041022.2367136,20.621676445007324,0.0,0.0,-0.0,0.0,0.0,-0.0,0.0,0.0,0.0,0.0,0.0,0.0,0.0,-0.15666627080251444,-0.23182996112981769,0.8810299145006323,manual,85.0,0.0,0.0,0.0,0.0,0.9243934019288601,0.07449564866003922
1761041022.3463979,20.73136067390442,0.0,0.0,-0.0,0.0,0.0,-0.0,0.0,0.0,0.0,0.0,0.0,0.0,0.0,-0.06215840884729931,-0.034566535046596625,0.9319125799260506,manual,85.0,0.0,0.0,0.0,0.0,0.9346226884470455,0.06935033011506624
1761041022.455625,20.840587854385376,0.0,0.0,-0.0,0.0,0.0,-0.0,0.0,0.0,0.0,0.0,0.0,0.0,0.0,-0.05949963968311768,0.5168326480991157,0.8342746501596487,manual,85.0,0.0,0.0,0.0,0.0,0.9831939712806265,0.06730179689835097
