timestamp,simulation_time,position_x,position_y,position_z,velocity_x,velocity_y,velocity_z,attitude_roll,attitude_pitch,attitude_yaw,control_throttle,control_roll,control_pitch,control_yaw,estimated_position_x,estimated_position_y,estimated_position_z,flight_mode,battery_level,setpoint_altitude,setpoint_position_x,setpoint_position_y,setpoint_position_z,position_error,attitude_error
1761040448.8545558,0.11110949516296387,0.0,0.0,-0.0,0.0,0.0,-0.0,0.0,0.0,0.0,0.0,0.0,0.0,0.0,-9.03845971855849e-06,-0.00011437603318024116,0.059421212655975865,manual,85.0,0.0,0.0,0.0,0.0,0.059421323420784114,0.11440070048551491
1761040448.9647555,0.22130918502807617,0.0,0.0,-0.0,0.0,0.0,-0.0,0.0,0.0,0.0,0.0,0.0,0.0,0.0,-0.0391310508261707,0.09341876244847264,0.08037962416516675,manual,85.0,0.0,0.0,0.0,0.0,0.12930270026994012,0.009661114520377446
1761040449.0751135,0.3316671848297119,0.0,0.0,-0.0,0.0,0.0,-0.0,0.0,0.0,0.0,0.0,0.0,0.0,0.0,-0.039464522106312745,0.09434149258043795,0.27317135068311593,manual,85.0,0.0,0.0,0.0,0.0,0.29168536569636533,0.04432268848848305
1761040449.1759899,0.4325435161590576,0.0,0.0,-0.0,0.0,0.0,-0.0,0.0,0.0,0.0,0.0,0.0,0.0,0.0,-0.33425534941053603,0.14887044505418381,0.4861627045551927,manual,85.0,0.0,0.0,0.0,0.0,0.608476148522364,0.029348304312863734
1761040449.2853487,0.5419023036956787,0.0,0.0,-0.0,0.0,0.0,-0.0,0.0,0.0,0.0,0.0,0.0,0.0,0.0,-0.33482955803763653,0.15062202729052285,0.5840681513511851,manual,85.0,0.0,0.0,0.0,0.0,0.6898792890524956,0.02563807847846536
1761040449.395104,0.6516575813293457,0.0,0.0,-0.0,0.0,0.0,-0.0,0.0,0.0,0.0,0.0,0.0,0.0,0.0,-0.3353663421517825,0.152524657223044,0.6451581220979473,manual,85.0,0.0,0.0,0.0,0.0,0.7429423645332277,0.05222137056940396
1761040449.505283,0.7618367671966553,0.0,0.0,-0.0,0.0,0.0,-0.0,0.0,0.0,0.0,0.0,0.0,0.0,0.0,-0.3358447138246632,0.15460556750326523,0.922771835691645,manual,85.0,0.0,0.0,0.0,0.0,0.9940837057575709,0.016963996219368963
1761040449.614858,0.8714115619659424,0.0,0.0,-0.0,0.0,0.0,-0.0,0.0,0.0,0.0,0.0,0.0,0.0,0.0,-0.455960896791465,0.4333239381068768,0.8280360901881081,manual,85.0,0.0,0.0,0.0,0.0,1.0398623665626803,0.016431947635575973
1761040449.723762,0.9803156852722168,0.0,0.0,-0.0,0.0,0.0,-0.0,0.0,0.0,0.0,0.0,0.0,0.0,0.0,-0.4529302154533336,0.43788179452446535,0.9264014383225947,manual,85.0,0.0,0.0,0.0,0.0,1.120315076651538,0.07116100689564753
1761040449.834069,1.0906226634979248,0.0,0.0,-0.0,0.0,0.0,-0.0,0.0,0.0,0.0,0.0,0.0,0.0,0.0,-0.8204706467756743,0.8923280091264161,0.8564665659917187,manual,85.0,0.0,0.0,0.0,0.0,1.4842359437615213,0.037336506441223924
1761040449.945565,1.2021186351776123,0.0,0.0,-0.0,0.0,0.0,-0.0,0.0,0.0,0.0,0.0,0.0,0.0,0.0,-0.8183564925037075,0.895285558034766,0.9162602461499193,manual,85.0,0.0,0.0,0.0,0.0,1.5201238166423496,0.010582647938326303
1761040450.055355,1.3119087219238281,0.0,0.0,-0.0,0.0,0.0,-0.0,0.0,0.0,0.0,0.0,0.0,0.0,0.0,-0.8162854627465067,0.8982170276832633,1.345459011586307,manual,85.0,0.0,0.0,0.0,0.0,1.8120087575313306,0.01901180573899967
1761040450.1570058,1.4135594367980957,0.0,0.0,-0.0,0.0,0.0,-0.0,0.0,0.0,0.0,0.0,0.0,0.0,0.0,-0.20009222944682947,0.5656628268937081,1.3153369526503011,manual,85.0,0.0,0.0,0.0,0.0,1.4457256423754006,0.01196829853744226
1761040450.2672806,1.523834228515625,0.0,0.0,-0.0,0.0,0.0,-0.0,0.0,0.0,0.0,0.0,0.0,0.0,0.0,-0.3890849232957699,0.29005213903783145,1.2286876269201399,manual,85.0,0.0,0.0,0.0,0.0,1.3210566246165005,0.03574961914100817
1761040450.3784268,1.6349804401397705,0.0,0.0,-0.0,0.0,0.0,-0.0,0.0,0.0,0.0,0.0,0.0,0.0,0.0,-0.4184929790834315,-0.0122613507516805,0.9345673889879295,manual,85.0,0.0,0.0,0.0,0.0,1.024061970206929,0.0231308918760796
1761040450.479227,1.7357807159423828,0.0,0.0,-0.0,0.0,0.0,-0.0,0.0,0.0,0.0,0.0,0.0,0.0,0.0,-0.2927774278149297,-0.5374619382748052,0.9016919533914873,manual,85.0,0.0,0.0,0.0,0.0,1.0897854541803138,0.03657232695910231
1761040450.5788672,1.835420846939087,0.0,0.0,-0.0,0.0,0.0,-0.0,0.0,0.0,0.0,0.0,0.0,0.0,0.0,-0.28906250012021106,-0.5360895021961033,0.9268222856788714,manual,85.0,0.0,0.0,0.0,0.0,1.109030492173962,0.01945522665296852
1761040450.6890686,1.945622205734253,0.0,0.0,-0.0,0.0,0.0,-0.0,0.0,0.0,0.0,0.0,0.0,0.0,0.0,-0.2849698367540415,-0.5345923469795812,0.9645870211482771,manual,85.0,0.0,0.0,0.0,0.0,1.1390456122019297,0.030071777617183396
1761040450.799932,2.056485652923584,0.0,0.0,-0.0,0.0,0.0,-0.0,0.0,0.0,0.0,0.0,0.0,0.0,0.0,-0.28077815088209096,-0.532919715783728,1.121866317177819,manual,85.0,0.0,0.0,0.0,0.0,1.2733514154002807,0.0546946899150721
1761040450.9092693,2.165822982788086,0.0,0.0,-0.0,0.0,0.0,-0.0,0.0,0.0,0.0,0.0,0.0,0.0,0.0,-0.21033680269613972,-0.03380640266414197,1.0628336513217094,manual,85.0,0.0,0.0,0.0,0.0,1.083974083551522,0.027813808192738276
1761040451.0196047,2.276158332824707,0.0,0.0,-0.0,0.0,0.0,-0.0,0.0,0.0,0.0,0.0,0.0,0.0,0.0,-0.12585359250947,-0.0682666937234561,0.9366761391131342,manual,85.0,0.0,0.0,0.0,0.0,0.9475556225379909,0.05129686788563126
1761040451.1290815,2.3856351375579834,0.0,0.0,-0.0,0.0,0.0,-0.0,0.0,0.0,0.0,0.0,0.0,0.0,0.0,0.46672874525989894,-0.486178951285966,0.8627346725661237,manual,85.0,0.0,0.0,0.0,0.0,1.0947679249837283,0.02919909926241091
1761040451.2387898,2.4953434467315674,0.0,0.0,-0.0,0.0,0.0,-0.0,0.0,0.0,0.0,0.0,0.0,0.0,0.0,0.98670428076141,0.21101092827873613,0.9461430555820058,manual,85.0,0.0,0.0,0.0,0.0,1.383220022683304,0.024462675702490756
1761040451.3490312,2.6055848598480225,0.0,0.0,-0.0,0.0,0.0,-0.0,0.0,0.0,0.0,0.0,0.0,0.0,0.0,0.9900727911635302,0.21015475331573713,0.8916040460291732,manual,85.0,0.0,0.0,0.0,0.0,1.3488391034660634,0.04435030497516802
1761040451.4591956,2.7157492637634277,0.0,0.0,-0.0,0.0,0.0,-0.0,0.0,0.0,0.0,0.0,0.0,0.0,0.0,0.993563393141572,0.2092794703311587,0.9966181095937743,manual,85.0,0.0,0.0,0.0,0.0,1.4227486669343088,0.03786075231335432
1761040451.5685835,2.825137138366699,0.0,0.0,-0.0,0.0,0.0,-0.0,0.0,0.0,0.0,0.0,0.0,0.0,0.0,0.48450181829930206,0.6519060358372989,0.8029551618695754,manual,85.0,0.0,0.0,0.0,0.0,1.1421298014978103,0.05169273728194453
1761040451.678688,2.93524169921875,0.0,0.0,-0.0,0.0,0.0,-0.0,0.0,0.0,0.0,0.0,0.0,0.0,0.0,0.4886940057020035,0.6557040647756952,1.0005841979913466,manual,85.0,0.0,0.0,0.0,0.0,1.2922609601169668,0.04565802306539518
1761040451.7891417,3.0456953048706055,0.0,0.0,-0.0,0.0,0.0,-0.0,0.0,0.0,0.0,0.0,0.0,0.0,0.0,0.01992046275491513,1.0891304427761248,0.751752435858081,manual,85.0,0.0,0.0,0.0,0.0,1.3235307593844,0.1010090921744529
1761040451.89045,3.147003650665283,0.0,0.0,-0.0,0.0,0.0,-0.0,0.0,0.0,0.0,0.0,0.0,0.0,0.0,0.19959189166574912,0.022291668715533418,0.7816279678106294,manual,85.0,0.0,0.0,0.0,0.0,0.8070168038997759,0.03741769331394133
1761040452.0013986,3.2579522132873535,0.0,0.0,-0.0,0.0,0.0,-0.0,0.0,0.0,0.0,0.0,0.0,0.0,0.0,-0.006860689657441857,-0.0631290021935288,0.9727467599758198,manual,85.0,0.0,0.0,0.0,0.0,0.9748172131348428,0.01707598250165308
1761040452.1102912,3.366844892501831,0.0,0.0,-0.0,0.0,0.0,-0.0,0.0,0.0,0.0,0.0,0.0,0.0,0.0,-0.09594090510215235,0.4320457940971806,0.8899029982898224,manual,85.0,0.0,0.0,0.0,0.0,0.9938790529204745,0.007545205444613941
1761040452.2194927,3.476046323776245,0.0,0.0,-0.0,0.0,0.0,-0.0,0.0,0.0,0.0,0.0,0.0,0.0,0.0,-0.09220599510375635,0.43489367066256396,0.9472690055754377,manual,85.0,0.0,0.0,0.0,0.0,1.0464000283062456,0.021174789831238768
1761040452.3289843,3.585537910461426,0.0,0.0,-0.0,0.0,0.0,-0.0,0.0,0.0,0.0,0.0,0.0,0.0,0.0,-0.04370642876270853,0.45914725568330284,1.0124165000768948,manual,85.0,0.0,0.0,0.0,0.0,1.1125257857437045,0.030580762610335953
1761040452.4389653,3.695518970489502,0.0,0.0,-0.0,0.0,0.0,-0.0,0.0,0.0,0.0,0.0,0.0,0.0,0.0,-0.038192307829276156,0.4625190710226013,1.0934285670459607,manual,85.0,0.0,0.0,0.0,0.0,1.1878419821967563,0.028794206296318993
1761040452.5491352,3.8056888580322266,0.0,0.0,-0.0,0.0,0.0,-0.0,0.0,0.0,0.0,0.0,0.0,0.0,0.0,0.0008120379785937295,-0.1947587455831352,1.0449181255909692,manual,85.0,0.0,0.0,0.0,0.0,1.0629136924394846,0.02993632914495809
1761040452.6590858,3.9156394004821777,0.0,0.0,-0.0,0.0,0.0,-0.0,0.0,0.0,0.0,0.0,0.0,0.0,0.0,0.2804288031197056,-0.025372485207403567,0.9611685661995738,manual,85.0,0.0,0.0,0.0,0.0,1.0015633226485956,0.08398484658138035
1761040452.7680907,4.024644374847412,0.0,0.0,-0.0,0.0,0.0,-0.0,0.0,0.0,0.0,0.0,0.0,0.0,0.0,0.3228634490809108,0.20488040259857399,0.9280893159082492,manual,85.0,0.0,0.0,0.0,0.0,1.0037761525481752,0.0165382659006106
1761040452.8780649,4.134618520736694,0.0,0.0,-0.0,0.0,0.0,-0.0,0.0,0.0,0.0,0.0,0.0,0.0,0.0,0.08444447663097385,0.06376889605940227,0.7795492964517841,manual,85.0,0.0,0.0,0.0,0.0,0.7866984475239451,0.021814063170461757
1761040452.9870622,4.2436158657073975,0.0,0.0,-0.0,0.0,0.0,-0.0,0.0,0.0,0.0,0.0,0.0,0.0,0.0,-0.08885515879333014,0.18520914313214057,1.174165567731715,manual,85.0,0.0,0.0,0.0,0.0,1.1919993483180562,0.08656896949612254
1761040453.0969186,4.3534722328186035,0.0,0.0,-0.0,0.0,0.0,-0.0,0.0,0.0,0.0,0.0,0.0,0.0,0.0,-0.08783939106592421,0.18909942732598664,0.9877382886563673,manual,85.0,0.0,0.0,0.0,0.0,1.0095054625486963,0.01470477124845427
1761040453.2068493,4.463402986526489,0.0,0.0,-0.0,0.0,0.0,-0.0,0.0,0.0,0.0,0.0,0.0,0.0,0.0,-0.08659638053153595,0.19302993300446067,0.8899003542001567,manual,85.0,0.0,0.0,0.0,0.0,0.9147033008371804,0.04083997700219606
1761040453.3161807,4.572734355926514,0.0,0.0,-0.0,0.0,0.0,-0.0,0.0,0.0,0.0,0.0,0.0,0.0,0.0,-0.0853608554205351,0.19691733373424075,0.989992131849861,manual,85.0,0.0,0.0,0.0,0.0,1.0129893055149992,0.026122197339120603
1761040453.4249125,4.681466102600098,0.0,0.0,-0.0,0.0,0.0,-0.0,0.0,0.0,0.0,0.0,0.0,0.0,0.0,-0.0839143337309708,0.20069635168395417,1.1453956213912417,manual,85.0,0.0,0.0,0.0,0.0,1.1658695340761722,0.01798322592817079
1761040453.5351632,4.791716814041138,0.0,0.0,-0.0,0.0,0.0,-0.0,0.0,0.0,0.0,0.0,0.0,0.0,0.0,0.7229721342643991,-0.9807331056961084,1.1800174158334464,manual,85.0,0.0,0.0,0.0,0.0,1.696162502003095,0.03198505477791157
1761040453.6443918,4.900945425033569,0.0,0.0,-0.0,0.0,0.0,-0.0,0.0,0.0,0.0,0.0,0.0,0.0,0.0,-0.03320176074663821,-1.0533723009488944,1.1450547489242104,manual,85.0,0.0,0.0,0.0,0.0,1.5562281128924937,0.022372737143645065
1761040453.753712,5.010265588760376,0.0,0.0,-0.0,0.0,0.0,-0.0,0.0,0.0,0.0,0.0,0.0,0.0,0.0,-0.0331475283612825,-1.0512706353755557,1.2398822591254577,manual,85.0,0.0,0.0,0.0,0.0,1.6259079690847928,0.04237850430940424
1761040453.8636649,5.120218515396118,0.0,0.0,-0.0,0.0,0.0,-0.0,0.0,0.0,0.0,0.0,0.0,0.0,0.0,0.09945645680080674,-1.3130003556814862,1.1560718666950869,manual,85.0,0.0,0.0,0.0,0.0,1.7522453257985717,0.04099942423962428
1761040453.9650705,5.221624135971069,0.0,0.0,-0.0,0.0,0.0,-0.0,0.0,0.0,0.0,0.0,0.0,0.0,0.0,0.19751749503226354,-0.7119233241720341,1.1299241311778832,manual,85.0,0.0,0.0,0.0,0.0,1.3500283413921625,0.013912745735282457
1761040454.073306,5.329859733581543,0.0,0.0,-0.0,0.0,0.0,-0.0,0.0,0.0,0.0,0.0,0.0,0.0,0.0,0.5272916784664227,-0.836462606385562,1.1690490213125044,manual,85.0,0.0,0.0,0.0,0.0,1.5311374269780584,0.09593784805303207
1761040454.1821053,5.438658952713013,0.0,0.0,-0.0,0.0,0.0,-0.0,0.0,0.0,0.0,0.0,0.0,0.0,0.0,0.5275370033522186,-1.3621924731377877,1.1653534656128544,manual,85.0,0.0,0.0,0.0,0.0,1.8686659208095415,0.03270920121077979
1761040454.2906508,5.547204494476318,0.0,0.0,-0.0,0.0,0.0,-0.0,0.0,0.0,0.0,0.0,0.0,0.0,0.0,0.2289763519491175,-0.9263821355199076,0.9226028615936053,manual,85.0,0.0,0.0,0.0,0.0,1.3273319370010876,0.022024733396549274
1761040454.3914437,5.6479973793029785,0.0,0.0,-0.0,0.0,0.0,-0.0,0.0,0.0,0.0,0.0,0.0,0.0,0.0,0.35937501101615676,-1.1796159586531443,0.7356223691354234,manual,85.0,0.0,0.0,0.0,0.0,1.4358915273879336,0.022317038569721656
1761040454.4927595,5.749313116073608,0.0,0.0,-0.0,0.0,0.0,-0.0,0.0,0.0,0.0,0.0,0.0,0.0,0.0,0.31563773816761587,-1.4945097338225386,0.9075124244315681,manual,85.0,0.0,0.0,0.0,0.0,1.776728827577114,0.03474029432389807
1761040454.5929544,5.849508047103882,0.0,0.0,-0.0,0.0,0.0,-0.0,0.0,0.0,0.0,0.0,0.0,0.0,0.0,-0.023887467597021015,-1.482716034335059,0.9708775459875464,manual,85.0,0.0,0.0,0.0,0.0,1.7724617510359095,0.024112742630298816
1761040454.7559993,6.012552976608276,0.0,0.0,-0.0,0.0,0.0,-0.0,0.0,0.0,0.0,0.0,0.0,0.0,0.0,-0.18488007564660067,-1.149925204646909,1.5609995462243238,manual,85.0,0.0,0.0,0.0,0.0,1.9476211648998563,0.021728906547870606
1761040454.8619642,6.118517875671387,0.0,0.0,-0.0,0.0,0.0,-0.0,0.0,0.0,0.0,0.0,0.0,0.0,0.0,-0.06672342948023953,-1.1748940209477485,1.4127903606438892,manual,85.0,0.0,0.0,0.0,0.0,1.8386964348768025,0.022842834974590356
1761040454.9620647,6.218618392944336,0.0,0.0,-0.0,0.0,0.0,-0.0,0.0,0.0,0.0,0.0,0.0,0.0,0.0,-0.08250503168515821,-1.2176562613557032,1.3957635908811363,manual,85.0,0.0,0.0,0.0,0.0,1.8540900336017994,0.05205826818928762
1761040455.0728314,6.329385042190552,0.0,0.0,-0.0,0.0,0.0,-0.0,0.0,0.0,0.0,0.0,0.0,0.0,0.0,-0.2238154525970759,-1.2867748377590127,1.1473632795541973,manual,85.0,0.0,0.0,0.0,0.0,1.7384836309785405,0.018238912859062876
1761040455.1774802,6.4340338706970215,0.0,0.0,-0.0,0.0,0.0,-0.0,0.0,0.0,0.0,0.0,0.0,0.0,0.0,0.30307012091153296,-0.7946869512355773,1.0440386639199672,manual,85.0,0.0,0.0,0.0,0.0,1.346623770922383,0.019242514332213793
1761040455.2883117,6.544865369796753,0.0,0.0,-0.0,0.0,0.0,-0.0,0.0,0.0,0.0,0.0,0.0,0.0,0.0,0.39417725186666164,-0.7188093100756788,0.8622121425001505,manual,85.0,0.0,0.0,0.0,0.0,1.1897362349761929,0.01805639719028651
1761040455.3892574,6.645811080932617,0.0,0.0,-0.0,0.0,0.0,-0.0,0.0,0.0,0.0,0.0,0.0,0.0,0.0,0.5225899086490666,-0.7778292000399584,0.7720878958233192,manual,85.0,0.0,0.0,0.0,0.0,1.2141821098721237,0.06500844613717507
1761040455.489249,6.745802640914917,0.0,0.0,-0.0,0.0,0.0,-0.0,0.0,0.0,0.0,0.0,0.0,0.0,0.0,0.4270231289609433,-1.1022852610007934,0.582226048689185,manual,85.0,0.0,0.0,0.0,0.0,1.3177134442128922,0.06201088702696367
1761040455.5992908,6.855844497680664,0.0,0.0,-0.0,0.0,0.0,-0.0,0.0,0.0,0.0,0.0,0.0,0.0,0.0,0.192021044327058,-0.6040404325938815,0.6008622186464735,manual,85.0,0.0,0.0,0.0,0.0,0.8733683824534868,0.0413751592218256
1761040455.7101684,6.966722011566162,0.0,0.0,-0.0,0.0,0.0,-0.0,0.0,0.0,0.0,0.0,0.0,0.0,0.0,0.18766576098526008,-0.6052672085568177,0.8684984684407043,manual,85.0,0.0,0.0,0.0,0.0,1.0751076324183493,0.06406894097064122
1761040455.8097863,7.06633996963501,0.0,0.0,-0.0,0.0,0.0,-0.0,0.0,0.0,0.0,0.0,0.0,0.0,0.0,0.6646097713701388,-0.728631826712662,1.14394929824972,manual,85.0,0.0,0.0,0.0,0.0,1.5103742860845206,0.053043209922732024
1761040455.9212172,7.1777708530426025,0.0,0.0,-0.0,0.0,0.0,-0.0,0.0,0.0,0.0,0.0,0.0,0.0,0.0,-0.17465232462160526,-0.0841114539727719,1.00983004145525,manual,85.0,0.0,0.0,0.0,0.0,1.0282679046876142,0.08478661099075467
1761040456.0303626,7.286916255950928,0.0,0.0,-0.0,0.0,0.0,-0.0,0.0,0.0,0.0,0.0,0.0,0.0,0.0,-0.3605940713979624,0.509652021461094,0.9000379923354074,manual,85.0,0.0,0.0,0.0,0.0,1.0953728383312638,0.023666264436664173
1761040456.130481,7.38703465461731,0.0,0.0,-0.0,0.0,0.0,-0.0,0.0,0.0,0.0,0.0,0.0,0.0,0.0,-0.09159340458303837,0.48593228779300873,0.8085517911524127,manual,85.0,0.0,0.0,0.0,0.0,0.9477739915500079,0.055500609435551004
1761040456.2411637,7.497717380523682,0.0,0.0,-0.0,0.0,0.0,-0.0,0.0,0.0,0.0,0.0,0.0,0.0,0.0,-0.10712971880434168,0.22989865267252807,0.6343351489067679,manual,85.0,0.0,0.0,0.0,0.0,0.683162680692024,0.04503202768053213
1761040456.3512468,7.607800483703613,0.0,0.0,-0.0,0.0,0.0,-0.0,0.0,0.0,0.0,0.0,0.0,0.0,0.0,-0.04780147990014723,0.34045776884538936,0.9685577567104681,manual,85.0,0.0,0.0,0.0,0.0,1.0277648573150568,0.0258122759013141
1761040456.4621158,7.718669414520264,0.0,0.0,-0.0,0.0,0.0,-0.0,0.0,0.0,0.0,0.0,0.0,0.0,0.0,-0.051192206499235546,0.3387749434650859,1.0629990378076777,manual,85.0,0.0,0.0,0.0,0.0,1.1168509563527629,0.03652581454693128
1761040456.5623133,7.818866968154907,0.0,0.0,-0.0,0.0,0.0,-0.0,0.0,0.0,0.0,0.0,0.0,0.0,0.0,0.5981666917587054,0.32425289717865274,0.8866505189549185,manual,85.0,0.0,0.0,0.0,0.0,1.1176280576387345,0.03212214308473614
1761040456.6734524,7.93000602722168,0.0,0.0,-0.0,0.0,0.0,-0.0,0.0,0.0,0.0,0.0,0.0,0.0,0.0,0.4868531376281924,0.29779040621707925,0.8317615903468079,manual,85.0,0.0,0.0,0.0,0.0,1.0087281332597002,0.026405602772469953
1761040456.7821834,8.038737058639526,0.0,0.0,-0.0,0.0,0.0,-0.0,0.0,0.0,0.0,0.0,0.0,0.0,0.0,0.6603330996036668,0.08498798542406039,0.9751959124312815,manual,85.0,0.0,0.0,0.0,0.0,1.1807920340692115,0.05921888839503217
1761040456.8831635,8.139717102050781,0.0,0.0,-0.0,0.0,0.0,-0.0,0.0,0.0,0.0,0.0,0.0,0.0,0.0,0.9316465064949223,0.33914612387480103,0.8748633475562582,manual,85.0,0.0,0.0,0.0,0.0,1.3222598773693608,0.06336804126259277
1761040456.9936442,8.250197887420654,0.0,0.0,-0.0,0.0,0.0,-0.0,0.0,0.0,0.0,0.0,0.0,0.0,0.0,0.9282379676398137,0.3412008552150141,1.0013991513266491,manual,85.0,0.0,0.0,0.0,0.0,1.4074246013358165,0.02900204246773333
1761040457.1046424,8.361196041107178,0.0,0.0,-0.0,0.0,0.0,-0.0,0.0,0.0,0.0,0.0,0.0,0.0,0.0,0.8405429805475232,0.19932521589520366,0.9518779572736678,manual,85.0,0.0,0.0,0.0,0.0,1.2854239337210405,0.03372244064590788
1761040457.2139914,8.470545053482056,0.0,0.0,-0.0,0.0,0.0,-0.0,0.0,0.0,0.0,0.0,0.0,0.0,0.0,0.7301665674263351,0.1933575008104004,1.0176182945721024,manual,85.0,0.0,0.0,0.0,0.0,1.2673110639281244,0.03438185002042098
1761040457.3239768,8.580530405044556,0.0,0.0,-0.0,0.0,0.0,-0.0,0.0,0.0,0.0,0.0,0.0,0.0,0.0,0.8224141561873961,0.10761825111560414,0.8814815490740355,manual,85.0,0.0,0.0,0.0,0.0,1.2103538547171109,0.015103066242416965
1761040457.4274163,8.683969974517822,0.0,0.0,-0.0,0.0,0.0,-0.0,0.0,0.0,0.0,0.0,0.0,0.0,0.0,0.6898307738880062,0.19578337658455083,1.1583635865062734,manual,85.0,0.0,0.0,0.0,0.0,1.362352313351231,0.02016383315012639
1761040457.5378547,8.794408321380615,0.0,0.0,-0.0,0.0,0.0,-0.0,0.0,0.0,0.0,0.0,0.0,0.0,0.0,0.7696867289868445,0.06465679883877669,0.9316797080053834,manual,85.0,0.0,0.0,0.0,0.0,1.21021702215906,0.04133856006153411
1761040457.6470916,8.903645277023315,0.0,0.0,-0.0,0.0,0.0,-0.0,0.0,0.0,0.0,0.0,0.0,0.0,0.0,0.4434411232369564,0.4382828294669991,0.8467792718219258,manual,85.0,0.0,0.0,0.0,0.0,1.051554565189331,0.027709444596390957
1761040457.7562099,9.012763500213623,0.0,0.0,-0.0,0.0,0.0,-0.0,0.0,0.0,0.0,0.0,0.0,0.0,0.0,0.2662474889205167,0.2875518446901814,0.7693370336696793,manual,85.0,0.0,0.0,0.0,0.0,0.8633963516930496,0.08139373529520298
1761040457.8574476,9.114001274108887,0.0,0.0,-0.0,0.0,0.0,-0.0,0.0,0.0,0.0,0.0,0.0,0.0,0.0,0.046435850874884665,0.3662332257989055,0.7647620764996642,manual,85.0,0.0,0.0,0.0,0.0,0.8492020357827841,0.06003693028380004
1761040457.9670422,9.22359585762024,0.0,0.0,-0.0,0.0,0.0,-0.0,0.0,0.0,0.0,0.0,0.0,0.0,0.0,0.15306554994430088,0.7028000696854061,0.8544402037394437,manual,85.0,0.0,0.0,0.0,0.0,1.1168818479570097,0.06764908987565604
1761040458.0765522,9.33310580253601,0.0,0.0,-0.0,0.0,0.0,-0.0,0.0,0.0,0.0,0.0,0.0,0.0,0.0,0.22610354866443602,0.2131690403817701,0.8972817993971213,manual,85.0,0.0,0.0,0.0,0.0,0.9495675236786858,0.03131456960338281
1761040458.1852732,9.441826820373535,0.0,0.0,-0.0,0.0,0.0,-0.0,0.0,0.0,0.0,0.0,0.0,0.0,0.0,0.2236253958826501,0.21220534253064247,0.8562149818249648,manual,85.0,0.0,0.0,0.0,0.0,0.9100239118747068,0.029008964380688347
1761040458.2958899,9.552443504333496,0.0,0.0,-0.0,0.0,0.0,-0.0,0.0,0.0,0.0,0.0,0.0,0.0,0.0,0.10491078257383622,-0.2396491981827503,0.8714175923584895,manual,85.0,0.0,0.0,0.0,0.0,0.9098387938320482,0.036844759418279326
1761040458.4072497,9.663803339004517,0.0,0.0,-0.0,0.0,0.0,-0.0,0.0,0.0,0.0,0.0,0.0,0.0,0.0,0.24234122410520115,-0.24191423096421102,0.9281283564210515,manual,85.0,0.0,0.0,0.0,0.0,0.9892795408966343,0.02700236844740506
1761040458.5071332,9.763686895370483,0.0,0.0,-0.0,0.0,0.0,-0.0,0.0,0.0,0.0,0.0,0.0,0.0,0.0,0.18861442996689243,-0.2459770981289237,1.0156437851746343,manual,85.0,0.0,0.0,0.0,0.0,1.0618909710321114,0.03147518104838441
1761040458.616967,9.873520612716675,0.0,0.0,-0.0,0.0,0.0,-0.0,0.0,0.0,0.0,0.0,0.0,0.0,0.0,0.18837270538111017,-0.24552292961603842,1.1577182806167357,manual,85.0,0.0,0.0,0.0,0.0,1.1983644697561804,0.03478891640187914
1761040458.7270846,9.983638286590576,0.0,0.0,-0.0,0.0,0.0,-0.0,0.0,0.0,0.0,0.0,0.0,0.0,0.0,-0.2242273399815898,-0.01714959682869946,1.1824565946214736,manual,85.0,0.0,0.0,0.0,0.0,1.2036509489176745,0.03524333791899694
1761040458.8371286,10.093682289123535,0.0,0.0,-0.0,0.0,0.0,-0.0,0.0,0.0,0.0,0.0,0.0,0.0,0.0,-0.2241215344156994,-0.0171982433663691,1.0892765257574286,manual,85.0,0.0,0.0,0.0,0.0,1.112227310998031,0.04470144710027099
1761040458.9474244,10.203978061676025,0.0,0.0,-0.0,0.0,0.0,-0.0,0.0,0.0,0.0,0.0,0.0,0.0,0.0,-0.2237404420656376,-0.01719268907803188,1.2514178515182892,manual,85.0,0.0,0.0,0.0,0.0,1.2713779977143351,0.034206681460824194
1761040459.0571852,10.313738822937012,0.0,0.0,-0.0,0.0,0.0,-0.0,0.0,0.0,0.0,0.0,0.0,0.0,0.0,-0.3304755639039012,0.17757640172472208,1.193062302094169,manual,85.0,0.0,0.0,0.0,0.0,1.2506578802635593,0.0694276342853028
1761040459.1658723,10.422425985336304,0.0,0.0,-0.0,0.0,0.0,-0.0,0.0,0.0,0.0,0.0,0.0,0.0,0.0,-0.3679833648941528,0.5297181023418287,1.1276052710937472,manual,85.0,0.0,0.0,0.0,0.0,1.2990406737996523,0.03496264801078601
1761040459.2769344,10.533488035202026,0.0,0.0,-0.0,0.0,0.0,-0.0,0.0,0.0,0.0,0.0,0.0,0.0,0.0,-0.19235164333879065,0.6133956329081821,0.8907989976505494,manual,85.0,0.0,0.0,0.0,0.0,1.0985336642002312,0.03475681682902565
1761040459.385931,10.642484664916992,0.0,0.0,-0.0,0.0,0.0,-0.0,0.0,0.0,0.0,0.0,0.0,0.0,0.0,0.12144970589789081,0.582162911446727,0.8957988555488182,manual,85.0,0.0,0.0,0.0,0.0,1.0752298712970108,0.03489329853548487
1761040459.496295,10.752848625183105,0.0,0.0,-0.0,0.0,0.0,-0.0,0.0,0.0,0.0,0.0,0.0,0.0,0.0,0.12477980445465175,0.5782165179547603,0.9223833922229039,manual,85.0,0.0,0.0,0.0,0.0,1.095762503229646,0.06672563907645473
1761040459.6053038,10.861857414245605,0.0,0.0,-0.0,0.0,0.0,-0.0,0.0,0.0,0.0,0.0,0.0,0.0,0.0,0.5190052984742817,0.27821195215599137,0.9225823164690516,manual,85.0,0.0,0.0,0.0,0.0,1.0944982964026153,0.041267988397167575
1761040459.7154331,10.971986770629883,0.0,0.0,-0.0,0.0,0.0,-0.0,0.0,0.0,0.0,0.0,0.0,0.0,0.0,0.6897087084116376,0.6497343145904116,0.9106730825976043,manual,85.0,0.0,0.0,0.0,0.0,1.3142215358846256,0.032776094680754014
1761040459.8247058,11.081259489059448,0.0,0.0,-0.0,0.0,0.0,-0.0,0.0,0.0,0.0,0.0,0.0,0.0,0.0,0.692782535409012,0.6477151709108548,0.8269039667717205,manual,85.0,0.0,0.0,0.0,0.0,1.258273719926878,0.03219445793626055
1761040459.925215,11.181768655776978,0.0,0.0,-0.0,0.0,0.0,-0.0,0.0,0.0,0.0,0.0,0.0,0.0,0.0,0.8574402134668807,0.4479524645687889,0.9663275042374858,manual,85.0,0.0,0.0,0.0,0.0,1.3673529082242193,0.037700985035285524
1761040460.0349252,11.291478872299194,0.0,0.0,-0.0,0.0,0.0,-0.0,0.0,0.0,0.0,0.0,0.0,0.0,0.0,0.9350666933399077,0.5414135707796043,0.8457910931834902,manual,85.0,0.0,0.0,0.0,0.0,1.3721665164718435,0.05025437606453776
1761040460.1445127,11.401066303253174,0.0,0.0,-0.0,0.0,0.0,-0.0,0.0,0.0,0.0,0.0,0.0,0.0,0.0,1.0980694465006287,0.13525025330646548,0.8654358488859227,manual,85.0,0.0,0.0,0.0,0.0,1.4046452751120326,0.031244024297930873
1761040460.2541304,11.5106840133667,0.0,0.0,-0.0,0.0,0.0,-0.0,0.0,0.0,0.0,0.0,0.0,0.0,0.0,0.5082582255482233,0.4221309933986833,0.872853089739187,manual,85.0,0.0,0.0,0.0,0.0,1.0947116130252903,0.029577355931486048
1761040460.3634481,11.620001792907715,0.0,0.0,-0.0,0.0,0.0,-0.0,0.0,0.0,0.0,0.0,0.0,0.0,0.0,0.8031095334573508,0.15315923652276597,1.024739846246584,manual,85.0,0.0,0.0,0.0,0.0,1.310928841298334,0.02053024732360928
1761040460.465431,11.721984624862671,0.0,0.0,-0.0,0.0,0.0,-0.0,0.0,0.0,0.0,0.0,0.0,0.0,0.0,0.6305139630851303,-0.05861049646913272,1.0042980200238345,manual,85.0,0.0,0.0,0.0,0.0,1.1872647392075069,0.026062062536082932
1761040460.5754194,11.8319730758667,0.0,0.0,-0.0,0.0,0.0,-0.0,0.0,0.0,0.0,0.0,0.0,0.0,0.0,0.628917763687222,-0.06210171173538771,0.8671204728444907,manual,85.0,0.0,0.0,0.0,0.0,1.0729828006579858,0.026852762934846515
1761040460.686241,11.942794561386108,0.0,0.0,-0.0,0.0,0.0,-0.0,0.0,0.0,0.0,0.0,0.0,0.0,0.0,0.6275257758336991,-0.06546129798508024,1.0172133733116218,manual,85.0,0.0,0.0,0.0,0.0,1.1969949154919524,0.026866479558302018
1761040460.7980103,12.054563999176025,0.0,0.0,-0.0,0.0,0.0,-0.0,0.0,0.0,0.0,0.0,0.0,0.0,0.0,0.6139312126937467,-0.09091450506028001,1.075377102654442,manual,85.0,0.0,0.0,0.0,0.0,1.2416170480721633,0.019537416561653666
1761040460.8988166,12.155370235443115,0.0,0.0,-0.0,0.0,0.0,-0.0,0.0,0.0,0.0,0.0,0.0,0.0,0.0,0.13011068630439848,0.3636018625553932,1.1221812434626,manual,85.0,0.0,0.0,0.0,0.0,1.186771186170114,0.024926337368215274
1761040461.0003426,12.256896257400513,0.0,0.0,-0.0,0.0,0.0,-0.0,0.0,0.0,0.0,0.0,0.0,0.0,0.0,0.33134318179766,0.5571038101652885,0.8089389225543177,manual,85.0,0.0,0.0,0.0,0.0,1.036597867954502,0.029030802487157965
1761040461.1092472,12.365800857543945,0.0,0.0,-0.0,0.0,0.0,-0.0,0.0,0.0,0.0,0.0,0.0,0.0,0.0,0.37065410870843524,0.5760550185604504,1.0015695677045766,manual,85.0,0.0,0.0,0.0,0.0,1.2134106690082538,0.060117466812936234
1761040461.2200537,12.476607322692871,0.0,0.0,-0.0,0.0,0.0,-0.0,0.0,0.0,0.0,0.0,0.0,0.0,0.0,0.3706847569959405,0.5777362134653327,0.9780627102238952,manual,85.0,0.0,0.0,0.0,0.0,1.1949029192988487,0.03870157844652066
1761040461.330139,12.586692571640015,0.0,0.0,-0.0,0.0,0.0,-0.0,0.0,0.0,0.0,0.0,0.0,0.0,0.0,0.5088619815877687,0.4309379368632697,1.1531103757037586,manual,85.0,0.0,0.0,0.0,0.0,1.3320328675708666,0.06239571221762358
1761040461.4394138,12.695967435836792,0.0,0.0,-0.0,0.0,0.0,-0.0,0.0,0.0,0.0,0.0,0.0,0.0,0.0,0.9368125407950695,0.4176104403940955,1.1412596359881495,manual,85.0,0.0,0.0,0.0,0.0,1.5344346754596194,0.05487256083030732
1761040461.5500746,12.806628227233887,0.0,0.0,-0.0,0.0,0.0,-0.0,0.0,0.0,0.0,0.0,0.0,0.0,0.0,0.369359598143413,0.5973388685985899,0.8773742179668516,manual,85.0,0.0,0.0,0.0,0.0,1.123844186278619,0.015542210707380806
1761040461.659837,12.916390657424927,0.0,0.0,-0.0,0.0,0.0,-0.0,0.0,0.0,0.0,0.0,0.0,0.0,0.0,0.7194530863340002,0.3514409189678089,0.7302453167537977,manual,85.0,0.0,0.0,0.0,0.0,1.0836889247386958,0.01824000500175923
1761040461.7691598,13.025713443756104,0.0,0.0,-0.0,0.0,0.0,-0.0,0.0,0.0,0.0,0.0,0.0,0.0,0.0,0.21563367475282122,0.3952279761729071,0.5768335336385256,manual,85.0,0.0,0.0,0.0,0.0,0.7317376308261354,0.027688253447016125
1761040461.879989,13.136542558670044,0.0,0.0,-0.0,0.0,0.0,-0.0,0.0,0.0,0.0,0.0,0.0,0.0,0.0,0.21725134816748806,0.3944937951814118,0.6559173239868143,manual,85.0,0.0,0.0,0.0,0.0,0.7956450456222601,0.04023387798528278
1761040461.9831398,13.239693403244019,0.0,0.0,-0.0,0.0,0.0,-0.0,0.0,0.0,0.0,0.0,0.0,0.0,0.0,0.21898434211857917,0.39372433802337614,0.8833263635943166,manual,85.0,0.0,0.0,0.0,0.0,0.991583814443243,0.026536201018522134
1761040462.0935094,13.35006308555603,0.0,0.0,-0.0,0.0,0.0,-0.0,0.0,0.0,0.0,0.0,0.0,0.0,0.0,0.11836931025122623,0.6243529458552277,0.9544355733349296,manual,85.0,0.0,0.0,0.0,0.0,1.1466364542672747,0.03396782184585201
1761040462.2033389,13.459892511367798,0.0,0.0,-0.0,0.0,0.0,-0.0,0.0,0.0,0.0,0.0,0.0,0.0,0.0,0.12319548603742252,0.62203574821129,1.2317255974058017,manual,85.0,0.0,0.0,0.0,0.0,1.3853712668947105,0.03401848411619112
1761040462.312267,13.568820714950562,0.0,0.0,-0.0,0.0,0.0,-0.0,0.0,0.0,0.0,0.0,0.0,0.0,0.0,0.12825729955261705,0.6197501925859876,1.173999936100597,manual,85.0,0.0,0.0,0.0,0.0,1.333722642104836,0.027736460951265512
1761040462.4222708,13.678824424743652,0.0,0.0,-0.0,0.0,0.0,-0.0,0.0,0.0,0.0,0.0,0.0,0.0,0.0,0.1336244959842821,0.6173327653254828,1.4577942890368727,manual,85.0,0.0,0.0,0.0,0.0,1.5887477578961307,0.04052060467411164
1761040462.536142,13.792695760726929,0.0,0.0,-0.0,0.0,0.0,-0.0,0.0,0.0,0.0,0.0,0.0,0.0,0.0,-0.23100352994650555,0.30437173903114734,1.2612247272261017,manual,85.0,0.0,0.0,0.0,0.0,1.3178363323778661,0.05327942758623176
1761040462.6463623,13.902915954589844,0.0,0.0,-0.0,0.0,0.0,-0.0,0.0,0.0,0.0,0.0,0.0,0.0,0.0,-0.0009862367066831475,-0.12800818354964671,1.3597065060869784,manual,85.0,0.0,0.0,0.0,0.0,1.3657191696735387,0.025085990473947276
1761040462.7559574,14.012511014938354,0.0,0.0,-0.0,0.0,0.0,-0.0,0.0,0.0,0.0,0.0,0.0,0.0,0.0,-0.20942439797055862,0.12706303462918217,1.3852843750272428,manual,85.0,0.0,0.0,0.0,0.0,1.4067751749761317,0.05574619560950018
1761040462.8658192,14.12237286567688,0.0,0.0,-0.0,0.0,0.0,-0.0,0.0,0.0,0.0,0.0,0.0,0.0,0.0,0.008800755015924384,-0.13568883386073727,1.2927875018774002,manual,85.0,0.0,0.0,0.0,0.0,1.2999186274277887,0.04039809268849642
1761040462.9751408,14.231694459915161,0.0,0.0,-0.0,0.0,0.0,-0.0,0.0,0.0,0.0,0.0,0.0,0.0,0.0,0.011865534812344293,-0.1400789506612316,1.224169177218731,manual,85.0,0.0,0.0,0.0,0.0,1.2322147044192906,0.032457454724509026
1761040463.0862918,14.342845439910889,0.0,0.0,-0.0,0.0,0.0,-0.0,0.0,0.0,0.0,0.0,0.0,0.0,0.0,0.47382022479797514,0.38234243111962884,1.1793400298724908,manual,85.0,0.0,0.0,0.0,0.0,1.3272280309433337,0.06636736598230862
1761040463.1951542,14.45170783996582,0.0,0.0,-0.0,0.0,0.0,-0.0,0.0,0.0,0.0,0.0,0.0,0.0,0.0,0.42945139119183784,0.632200986892539,1.2398829051542843,manual,85.0,0.0,0.0,0.0,0.0,1.4565082230177533,0.04900716587285583
1761040463.3048608,14.56141448020935,0.0,0.0,-0.0,0.0,0.0,-0.0,0.0,0.0,0.0,0.0,0.0,0.0,0.0,1.399300266772978,0.15314212281126302,1.2328347612213082,manual,85.0,0.0,0.0,0.0,0.0,1.8711962202948325,0.02455052747170486
1761040463.413493,14.67004656791687,0.0,0.0,-0.0,0.0,0.0,-0.0,0.0,0.0,0.0,0.0,0.0,0.0,0.0,1.4015194286416486,0.15238848598408442,1.0201345317512318,manual,85.0,0.0,0.0,0.0,0.0,1.7401590221562624,0.029543246021944674
1761040463.5233579,14.779911518096924,0.0,0.0,-0.0,0.0,0.0,-0.0,0.0,0.0,0.0,0.0,0.0,0.0,0.0,0.9449495871353806,0.9150104675092502,1.2033891553462226,manual,85.0,0.0,0.0,0.0,0.0,1.7827841532512334,0.030182797513823908
1761040463.6346998,14.891253471374512,0.0,0.0,-0.0,0.0,0.0,-0.0,0.0,0.0,0.0,0.0,0.0,0.0,0.0,0.7291304716541473,0.7039041762425411,1.200953479908347,manual,85.0,0.0,0.0,0.0,0.0,1.571432975004107,0.0537003330294689
1761040463.744504,15.001057624816895,0.0,0.0,-0.0,0.0,0.0,-0.0,0.0,0.0,0.0,0.0,0.0,0.0,0.0,1.004298932619551,0.28586238863661706,1.2636438568913892,manual,85.0,0.0,0.0,0.0,0.0,1.6392466099879992,0.06252117510957561
1761040463.8542368,15.110790491104126,0.0,0.0,-0.0,0.0,0.0,-0.0,0.0,0.0,0.0,0.0,0.0,0.0,0.0,1.0062795914906757,0.28650627246025423,1.3746573095130081,manual,85.0,0.0,0.0,0.0,0.0,1.7275321065054776,0.04039479006198477
1761040463.9649045,15.221458196640015,0.0,0.0,-0.0,0.0,0.0,-0.0,0.0,0.0,0.0,0.0,0.0,0.0,0.0,0.8182052337951896,-0.5310292233029813,1.4603695428888708,manual,85.0,0.0,0.0,0.0,0.0,1.7561694230367006,0.019864110354375537
1761040464.0680053,15.324558973312378,0.0,0.0,-0.0,0.0,0.0,-0.0,0.0,0.0,0.0,0.0,0.0,0.0,0.0,0.4254191396573765,-0.9122369311564299,1.2357610389392342,manual,85.0,0.0,0.0,0.0,0.0,1.5938202559613486,0.05423756022917935
1761040464.1776392,15.434192895889282,0.0,0.0,-0.0,0.0,0.0,-0.0,0.0,0.0,0.0,0.0,0.0,0.0,0.0,0.4856398789997842,-0.6361030541055959,1.0339367537735988,manual,85.0,0.0,0.0,0.0,0.0,1.30747787679994,0.02962589813111844
1761040464.2880201,15.544573783874512,0.0,0.0,-0.0,0.0,0.0,-0.0,0.0,0.0,0.0,0.0,0.0,0.0,0.0,0.48734010381636145,-0.6333993857059848,0.9937118980946388,manual,85.0,0.0,0.0,0.0,0.0,1.2752091965694532,0.12040773149854819
1761040464.3974097,15.653963327407837,0.0,0.0,-0.0,0.0,0.0,-0.0,0.0,0.0,0.0,0.0,0.0,0.0,0.0,0.489144210605755,-0.6307169252270935,1.1487603491538516,manual,85.0,0.0,0.0,0.0,0.0,1.3988267363491182,0.01984031296815203
1761040464.5056384,15.762192010879517,0.0,0.0,-0.0,0.0,0.0,-0.0,0.0,0.0,0.0,0.0,0.0,0.0,0.0,-0.3208301268064809,-0.6780336651181504,0.8647427275166217,manual,85.0,0.0,0.0,0.0,0.0,1.1447452144879668,0.021111668233894595
1761040464.6161673,15.872720956802368,0.0,0.0,-0.0,0.0,0.0,-0.0,0.0,0.0,0.0,0.0,0.0,0.0,0.0,-0.2104314095226168,-0.18540531324770318,0.9471578947034387,manual,85.0,0.0,0.0,0.0,0.0,0.9878079701000617,0.015600692924512534
1761040464.7262497,15.982803344726562,0.0,0.0,-0.0,0.0,0.0,-0.0,0.0,0.0,0.0,0.0,0.0,0.0,0.0,0.12889299207940175,0.2580520469740048,1.0152828852603166,manual,85.0,0.0,0.0,0.0,0.0,1.055463689312507,0.07811794518325724
1761040464.836244,16.09279775619507,0.0,0.0,-0.0,0.0,0.0,-0.0,0.0,0.0,0.0,0.0,0.0,0.0,0.0,0.13307497252326825,0.259472682515141,0.9811490755133816,manual,85.0,0.0,0.0,0.0,0.0,1.023566573147265,0.01910816479803171
1761040464.9451425,16.201696157455444,0.0,0.0,-0.0,0.0,0.0,-0.0,0.0,0.0,0.0,0.0,0.0,0.0,0.0,0.3309752125298831,0.4121139900355866,0.8609399358093174,manual,85.0,0.0,0.0,0.0,0.0,1.010247546477399,0.04194132731620843
1761040465.0553827,16.311936378479004,0.0,0.0,-0.0,0.0,0.0,-0.0,0.0,0.0,0.0,0.0,0.0,0.0,0.0,0.4003511376401197,0.35054311895102963,0.852622394011338,manual,85.0,0.0,0.0,0.0,0.0,1.0050504755599488,0.017888081462214794
1761040465.1651719,16.421725511550903,0.0,0.0,-0.0,0.0,0.0,-0.0,0.0,0.0,0.0,0.0,0.0,0.0,0.0,0.4132431881427022,0.43344177347068197,0.891389575711631,manual,85.0,0.0,0.0,0.0,0.0,1.0738794528358926,0.05348683790428523
1761040465.2745132,16.53106689453125,0.0,0.0,-0.0,0.0,0.0,-0.0,0.0,0.0,0.0,0.0,0.0,0.0,0.0,0.19920373649998963,0.514244092624259,0.9938495672307212,manual,85.0,0.0,0.0,0.0,0.0,1.1366028671964525,0.04270798575529397
1761040465.3831444,16.639698028564453,0.0,0.0,-0.0,0.0,0.0,-0.0,0.0,0.0,0.0,0.0,0.0,0.0,0.0,0.20033499204488925,0.5108208904945547,1.0013359366442567,manual,85.0,0.0,0.0,0.0,0.0,1.141816863257198,0.044240181037565426
1761040465.493388,16.74994158744812,0.0,0.0,-0.0,0.0,0.0,-0.0,0.0,0.0,0.0,0.0,0.0,0.0,0.0,-0.22507774817035925,0.38738285787506554,0.8793334269285276,manual,85.0,0.0,0.0,0.0,0.0,0.9868904432665061,0.02231126012921368
1761040465.6032162,16.859769821166992,0.0,0.0,-0.0,0.0,0.0,-0.0,0.0,0.0,0.0,0.0,0.0,0.0,0.0,-0.09892346200085056,0.1227144214648689,0.8724084795841317,manual,85.0,0.0,0.0,0.0,0.0,0.8865332683097615,0.040894432391077734
1761040465.7133977,16.969951391220093,0.0,0.0,-0.0,0.0,0.0,-0.0,0.0,0.0,0.0,0.0,0.0,0.0,0.0,-0.10155178961380483,0.5031755338124202,0.6980382114246438,manual,85.0,0.0,0.0,0.0,0.0,0.8664616139276432,0.05411678661398589
1761040465.8228707,17.079424381256104,0.0,0.0,-0.0,0.0,0.0,-0.0,0.0,0.0,0.0,0.0,0.0,0.0,0.0,-0.15898257229924087,-0.05753331206050938,0.8069782925959419,manual,85.0,0.0,0.0,0.0,0.0,0.8244995482185523,0.033968379902123605
1761040465.9318364,17.188390016555786,0.0,0.0,-0.0,0.0,0.0,-0.0,0.0,0.0,0.0,0.0,0.0,0.0,0.0,-0.15947529273519087,-0.057714080559428386,0.8701830484766885,manual,85.0,0.0,0.0,0.0,0.0,0.8865561583701158,0.01959413374687347
1761040466.0419617,17.29851531982422,0.0,0.0,-0.0,0.0,0.0,-0.0,0.0,0.0,0.0,0.0,0.0,0.0,0.0,-0.16021883016519498,-0.05764722846093188,1.0063659624365586,manual,85.0,0.0,0.0,0.0,0.0,1.020669254381453,0.02979552557553508
1761040466.145225,17.40177869796753,0.0,0.0,-0.0,0.0,0.0,-0.0,0.0,0.0,0.0,0.0,0.0,0.0,0.0,0.275810615661987,-0.23872943292242058,0.8637162264122602,manual,85.0,0.0,0.0,0.0,0.0,0.9375867733832104,0.057139765351841544
1761040466.2547932,17.5113468170166,0.0,0.0,-0.0,0.0,0.0,-0.0,0.0,0.0,0.0,0.0,0.0,0.0,0.0,0.273338724313002,-0.23831272826800076,0.8402831263815387,manual,85.0,0.0,0.0,0.0,0.0,0.9151954693644031,0.021713351960209435
1761040466.3646865,17.62124013900757,0.0,0.0,-0.0,0.0,0.0,-0.0,0.0,0.0,0.0,0.0,0.0,0.0,0.0,0.17710494731709064,-0.1962250619434308,1.053770303869824,manual,85.0,0.0,0.0,0.0,0.0,1.0864171807444847,0.042052414201972615
1761040466.4747422,17.731295824050903,0.0,0.0,-0.0,0.0,0.0,-0.0,0.0,0.0,0.0,0.0,0.0,0.0,0.0,0.5118958489447859,-0.2585848914977206,1.0097494275477026,manual,85.0,0.0,0.0,0.0,0.0,1.1612482132217488,0.03534292055748171
