timestamp,simulation_time,position_x,position_y,position_z,velocity_x,velocity_y,velocity_z,attitude_roll,attitude_pitch,attitude_yaw,control_throttle,control_roll,control_pitch,control_yaw,estimated_position_x,estimated_position_y,estimated_position_z,flight_mode,battery_level,setpoint_altitude,setpoint_position_x,setpoint_position_y,setpoint_position_z,position_error,attitude_error
1761039429.5189688,0.10548043251037598,3.318081829507707e-05,-5.2581959893307475e-05,9.974892555098835,0.0011934140496238184,-0.0016760328819202725,-0.4768566581683958,-0.005770267285284248,-0.005048670109928354,0.003438762084761509,0.62,0.005153952404954906,0.00826409223886932,-0.09376549723535388,0.07558027193887615,0.030514582932649133,-1.7481315977589797,stabilize,85.0,10.0,0.0,0.0,-10.0,8.252270938667834,0.04389135442543331
1761039429.6287081,0.21521973609924316,0.00029631719844708357,-0.0004348226277377526,9.895928030957714,0.0029946230659153254,-0.0060322460764131525,-0.9676319794062048,-0.012155839733621008,0.0012391399563621236,-0.004122702152469131,0.62,0.0016444657997589937,-0.005256601869414442,-0.15,0.12637941336148217,0.01869329411800522,3.659903826314111,stabilize,85.0,10.0,0.0,0.0,-10.0,13.660501225779289,0.12323327490127715
1761039429.7376769,0.3241884708404541,0.0005917325694227685,-0.0014962041400948742,9.763496529797722,0.002893145397126097,-0.013083781526906372,-1.4629691987727556,-0.010612132472727165,-0.0002873188964049823,-0.02319748876647274,0.62,-0.014361360181227696,0.019212106546074345,0.044285273174408196,-0.052220596810525724,0.036782065331351484,6.037005469128171,stabilize,85.0,10.0,0.0,0.0,-10.0,16.0371326716439,0.012281940975454335
1761039429.8442194,0.43073105812072754,0.0006782764739472712,-0.0033228529016247764,9.581107156623775,-0.0022790426682905403,-0.021054150025067865,-1.9443867782918114,-0.008670741503344246,0.008924440591035426,-0.035980459790010154,0.62,0.0016387374158104181,-0.007092727354085808,0.07428806585763331,-0.05236283117412869,0.037461737558055125,7.946365576461903,stabilize,85.0,10.0,0.0,0.0,-10.0,17.94648106598857,0.029035826365941257
1761039429.9521317,0.5386433601379395,0.000286797583174237,-0.005728387411491934,9.34647078140318,-0.0052284915607854025,-0.023885075727979585,-2.4260365879542287,-0.007649826157137944,0.011241099029252742,-0.03869831201322583,0.62,-0.0009200839068560724,-0.0035864212782273355,0.005658994999705125,-0.022360766326572468,0.06325471276745671,8.086075874499237,stabilize,85.0,10.0,0.0,0.0,-10.0,18.086200311306445,0.008825674175941918
1761039430.0588367,0.645348310470581,-0.0006903803976364493,-0.00859787248542211,9.06066644394737,-0.012026191130214891,-0.0306642781437443,-2.904498502841638,-0.015539575555462455,0.0032351185921952147,-0.04084979283413169,0.62,0.010547969348863189,0.018041738782303765,-0.007347548952633315,-0.045378062967928616,-0.14129333039701417,8.643806473874863,stabilize,85.0,10.0,0.0,0.0,-10.0,18.644397088914182,0.0077011035752034655
1761039430.1659954,0.7525069713592529,-0.0021658860657295304,-0.012267174469743155,8.724068194329238,-0.016852920926801428,-0.0378797644184887,-3.3771783832971742,-0.015382911392776855,0.013184323330848386,-0.04253833249091177,0.62,0.024739108478315404,-0.011539989728787194,-0.05763104953691046,-0.1121334457535985,0.07107355658415448,8.642328595020523,stabilize,85.0,10.0,0.0,0.0,-10.0,18.642801313236752,0.0275870096484713
1761039430.2715032,0.8580148220062256,-0.004244293571532167,-0.01651395881172013,8.343346708380412,-0.02155120522801967,-0.04100867606076433,-3.8360756235764546,-0.00092471019693377,0.005534449618617831,-0.04778528957960835,0.62,-0.039995308942069534,0.007571161341837822,0.15,-0.09455601239542807,-0.30611050589650834,8.30401079146068,stabilize,85.0,10.0,0.0,0.0,-10.0,18.306814456240314,0.09713773555142981
1761039430.3798661,0.9663777351379395,-0.006887432735090916,-0.02129755092086271,7.902285761769978,-0.027753371034684542,-0.0493935768335252,-4.305057420323879,-0.019756148421936633,0.009121926299724744,-0.04225200894686657,0.62,0.021677161653968893,0.004193015609858064,0.0059792535992252305,-0.23637054524961382,-0.26079420538513365,7.743840475153846,stabilize,85.0,10.0,0.0,0.0,-10.0,17.747331051736538,0.025673379321210242
1761039430.4889147,1.0754263401031494,-0.01015871072963793,-0.027017924293422226,7.4074869849305465,-0.03173371970291723,-0.054206179454970325,-4.7677969958551225,-0.007497251322894249,0.002722265163850043,-0.03160184604466367,0.62,-0.003309770871333706,-0.004041702226855391,0.059154291454845735,-0.1406771876566472,-0.18716672734585246,7.730289122970842,stabilize,85.0,10.0,0.0,0.0,-10.0,17.731835038683684,0.05988697228150541
1761039430.597606,1.1841175556182861,-0.013537019432220052,-0.0332869364696049,6.8642505124866,-0.029887228972877853,-0.0605291931686938,-5.226905792358592,-0.0007706482940835753,-0.0027841432463765756,-0.014874728032452324,0.62,-0.017595066893741813,-0.006883815800498218,-0.07274285134099223,-0.05827313400487527,0.01570642721009089,7.28925200074591,stabilize,85.0,10.0,0.0,0.0,-10.0,17.289357338990335,0.013668484593486158
1761039430.7049253,1.2914369106292725,-0.01664840715037303,-0.03978723403680521,6.279396280230892,-0.028036183647106333,-0.062330415050617635,-5.669757780971615,-0.012823338866712906,-0.0020220814752136803,-0.00419187032946507,0.62,0.029431765160803463,-0.0087492908349698,0.0006323967300333622,0.16967136049630524,0.1864874745308871,6.896931062823326,stabilize,85.0,10.0,0.0,0.0,-10.0,16.898811949084866,0.007560919772581216
1761039430.8124635,1.398975133895874,-0.01950822735013419,-0.04672083614110791,5.646034926959196,-0.024379279436536956,-0.06595784962369285,-6.108038846665944,-0.009913678114126453,-0.006190170382597501,-0.002836947799907354,0.62,-0.007775881173574618,0.011476174421749384,0.05855535147349413,0.1656644339093856,0.1875181844249733,6.931651453925829,stabilize,85.0,10.0,0.0,0.0,-10.0,16.933500191377483,0.024506354453617343
1761039430.9225357,1.509047269821167,-0.02230079709567386,-0.054330722906697757,4.9526175500147875,-0.028189855425327016,-0.07190608734814456,-6.547571126366671,-0.0028103211803146675,0.006084830003554503,0.005126119271686068,0.62,-0.025088834558031986,-0.008233303456957067,-0.08440488617088203,-0.18633437428256752,0.3203675143326795,5.82302933977851,stabilize,85.0,10.0,0.0,0.0,-10.0,15.827369122212653,0.032605387126684926
1761039431.0312035,1.6177151203155518,-0.025359838239874567,-0.06234719123015574,4.214327696068881,-0.028206065550009915,-0.07648012106235996,-6.97496895177392,-0.013462389080004867,0.00882910973184913,0.017424079353842603,0.62,0.02302780924980315,-0.006487301719919356,-0.15,-0.19095395434280135,0.3191175811160646,5.540207370152731,stabilize,85.0,10.0,0.0,0.0,-10.0,15.544656462933037,0.06400276990281407
1761039431.1388593,1.7253708839416504,-0.028917007973832794,-0.0708057888425338,3.441140897166861,-0.03878791876459077,-0.08023531530745075,-7.388959781863177,-0.010467344695210016,0.01812742987053987,0.019113417166937777,0.62,-0.005650125522085027,-0.0038780783252107963,-0.08225269743533041,-0.4877964199845289,0.2361334703924969,5.057011003430532,stabilize,85.0,10.0,0.0,0.0,-10.0,15.066760923324477,0.052908394368792404
1761039431.2459786,1.8324902057647705,-0.033363351915955484,-0.07990557901818116,2.627919526994431,-0.04263962037216374,-0.09018883343918717,-7.793296147465198,-0.015490178898166208,0.0026516722251994506,0.019109804282606876,0.62,0.004469801656788279,0.0026853373228412592,0.045073477978190626,-0.3316909953990729,-0.0349228569771185,4.475790053200433,stabilize,85.0,10.0,0.0,0.0,-10.0,14.479631769720696,0.018394826690220217
1761039431.352902,1.9394135475158691,-0.03798760414590641,-0.08976894516653498,1.7733797206622683,-0.044156036573681286,-0.09413389238649383,-8.1881188615277,-0.013261063297936256,0.007321881973800654,0.024915507579516088,0.62,-0.002210360625651767,-0.0016062699694024342,-0.11845152228637881,-0.3345766973113569,-0.033185514570645024,3.9039081626794356,stabilize,85.0,10.0,0.0,0.0,-10.0,13.907972714992827,0.055303263159116614
1761039431.4602308,2.0467424392700195,-0.04292666139166743,-0.1002958274958037,0.8737556088998778,-0.04620854185925531,-0.10039145587633372,-8.574506376349342,0.0026627000209250235,-0.006595139980003906,0.022589798719898926,0.62,-0.007017521933516679,0.027588001810684583,-0.10789308535289358,0.13629959941786216,0.5539481548477536,3.114710254945837,stabilize,85.0,10.0,0.0,0.0,-10.0,13.127111685753352,0.06044256985290996
1761039431.5676732,2.1541848182678223,-0.04780642782061547,-0.11073893522003406,0.5,-0.0466612227310764,-0.09526579727787765,-0.0,-0.0022844183863741686,0.008267744259286721,0.016351624549586385,0.62,-0.002157003864958517,-0.018055869109736115,0.12130035036427284,0.009042248651106588,0.13995693960656397,2.3575525332564533,stabilize,85.0,10.0,0.0,0.0,-10.0,12.358348365351969,0.048094103522078886
1761039431.6757946,2.2623062133789062,-0.05289871796639028,-0.12124124879370693,0.5,-0.04585101417944123,-0.0987758223415531,-0.0,0.001306874693169709,-0.006996963805235823,0.021433170526006247,0.62,0.005919109792328906,0.008460985711185708,-0.09786749256918623,0.2681721591220669,0.6464968813861807,2.010865011712696,stabilize,85.0,10.0,0.0,0.0,-10.0,12.031240703026203,0.03742397523652605
1761039431.783002,2.369513511657715,-0.05764703938689656,-0.1315893274137358,0.5,-0.04321622770983226,-0.09487350484771886,-0.0,-0.0011416172034297498,-0.001498352668529082,0.01975561090091023,0.62,0.013804639309096596,-0.0025263855395295364,-0.011464129320188629,0.30545912881757153,0.4149035703444031,1.7837310057629636,stabilize,85.0,10.0,0.0,0.0,-10.0,11.794989049093768,0.015154757483741428
1761039431.8931627,2.4796743392944336,-0.06234843116573436,-0.14204603723387293,0.5,-0.042127531988281126,-0.09547568043081875,-0.0,-0.002084425866914278,-0.002830378253337435,0.015805679909616982,0.62,-0.012253785601544066,0.00891466758029372,-0.01407055093426314,0.10713269334761556,0.15580074549965434,1.595545198196607,stabilize,85.0,10.0,0.0,0.0,-10.0,11.597086691480001,0.016156979539042868
1761039432.0002146,2.586726188659668,-0.06697430145556783,-0.15248447682776053,0.5,-0.046425594471659226,-0.10005552314221558,-0.0,-0.007715084317767222,0.015961128721877306,0.010599497796299389,0.62,0.0020403189613390858,-0.021203636390055722,0.0067511199233915315,-0.19325847854269873,0.16691355149232012,1.614171179768535,stabilize,85.0,10.0,0.0,0.0,-10.0,11.616978142622393,0.013210498285019159
1761039432.1066113,2.6931228637695312,-0.07229458784420371,-0.16333375604469724,0.5,-0.053795835865252294,-0.10398578768712406,-0.0,-0.006865403921413455,0.01806092732700079,0.0032462474919148446,0.62,0.009096384242422116,-0.00836199192784021,-0.13152763636284087,-0.3836232229538661,0.22664992972949147,1.3860888409735854,stabilize,85.0,10.0,0.0,0.0,-10.0,11.39480390627145,0.06857600030750767
1761039432.2130258,2.799537420272827,-0.07864297156331797,-0.174626409121139,0.5,-0.06493983102369653,-0.10803801063396838,-0.0,-0.016067363259038556,0.021118988552877162,-0.009988524333627409,0.62,0.008017550812955925,0.001804149829450145,0.03426737637936214,-0.7503715427701664,0.08240101591335296,1.388994047091411,stabilize,85.0,10.0,0.0,0.0,-10.0,11.413984089015827,0.01675525124127532
1761039432.3213627,2.907874345779419,-0.08636163681428065,-0.18684993414768603,0.5,-0.07688566520099731,-0.1162825519089452,-0.0,-0.006223323392550977,0.016000552081611417,-0.013505734458334272,0.62,-0.020712689812778257,0.012109879647017575,-0.02619605105890232,-0.7584818457178326,0.07811734336869605,1.2464276430385282,stabilize,85.0,10.0,0.0,0.0,-10.0,11.272246083177906,0.014018733228648212
1761039432.4285853,3.01509690284729,-0.09509739774543664,-0.19962278937971273,0.5,-0.08678630987135193,-0.12355604531357071,-0.0,-0.018588124077430362,0.020118745566677528,-0.008617948896254625,0.62,0.010827085148486095,-0.006798715098436112,-0.023000857601115098,-0.6408861503087507,0.009183747169364424,1.1324136280472663,stabilize,85.0,10.0,0.0,0.0,-10.0,11.150849859306787,0.016542225735569245
1761039432.5374932,3.12400484085083,-0.10504532083555468,-0.21340664449941563,0.5,-0.09743567261119901,-0.1314564703920976,-0.0,-0.01796809574674295,0.01832817431619339,-0.0070023459555794984,0.62,-0.0253879815685168,0.013782874981964535,0.03344122443204818,-0.8572360552838568,-0.7216580039598921,1.297245956019971,stabilize,85.0,10.0,0.0,0.0,-10.0,11.352682948095026,0.018386603508118413
1761039432.6427953,3.229306936264038,-0.11596156134867235,-0.22811967697233967,0.5,-0.10887743876031258,-0.14590547111259328,-0.0,-0.009576065931436952,0.019549585972572617,-0.0013708746446207975,0.62,-0.016434897179525242,0.0148375836926333,0.02715767410615962,-0.7420303788423034,-0.2121709323684338,1.0714004463742846,stabilize,85.0,10.0,0.0,0.0,-10.0,11.098267136433671,0.034292932202414916
1761039432.751521,3.3380327224731445,-0.12856954476605506,-0.24414279398000374,0.5,-0.12406735457088951,-0.1511762494898787,-0.0,-0.025479853458072455,0.025592932016718965,0.008560702369228072,0.62,0.03771296817904979,-0.01229044166366865,-0.15,-0.4291491564517817,-0.14416056850493636,0.9718921061867387,stabilize,85.0,10.0,0.0,0.0,-10.0,10.98122796675298,0.08735610352783851
1761039432.856387,3.4428985118865967,-0.14229021667952738,-0.2606835772808575,0.5,-0.13706035068294112,-0.16019394791321687,-0.0,-0.0046244591094191465,0.031059766720476608,0.0050181338670583445,0.62,-0.020150873015464477,-0.0031226579308358494,0.03344395401965132,-0.4329204810697644,-0.15132311431840328,1.1406695442326733,stabilize,85.0,10.0,0.0,0.0,-10.0,11.150104785231848,0.011681996229585422
1761039432.9659343,3.552445888519287,-0.15839252815181862,-0.2785751690719314,0.5,-0.15677531073755957,-0.1700098212580437,-0.0,-0.037454651854003554,0.03043084603034846,0.004002819367905704,0.62,0.03230019606350486,-0.0012189322108707783,0.15,-0.4093468050099931,-0.6243781032896044,1.041444266909434,stabilize,85.0,10.0,0.0,0.0,-10.0,11.066657323776976,0.08256386173684908
1761039433.0738325,3.660344123840332,-0.1758804122837315,-0.29782097991022244,0.5,-0.16764012558236827,-0.1851948610595674,-0.0,-0.01212189658552126,0.02063705046836957,0.011320805738945191,0.62,-0.0351629921048971,0.016169201417995063,-0.09088749323048673,-0.043603565619020124,-0.5178545169933488,0.8580818099654846,stabilize,85.0,10.0,0.0,0.0,-10.0,10.870511265051357,0.04151787972856876
1761039433.180015,3.766526699066162,-0.19464315241139982,-0.3182258722758216,0.5,-0.18496377982253606,-0.1996719376933321,-0.0,-0.030060795460849634,0.02893022644550927,0.007621176476646142,0.62,0.02441869487394315,-0.006885759081878542,0.04804463246174811,-0.02023761769441546,-0.5555817651442168,0.9873609721422886,stabilize,85.0,10.0,0.0,0.0,-10.0,11.001417262838741,0.021970654386027456
1761039433.289369,3.875880718231201,-0.21560349733818096,-0.34068590043929575,0.5,-0.1986789013063112,-0.21000294327122215,-0.0,-0.02028527928530936,0.030537991003399528,0.007502931602231438,0.62,-0.006666765874521104,-0.009091854482629048,-0.11269369987273531,-0.0286687502165391,-0.5653307124689566,0.907918362183361,stabilize,85.0,10.0,0.0,0.0,-10.0,10.922596015039492,0.05027603313772077
1761039433.3982277,3.984739303588867,-0.23816612993491396,-0.3643688069340127,0.5,-0.21417484946969342,-0.22532590707238415,-0.0,-0.025153091886653666,0.01775872675669285,0.005586086108490552,0.62,-0.024413899515952173,0.04520419786420726,0.001389454894734763,-0.4372373536667516,-0.9981422301799203,0.9960937054498725,stabilize,85.0,10.0,0.0,0.0,-10.0,11.049956615034484,0.013678917753024785
1761039433.5062573,4.092768907546997,-0.2621538342590589,-0.3896106973996949,0.5,-0.23270212680562494,-0.2431430231236301,-0.0,-0.033074069517569436,0.038596506211764796,0.0016938224300391005,0.62,0.018342461952915768,-0.03451127375456931,0.008873131244204717,-0.4587928401398652,-0.8530944553154941,1.0771636367413322,stabilize,85.0,10.0,0.0,0.0,-10.0,11.119434124765437,0.032273427440966375
1761039433.6150494,4.201560974121094,-0.28821252341614156,-0.4167470401667862,0.5,-0.2484522224202683,-0.25730469936979994,-0.0,-0.023836648009399393,0.03494132607297341,0.0008663202591959521,0.62,0.003716597059622852,-0.02112391369399768,-0.05656636025757009,-0.9007695531333265,-1.060143101522638,1.1194186919064488,stabilize,85.0,10.0,0.0,0.0,-10.0,11.20610374882709,0.04153764119462603
1761039433.7218025,4.308314085006714,-0.3158480496861046,-0.44501183047227194,0.5,-0.26531872641978216,-0.2690445139012209,-0.0,-0.018036876901744957,0.025773320015728244,-0.003932793732299767,0.62,-0.011163737175527284,0.030348598806593866,0.12815378021032298,-0.7316997614587946,-1.0493328423419033,1.0049959892104126,stabilize,85.0,10.0,0.0,0.0,-10.0,11.079098369338249,0.048345546619107616
1761039433.832389,4.418900728225708,-0.3462004987457069,-0.4752476629237832,0.5,-0.2875195349866314,-0.2804249812527682,-0.0,-0.019530210780920085,0.036897635696914274,-0.0069179119620900635,0.62,-0.007373492634368528,-0.007246679538176549,-0.07487622991763457,-0.7473658230006904,-1.06716542111553,0.975958363626129,stabilize,85.0,10.0,0.0,0.0,-10.0,11.053011341234956,0.04091175660263479
1761039433.939044,4.525555610656738,-0.3777937433194624,-0.5057410398173318,0.5,-0.30545160545289846,-0.29167822005610994,-0.0,-0.02241042267667933,0.04013485555322355,-0.009701208420160095,0.62,-0.007931967053922243,-0.015878219114467,0.05339765005246662,-0.7613981196907892,-1.084654187158014,1.1608601876331264,stabilize,85.0,10.0,0.0,0.0,-10.0,11.239261627450542,0.03581782618847182
1761039434.0453775,4.63188910484314,-0.41159261133134334,-0.537640748125053,0.5,-0.32515791918100445,-0.3056983259369291,-0.0,-0.024618864291827254,0.024013960823385062,-0.00431498776696106,0.62,0.003946742750931018,0.014535756449173116,0.02643872782629739,-0.7743707690873789,-1.102263148906697,1.1850209068474071,stabilize,85.0,10.0,0.0,0.0,-10.0,11.265847807602777,0.0380133911509227
1761039434.1520507,4.738562345504761,-0.4468076344107756,-0.5707341902773391,0.5,-0.33872671734376036,-0.31746758107123807,-0.0,-0.021669106519307004,0.027457893677160113,0.007365469122607912,0.62,-0.006319117419989715,0.0022747184744355536,-0.13590556990461894,-0.7866766242507449,-1.1197941983508803,1.1592188431133668,stabilize,85.0,10.0,0.0,0.0,-10.0,11.24281834533936,0.047518224462648154
1761039434.259053,4.845564603805542,-0.4837637435403205,-0.6053994984649579,0.5,-0.3482845609873878,-0.32945360754119274,-0.0,-0.010564317571131812,-0.00860491903628575,0.012419224243690553,0.62,-0.008995742732535034,0.029274294177524016,0.06991153302415995,0.4883806450816638,-0.5443663844874863,1.1558561570594523,stabilize,85.0,10.0,0.0,0.0,-10.0,11.179802190202278,0.03138204551812031
1761039434.3660219,4.952533483505249,-0.5207601798593268,-0.6408689042710477,0.5,-0.3465812068734473,-0.3347375771807368,-0.0,-0.016354753927966686,0.016942210945710984,0.013254522521438317,0.62,0.015572420331498726,-0.03555791246344034,-0.08875033867612003,0.3105879265023339,-0.3027700662100034,1.1585683991992077,stabilize,85.0,10.0,0.0,0.0,-10.0,11.166995266977102,0.04966077204041265
1761039434.4731386,5.059650182723999,-0.5584411916974478,-0.6774401239687244,0.5,-0.3513339614148538,-0.3460043228835789,-0.0,-0.02958425516557106,-0.000851272190419826,0.004678133042741432,0.62,0.006111099256618296,0.016232399221600892,0.03704718692271682,0.3337139127981267,-0.8195278102136371,1.1321077300739513,stabilize,85.0,10.0,0.0,0.0,-10.0,11.167220483239364,0.021488359963640378
1761039434.5815988,5.168110370635986,-0.5966646479757847,-0.7158985960045411,0.5,-0.35565236003434625,-0.36163364495840855,-0.0,-0.017827841009077437,0.02362418409386463,0.0029146555199258154,0.62,-0.025188068043307827,0.008659596303054157,0.054337871482172825,-0.47903565744156473,-0.7523231290823251,1.054169200716657,stabilize,85.0,10.0,0.0,0.0,-10.0,11.09009116147047,0.03731886881523902
1761039434.689295,5.275806665420532,-0.6357570127032437,-0.7553417508512137,0.5,-0.3728493185939234,-0.37618453802542906,-0.0,-0.031539742716271725,0.016693764919415207,0.005095191795271097,0.62,0.02101696693724816,0.011259042740281841,-0.04494621134631067,-0.5055535307771016,-0.7817652557988364,1.0905618180787293,stabilize,85.0,10.0,0.0,0.0,-10.0,11.129568847366963,0.030365878199566713
1761039434.7973652,5.383876800537109,-0.6765369360221314,-0.796916937412668,0.5,-0.3782933953320147,-0.3880972599112175,-0.0,-0.01704542536987111,0.015685213372246445,0.005753566827578326,0.62,-0.010861906623070013,0.0131792452570316,0.00021181858435524031,-0.33031568610477274,-0.5003347133389086,1.1249499546103976,stabilize,85.0,10.0,0.0,0.0,-10.0,11.141093068924821,0.007053332955033666
1761039434.9072127,5.493724346160889,-0.7188112143726566,-0.8401133647694252,0.5,-0.3915972957775412,-0.39703266274516036,-0.0,-0.0066666236706202624,0.019647748628844927,4.081280454244958e-05,0.62,-0.03052744161351427,0.0051249881458522535,0.06608546902112486,-0.46964142459394553,-0.4146771935716669,1.097849622762899,stabilize,85.0,10.0,0.0,0.0,-10.0,11.115520072944033,0.01966715349474838
1761039435.0160997,5.602611303329468,-0.761984777714488,-0.8837712811304402,0.5,-0.4018637447778781,-0.4072627901088808,-0.0,-0.023973523282623616,0.023194192260527588,-0.004142563000588168,0.62,0.02742422964945735,-0.0015541431810716776,0.10444145111716388,-0.5030659433372938,-0.45021830795854817,1.1397071779130579,stabilize,85.0,10.0,0.0,0.0,-10.0,11.160145513290345,0.04803169417196791
1761039435.1254115,5.711923122406006,-0.806631901078463,-0.9286915425525692,0.5,-0.4142218066419576,-0.4133414969291021,-0.0,-0.013398773678575742,0.01705505986247297,-0.001024929595761065,0.62,-0.010414887096767593,0.009919473272201034,0.15,-0.3238181037475346,-0.4966400634431068,0.9608497483218512,stabilize,85.0,10.0,0.0,0.0,-10.0,10.976872811607986,0.08726480363007096
1761039435.2328253,5.819336891174316,-0.8515942705885076,-0.9737262871393348,0.5,-0.42253738345851843,-0.42584210692009716,-0.0,-0.020515334317453334,0.012308153594036248,0.012341100256542802,0.62,-0.0007347870861040594,-0.0036429467186706276,-0.15,-0.35824281966607086,-0.5365311961356408,1.0222754565487342,stabilize,85.0,10.0,0.0,0.0,-10.0,11.041139428623552,0.09387856294423631
1761039435.3407357,5.9272472858428955,-0.897442560566343,-1.020191617012881,0.5,-0.4270476499470482,-0.434988215632988,-0.0,-0.017541040843012484,0.011726811223278785,0.012741923409650772,0.62,-0.00630369383342441,0.006730460492465161,-0.08985662571940843,-0.39239318342550605,-0.5762558311289712,0.9789783652185615,stabilize,85.0,10.0,0.0,0.0,-10.0,11.001091270289788,0.053452739416816865
1761039435.4482036,6.034715175628662,-0.9436076623661516,-1.067474668263584,0.5,-0.43733232172726866,-0.4515612702558631,-0.0,-0.03811414539731056,0.022770411713259064,0.004933941922246004,0.62,0.03257528360344309,-0.011856514591325307,0.019049128555554927,-0.7488927053130512,-0.9862628854064827,0.980246850962652,stabilize,85.0,10.0,0.0,0.0,-10.0,11.049858626755217,0.03807195286275504
1761039435.554932,6.141443729400635,-0.9910399963824064,-1.1167231197440632,0.5,-0.4466196155045303,-0.46477980801883906,-0.0,-0.020336741484062792,0.016388843385669663,-0.0009114351975569264,0.62,-0.028572944261662042,0.0008315182332443659,0.04622233579088071,-0.7721611589329922,-1.2423175795075605,0.8729045532472133,stabilize,85.0,10.0,0.0,0.0,-10.0,10.97085408014081,0.024361955553461975
1761039435.6637158,6.250227451324463,-1.0399251274957086,-1.1679669479784685,0.5,-0.45644743659831216,-0.4835071288278683,-0.0,-0.04004326498552375,0.019158219104776067,-0.00659043532748227,0.62,0.006066721281202672,0.01813768222721877,0.007040957827950653,-1.1857884789396969,-1.621375615292263,0.8065741432046332,stabilize,85.0,10.0,0.0,0.0,-10.0,10.991678575869539,0.03826774803436876
1761039435.770352,6.356863498687744,-1.0895990224890058,-1.220926235859207,0.5,-0.47183442401039494,-0.5039634024298555,-0.0,-0.030595015367938162,0.028884690809002325,-0.0038555506082864465,0.62,-0.012178394652985983,-0.006249409356361606,-0.007728038084690601,-1.2263061941420348,-1.6681331091006644,0.9731385716454595,stabilize,85.0,10.0,0.0,0.0,-10.0,11.166748186647819,0.04541548045676449
1761039435.8802712,6.466782808303833,-1.142299512924661,-1.277311146931819,0.5,-0.4884837780870182,-0.5224274394842605,-0.0,-0.030968716686610137,0.04701974854963506,0.012297271213896722,0.62,0.013022797736204978,-0.005692959355628092,0.0007597255250793439,-1.9086395459046304,-1.3690890739215607,0.9038143617961437,stabilize,85.0,10.0,0.0,0.0,-10.0,11.153944479198122,0.05797686371867866
1761039435.98802,6.574531555175781,-1.196653463293162,-1.3343760781579876,0.5,-0.520453864909055,-0.5365546528709226,-0.0,-0.02869340887481092,0.04763570185235562,0.025718713650938387,0.62,-0.0012538695799169971,0.006006255885882435,-0.07108674262469371,-2.1510282894716783,-1.3251664392849227,0.6991463735191858,stabilize,85.0,10.0,0.0,0.0,-10.0,10.993394467401925,0.05714518849368047
1761039436.096269,6.682780504226685,-1.2541034790043033,-1.3932724313058416,0.5,-0.5495256292056185,-0.5575029790908107,-0.0,-0.03444958604991284,0.07508573385996357,0.033313778785169286,0.62,0.0013881624048551547,-0.05429551221543433,-0.1336401619353928,-2.510927599625989,-1.4714644081267176,0.7993041507226737,stabilize,85.0,10.0,0.0,0.0,-10.0,11.184584706405651,0.09357588843180734
1761039436.2023685,6.788880109786987,-1.3145608955906805,-1.4537491353807461,0.5,-0.5801658260574,-0.5768833351609229,-0.0,-0.031154242504474423,0.03735615531577182,0.028770063512847683,0.62,0.023062756306222967,0.057685298701231444,-0.04116566838901478,-2.5621795689010662,-1.1606341575290924,0.8436206369191029,stabilize,85.0,10.0,0.0,0.0,-10.0,11.202497235363872,0.06798828090204946
1761039436.3103414,6.896852970123291,-1.3787661812286451,-1.5167198982685388,0.5,-0.6128695781339243,-0.5879735064403855,-0.0,-0.016561934439727054,0.06452647746582207,0.014919032388721077,0.62,-0.008352512723680504,-0.05494375366880934,-0.06774409977822957,-2.103797722365129,-1.212103869467563,0.7645437982856587,stabilize,85.0,10.0,0.0,0.0,-10.0,11.034970042198445,0.09029308221193073
1761039436.4203568,7.006868362426758,-1.447168686815576,-1.581721376394613,0.5,-0.6333615834580401,-0.5990927496059599,-0.0,-0.017340220862630266,0.036883568344593526,-0.004419856330661623,0.62,-0.013266098186328918,0.020459530900016617,-0.042003259295595514,-1.8662114494460136,-1.2335425148743464,0.9772758957567681,stabilize,85.0,10.0,0.0,0.0,-10.0,11.20289955331246,0.05859613205798914
1761039436.5268905,7.1134021282196045,-1.5163719177214994,-1.6464008116869644,0.5,-0.6595940682924293,-0.6114451109587856,-0.0,-0.03918669210349937,0.03538088224632874,-0.02603702967441465,0.62,0.009224060951952705,-0.00461449771259386,0.15,-1.4895511929946104,-1.7494473774732964,1.0482694603157492,stabilize,85.0,10.0,0.0,0.0,-10.0,11.284661578924089,0.0716062018279274
1761039436.634274,7.220785617828369,-1.5876368260008333,-1.7129736089399858,0.5,-0.6743693025424351,-0.6330073954556863,-0.0,-0.030446329603656848,0.03618584102342235,-0.033884251512313814,0.62,-0.016371650808216665,-0.020101677268029673,-0.004799627623855034,-1.5459081824166423,-1.8047403842887801,1.049543502952658,stabilize,85.0,10.0,0.0,0.0,-10.0,11.302182602789111,0.050138689486468914
1761039436.741749,7.328260660171509,-1.6615858969656245,-1.7822382420872005,0.5,-0.6951822449114441,-0.6526843492854227,-0.0,-0.05385820834728244,0.035682007941146426,-0.03111511875623099,0.62,0.02827751059024272,-0.008300610107848633,0.025488728932114856,-1.8201385657987865,-2.17701661260731,1.1182556959655083,stabilize,85.0,10.0,0.0,0.0,-10.0,11.474664067028096,0.07789034532879786
1761039436.8499687,7.436480283737183,-1.7378291703555864,-1.8543715090436668,0.5,-0.7133267709558307,-0.678449865103391,-0.0,-0.03800095147087242,0.03258197263149941,-0.022023146857061818,0.62,-0.016756106544282008,0.001995721362197508,0.004547641733448831,-1.8784230240310469,-2.2350392371747243,1.1280291560485507,stabilize,85.0,10.0,0.0,0.0,-10.0,11.504647163072285,0.05993525129525792
1761039436.957919,7.544430494308472,-1.8158567977054467,-1.9287394064678856,0.5,-0.7329555397117212,-0.6994707440122115,-0.0,-0.03671960979710296,0.04154913717032475,-0.012313374971175321,0.62,-0.0011505892323296508,0.0020784037074389173,-0.05971270352420088,-2.072794200905234,-1.921034546350426,0.92448278307716,stabilize,85.0,10.0,0.0,0.0,-10.0,11.28411155587038,0.056871168472537745
1761039437.065102,7.651613712310791,-1.8957023786645602,-2.0047023526141134,0.5,-0.7566757986945262,-0.7183262534929786,-0.0,-0.03942744445600136,0.04125991424339485,-0.007260520420732411,0.62,0.0018472278626542051,0.006273660325197949,0.04917996372324713,-2.107263455887672,-2.0248684080646475,0.881076149591151,stabilize,85.0,10.0,0.0,0.0,-10.0,11.266697365053314,0.06351950589275289
1761039437.1727204,7.759232044219971,-1.9780352606615315,-2.0828036897396696,0.5,-0.7818815513024913,-0.7399606425899952,-0.0,-0.038497008615701114,0.05093050289285064,-0.0007768888789025794,0.62,-0.002102741467137699,-0.01642145509360457,-0.09384807705189205,-2.32322067555072,-2.0203003280988336,0.8523579027211938,stabilize,85.0,10.0,0.0,0.0,-10.0,11.280631177898591,0.07455159073915413
1761039437.2801538,7.866665363311768,-2.063670006902713,-2.1638911071091202,0.5,-0.8024928744269175,-0.7634397581867416,-0.0,-0.045805603596536903,0.032664485041540695,-0.002507962982389126,0.62,0.012120302336522181,0.013148797190645458,-0.0016281082077498638,-1.8113023164734108,-2.1905854866684895,0.623029335178218,stabilize,85.0,10.0,0.0,0.0,-10.0,10.996737384884735,0.06052917985003546
1761039437.3883166,7.974828243255615,-2.1516639459759337,-2.2476677030776635,0.5,-0.8264928080959746,-0.7848566484240982,-0.0,-0.03822265352312276,0.05286876541281904,-0.006827363671532423,0.62,0.006139504338740444,0.0038246566588220595,0.08211329837365039,-2.434180027335015,-2.0072851347209,0.7306543784492764,stabilize,85.0,10.0,0.0,0.0,-10.0,11.184872346490184,0.06769634608040934
1761039437.4955559,8.082067489624023,-2.2417865027567663,-2.332784859216936,0.5,-0.8530158788122876,-0.8017445683646128,-0.0,-0.03416510781512589,0.04517766379403719,-0.007739328558548853,0.62,-0.04118007395241022,0.03494127188251442,0.10006006154793443,-2.4380246454557017,-2.333703202307146,0.6442941885904374,stabilize,85.0,10.0,0.0,0.0,-10.0,11.166518418091119,0.07271865365426933
1761039437.604317,8.190828561782837,-2.3362308633374282,-2.421402601149678,0.5,-0.8852522985789084,-0.828936914313287,-0.0,-0.044705203967852956,0.05781479177112353,-0.002331106756055335,0.62,-0.004272619859419401,-0.010801900957856457,-0.006657848968314612,-2.5183013943699932,-2.412778578623213,0.8025854001473702,stabilize,85.0,10.0,0.0,0.0,-10.0,11.351616347896277,0.0744820237964377
1761039437.7129111,8.29942274093628,-2.433588079159732,-2.5127388438268645,0.5,-0.9036392785506081,-0.856610756733292,-0.0,-0.07096626780939595,0.024254868052442115,-0.0036745904266952804,0.62,0.03255349875819442,0.05013853935048925,-0.051953660840362306,-1.7656864495259714,-2.9875199689481975,0.9218744986238769,stabilize,85.0,10.0,0.0,0.0,-10.0,11.45994183085562,0.07911013334471804
1761039437.8213713,8.407882928848267,-2.532810722536134,-2.607540375634359,0.5,-0.9281042270073184,-0.887594046161364,-0.0,-0.04008601990968212,0.041827494675744994,-0.010622585813386326,0.62,-0.046440048988162695,-0.009832151856265183,0.09317121770492862,-1.9435130922354436,-2.7845842335413615,0.7772454463232942,stabilize,85.0,10.0,0.0,0.0,-10.0,11.29956512011298,0.0706047920033243
1761039437.928862,8.515373706817627,-2.6335175365181636,-2.704467961633445,0.5,-0.9458329152788567,-0.9187737450324305,-0.0,-0.06300529043971001,0.04042669738489853,-0.006361796877726288,0.62,0.022581977022066352,-0.0021078164328936304,0.06996660284695885,-2.0739919763344505,-2.705412519629728,0.9038875621645235,stabilize,85.0,10.0,0.0,0.0,-10.0,11.424336461589144,0.09240960508359619
1761039438.0380914,8.624603033065796,-2.7381320047784854,-2.806390387514692,0.5,-0.9693694165817804,-0.9466542668123216,-0.0,-0.05741830867480615,0.04039469838649946,0.00549115601737802,0.62,-0.008788653703261609,0.0014112576618005492,-0.009999795183693209,-2.1620441467031704,-2.7911463906654013,0.9804633051807844,stabilize,85.0,10.0,0.0,0.0,-10.0,11.53410193568791,0.0693869729841949
1761039438.146137,8.732648611068726,-2.8440310684728356,-2.9105886411707806,0.5,-0.9926742578271903,-0.9819943055830869,-0.0,-0.05982800207331171,0.055392896599639946,0.0145232324213617,0.62,-0.009185115793436468,-0.026904242784458784,-0.04405679067378386,-2.700953358423999,-2.792974700385096,0.9814014287347045,stabilize,85.0,10.0,0.0,0.0,-10.0,11.648477757217451,0.08418238986158774
1761039438.2538683,8.8403799533844,-2.952265134335815,-3.0180967722331498,0.5,-1.013325231494081,-1.0142148687761128,-0.0,-0.060914546750217444,0.02708500456766003,0.014378198991729674,0.62,0.003399241839246305,0.039447778738433054,-0.15,-2.484732816254643,-2.792194363298812,0.8300152044869827,stabilize,85.0,10.0,0.0,0.0,-10.0,11.456852790362179,0.10819723560242751
1761039438.3628242,8.949335813522339,-3.0631854779240815,-3.1298088715008627,0.5,-1.0356073303931383,-1.0460621454457348,-0.0,-0.0592415994926161,0.05221977472599309,-0.002929188916465456,0.62,-0.00025838612107353693,-0.0156153821360188,0.04261782125586655,-2.5807458749478758,-2.888045573604509,0.9606124611463158,stabilize,85.0,10.0,0.0,0.0,-10.0,11.624804601786344,0.08631960524241043
1761039438.4699757,9.056487321853638,-3.1760366832363305,-3.2441886648605394,0.5,-1.0592231751407288,-1.079463295159541,-0.0,-0.07142643861278566,0.04033992639591735,-0.022729715780562335,0.62,0.0063039440832241625,0.011574825894475092,0.06494686837928418,-2.6479134675491633,-3.28334943461677,0.9182959219429135,stabilize,85.0,10.0,0.0,0.0,-10.0,11.704743272731008,0.08325359698983427
1761039438.5761225,9.162634134292603,-3.2897225284668763,-3.360822310607361,0.5,-1.0838112707321004,-1.1181189003229886,-0.0,-0.07314234891160303,0.04889077231752506,-0.03097092877224848,0.62,-0.004265580891615989,-0.005922521372648556,0.11870158841861861,-2.7443863757151012,-3.3793877973651854,0.8846845372854832,stabilize,85.0,10.0,0.0,0.0,-10.0,11.722980676449701,0.10544128670145035
1761039438.6851523,9.271663904190063,-3.4092881658090217,-3.484881197107358,0.5,-1.1092845808917264,-1.1590749887117007,-0.0,-0.08830300821654047,0.04795221919190319,-0.025087732297735945,0.62,0.005450343683353154,0.0004995518836414184,0.0484655678344915,-2.888415102633566,-3.8702684419024065,0.9421284542582362,stabilize,85.0,10.0,0.0,0.0,-10.0,11.96043873472019,0.1124784096764924
1761039438.7935874,9.380099058151245,-3.530995440105659,-3.61320776924558,0.5,-1.1352041691473946,-1.2071476572834714,-0.0,-0.08208762629592635,0.047186070707903316,-0.010661711921606646,0.62,-0.012769686207500953,0.0038704227522970646,0.11371570394523338,-2.990887434596527,-3.9729134814607177,0.878659071464791,stabilize,85.0,10.0,0.0,0.0,-10.0,11.961382544286547,0.1281648629583174
1761039438.9025297,9.489041328430176,-3.6554222476985974,-3.7465159566849286,0.5,-1.1607793036023386,-1.2539549880131644,-0.0,-0.09578368157290881,0.05280348058091981,0.0031138319470892187,0.62,0.02825506205472706,-0.006597204076132821,0.010536538855065846,-3.0941198164898593,-4.075416923366641,1.0580527266033404,stabilize,85.0,10.0,0.0,0.0,-10.0,12.18454474497911,0.11277598497331734
1761039439.0080025,9.59451413154602,-3.7792008768447563,-3.881212757345828,0.5,-1.1845327011889548,-1.2963619064983898,-0.0,-0.06527141410884017,0.041093434567349506,0.019835160706088865,0.62,-0.035305128094261486,0.015583279059894671,-0.15,-3.0508781770112274,-3.6808146841020553,1.043004916101462,stabilize,85.0,10.0,0.0,0.0,-10.0,12.033462177058842,0.09467692726232854
1761039439.1141365,9.700648069381714,-3.90658681460671,-4.021543038562617,0.5,-1.205533591973216,-1.3379775036300987,-0.0,-0.08759087693085373,0.054398638412434856,0.03018844885761509,0.62,0.024857349463658408,-0.009446964768431534,0.09734476109030861,-3.1294353210068158,-4.052334191738908,1.083162168607411,stabilize,85.0,10.0,0.0,0.0,-10.0,12.208655187429605,0.11675862210836435
1761039439.2228649,9.80937647819519,-4.039178681052364,-4.169303465192503,0.5,-1.2342649311632008,-1.3774860327738885,-0.0,-0.06232022702778752,0.06375468729443311,0.0383625436836407,0.62,-0.03081748750780535,0.005654480824455768,-0.1496164498435209,-3.7423326724457335,-3.710028677266186,0.8530279630689287,stabilize,85.0,10.0,0.0,0.0,-10.0,12.064724720628664,0.12401243639536134
1761039439.3327699,9.919281482696533,-4.175436107123648,-4.321371434572569,0.5,-1.2696645706874503,-1.4185339703347222,-0.0,-0.0829447344333645,0.07387576567220308,0.033343456199562915,0.62,0.015552627419265663,0.0016346585928466305,-0.008426240873879599,-3.8615087439774136,-3.8386210849529063,0.8153038001558889,stabilize,85.0,10.0,0.0,0.0,-10.0,12.108553088760253,0.11657701798130582
1761039439.4403589,10.026870489120483,-4.315376468376389,-4.477748290883479,0.5,-1.3071552560650266,-1.460955130129524,-0.0,-0.0861751247411423,0.07529887746856086,0.019373838239354152,0.62,0.009542179929045748,0.009640606152766056,-0.056516676228779095,-4.1490036558437104,-4.003046365727358,0.8455598431507533,stabilize,85.0,10.0,0.0,0.0,-10.0,12.28270246540767,0.1279369897418141
1761039439.5483518,10.134863376617432,-4.458039161272935,-4.637221630753607,0.5,-1.3480191705088873,-1.5049580143354973,-0.0,-0.08101046181135327,0.08127393533724463,-0.006885600698093509,0.62,-0.025180796026885673,0.003541027044146202,-0.012399710999668422,-4.270519457307801,-4.131857446009157,1.0104061558032456,stabilize,85.0,10.0,0.0,0.0,-10.0,12.51153971760214,0.12194951046345855
1761039439.6559565,10.242468118667603,-4.605430295711919,-4.801541128792035,0.5,-1.3924855118202548,-1.5500076340705304,-0.0,-0.08952257216419049,0.08736084190413632,-0.03553343204501155,0.62,0.004882590185024103,0.0028826655635674618,0.15,-4.3926007212167875,-4.260821053244526,1.1649637085699107,stabilize,85.0,10.0,0.0,0.0,-10.0,12.732083559162232,0.13796777557944004
1761039439.764263,10.35077452659607,-4.759638206194698,-4.972503617332404,0.5,-1.4427417182702782,-1.5921482082747724,-0.0,-0.09072504720985211,0.09315950824285028,-0.05250478012169793,0.62,-0.01444615333455418,-0.0006675671648917029,0.15,-4.574510549320044,-4.849089965620306,1.1388333360235288,stabilize,85.0,10.0,0.0,0.0,-10.0,12.981272216089954,0.15400959190503852
1761039439.8733783,10.459889888763428,-4.919906914775998,-5.148914251544605,0.5,-1.494744982436843,-1.6415626262683332,-0.0,-0.0941491720348311,0.09286291120787253,-0.05377030838139507,0.62,-0.003376132660869114,0.005285230720616926,-0.11265773621307612,-4.703680185862247,-4.987685295969451,1.0979430863911044,stabilize,85.0,10.0,0.0,0.0,-10.0,13.044767251709748,0.1377663227538169
1761039439.982864,10.56937551498413,-5.085591687308327,-5.330249807178286,0.5,-1.545706484990186,-1.6878617102113356,-0.0,-0.10325007618407113,0.08723188336807405,-0.05599022561332637,0.62,0.010842630990418274,0.004804510784500378,0.10383924427816352,-4.609239994990015,-5.513363857456891,1.1138398299625492,stabilize,85.0,10.0,0.0,0.0,-10.0,13.234791653901828,0.14944036764566718
1761039440.0912635,10.677775144577026,-5.256553311202032,-5.51685099825406,0.5,-1.5951819279311092,-1.7384536271498368,-0.0,-0.1008125884031934,0.1018865638776263,-0.04789154220052927,0.62,0.002829935872076439,-0.0028732463492359256,0.12709378906158764,-5.046493043405959,-5.461485712121335,1.0229620223678741,stabilize,85.0,10.0,0.0,0.0,-10.0,13.296639047797555,0.17272358485707628
1761039440.1990395,10.785551071166992,-5.430683896924906,-5.705875227142824,0.5,-1.6502398757074759,-1.7855958959232112,-0.0,-0.09891756428876951,0.09534721391246502,-0.028213763377882388,0.62,-0.010378007482738132,0.008969642039091417,-0.002179842712756175,-4.8866014720295965,-5.55468473819962,1.0991166648635595,stabilize,85.0,10.0,0.0,0.0,-10.0,13.338807563927205,0.13926765329410135
1761039440.307106,10.893617630004883,-5.612498626340165,-5.902465499349029,0.5,-1.6998367073319345,-1.835714902122561,-0.0,-0.09610507601982676,0.10270872037896073,-0.010167221643098433,0.62,0.0005532986203682872,-0.008400253590101282,-0.06589101500939154,-5.033389836149923,-5.712304380990155,1.036217936347092,stabilize,85.0,10.0,0.0,0.0,-10.0,13.407592659470453,0.14439969235520056
1761039440.4162376,11.00274920463562,-5.800882161006839,-6.105385876829167,0.5,-1.7515244320983063,-1.883697159452235,-0.0,-0.0999712409868295,0.09606710222489546,-0.0039347658037861746,0.62,0.013995746804865808,0.0068501342996818895,-0.10373324975613427,-5.181048517061262,-5.871044876213464,1.0055598885916883,stabilize,85.0,10.0,0.0,0.0,-10.0,13.506841974941196,0.15334985251892183
1761039440.5242398,11.110751390457153,-5.992707112353176,-6.3113954041282545,0.5,-1.801264304886778,-1.9303126135753046,-0.0,-0.09395773032446321,0.10097261125168654,-0.006088123125136796,0.62,-0.005053466699619964,-0.009315033108113739,0.020181299498947716,-5.729199550620441,-6.36014390971812,1.12413214795513,stabilize,85.0,10.0,0.0,0.0,-10.0,14.03643380949459,0.14237336642377763
1761039440.633621,11.22013258934021,-6.1914922634351734,-6.524095294793004,0.5,-1.8507831940962622,-1.9781281037277962,-0.0,-0.09816113122490384,0.09793491236718987,-0.003209148758810539,0.62,-0.0016916038131689671,0.003044587645098869,0.06555117427198134,-5.546338234677665,-6.23602508241096,0.7983394904942336,stabilize,85.0,10.0,0.0,0.0,-10.0,13.64749106590194,0.1430484684088938
1761039440.742863,11.329374551773071,-6.3973133767134955,-6.743871729066434,0.5,-1.8985632855894399,-2.025614873804056,-0.0,-0.09352141017218192,0.09450691956823783,0.004325893812393009,0.62,-0.004705764194929568,0.006874467416624732,-0.087718337265562,-6.043165110771724,-6.143076727761832,0.9675060036982924,stabilize,85.0,10.0,0.0,0.0,-10.0,13.947882426389166,0.14212391599007054
1761039440.8521173,11.438628911972046,-6.6063299598104415,-6.966642573871829,0.5,-1.94568562421914,-2.0715906008248957,-0.0,-0.09422074419920334,0.09624452503279236,0.010694249316077233,0.62,0.0031211690266328717,-0.006113944702381307,-0.08140247477386355,-6.204604749454222,-6.419580512939785,0.8913042301072776,stabilize,85.0,10.0,0.0,0.0,-10.0,14.08292021889703,0.14929336272952295
1761039440.9581585,11.544670104980469,-6.815952033556651,-7.189742909596102,0.5,-1.9891851346073868,-2.117044452870079,-0.0,-0.10047661395840046,0.09595937073071256,0.013609461314451057,0.62,0.012261235022257282,-0.004495791505743995,0.03553018490611036,-6.3242411207737,-6.336734847489784,1.057674439172318,stabilize,85.0,10.0,0.0,0.0,-10.0,14.227522563109897,0.14637577967340398
1761039441.0663319,11.652843475341797,-7.033582221715186,-7.421335249863432,0.5,-2.033672303906663,-2.1639541187084506,-0.0,-0.09473036817678522,0.08912482253449536,0.018410178932113306,0.62,-0.006758628259606839,0.014677598210296497,-0.11215854812127146,-6.512104905112476,-6.533586485833575,1.0697525053128787,stabilize,85.0,10.0,0.0,0.0,-10.0,14.40953445437908,0.14964329977395568
1761039441.1745806,11.761092185974121,-7.256006005524412,-7.658147892057934,0.5,-2.07688706865866,-2.2118106493166216,-0.0,-0.09770009502876299,0.09866425565039384,0.020547030277896013,0.62,-0.001195870038993668,-0.005108221620015445,-0.015930524392164667,-6.700278168540328,-6.730622870950915,0.993134924900124,stabilize,85.0,10.0,0.0,0.0,-10.0,14.52735444751881,0.14240324009123387
1761039441.2832162,11.869727849960327,-7.483001429843974,-7.899817276750512,0.5,-2.120428975086168,-2.258107861582771,-0.0,-0.09782330957007027,0.08860493233936588,0.022606133867759757,0.62,0.0007502723535994105,0.006496106867426134,0.0022596124855017163,-6.88814705556048,-6.927374972496673,1.097491681708156,stabilize,85.0,10.0,0.0,0.0,-10.0,14.784769713938108,0.14076177498076453
1761039441.3912227,11.977734327316284,-7.71527017722683,-8.1474318765479,0.5,-2.1615603769916825,-2.3057491026836967,-0.0,-0.09996906585255201,0.09682202576032468,0.012667210543534842,0.62,-0.007357740077312365,-0.007859281690406367,-0.13677026489140343,-6.926009654398205,-7.745489668322486,0.9701592677388846,stabilize,85.0,10.0,0.0,0.0,-10.0,15.109818473246621,0.1651916586955162
1761039441.5001988,12.086710453033447,-7.952090825275132,-8.400157039101757,0.5,-2.2042484470152877,-2.3546176537328494,-0.0,-0.1017488170042428,0.08611587306213017,-0.0016702539411548396,0.62,-0.0044245591281910504,0.006926704428168756,0.05950251024366696,-7.155792672211019,-8.02678470305173,1.2103822968378668,stabilize,85.0,10.0,0.0,0.0,-10.0,15.534069417833502,0.140168708386816
1761039441.6071184,12.19362998008728,-8.189847953294935,-8.654398238566579,0.5,-2.24318089163245,-2.4009632773631435,-0.0,-0.10578720147732217,0.09151642734386674,-0.01178356503008362,0.62,-2.8637409050395976e-05,-0.0075772021439942175,-0.05416862647515726,-7.364872151329261,-8.238348452847745,1.2223275716885653,stabilize,85.0,10.0,0.0,0.0,-10.0,15.749678192339218,0.14660341850853856
1761039441.71421,12.300721645355225,-8.43342482963697,-8.915302874668127,0.5,-2.2839036927960423,-2.448725309716682,-0.0,-0.1070900702962401,0.0874847555578921,-0.02132374028294742,0.62,0.001091582817307579,0.01272587553824576,0.07539982238272144,-7.251068252463796,-8.876787073295482,1.1710538717132808,stabilize,85.0,10.0,0.0,0.0,-10.0,16.00524239589124,0.1431771013810772
1761039441.8237553,12.410266876220703,-8.685978035209816,-9.186236342933812,0.5,-2.328781268103556,-2.4980540334203134,-0.0,-0.10767232812438823,0.10174797728769841,-0.023922396502769,0.62,0.008976890826428566,-0.014054224141851568,-0.04557592902965491,-7.467964701393637,-9.098715185605878,1.1125455910629454,stabilize,85.0,10.0,0.0,0.0,-10.0,16.187828276933534,0.14860813401457834
1761039441.9329987,12.519510269165039,-8.942918334198604,-9.461618211746764,0.5,-2.374951782437078,-2.5433127221973035,-0.0,-0.10604717815086964,0.0999519694767952,-0.028764707656002884,0.62,0.004015063588109027,0.00914694105155573,-0.035950437999363885,-7.868215575776884,-9.324187517654336,1.1262805847875113,stabilize,85.0,10.0,0.0,0.0,-10.0,16.511917177078452,0.14086588884618678
1761039442.0425577,12.629069328308105,-9.20452781757191,-9.741499131301797,0.5,-2.4231633265247483,-2.5896422198773807,-0.0,-0.10249508442051364,0.09874593466134075,-0.03643855140804686,0.62,6.924725143097124e-05,0.010300237399246858,0.05817322283257988,-8.106537477217817,-9.397462127774178,0.9431478819847725,stabilize,85.0,10.0,0.0,0.0,-10.0,16.546320735422565,0.1435598591672185
1761039442.151415,12.737926721572876,-9.472130846549344,-10.027073108526004,0.5,-2.4709845836469677,-2.633028875515362,-0.0,-0.1079677975314649,0.10591363140409601,-0.03301337225560757,0.62,0.012387517226374871,-0.00686213380619429,0.05459015599118697,-8.572179417620658,-10.308830973031315,0.8117094807905136,stabilize,85.0,10.0,0.0,0.0,-10.0,17.223452554450994,0.15202554609989102
1761039442.261347,12.847858667373657,-9.74644546454276,-10.319016140466783,0.5,-2.51919343610032,-2.6775761492864096,-0.0,-0.10203913986563655,0.10414080839446078,-0.02311655780757157,0.62,-0.001763886738712299,-0.006886998643570288,0.007282534913307857,-9.119019905039321,-10.794133239341916,0.8694733854694185,stabilize,85.0,10.0,0.0,0.0,-10.0,17.827374683183088,0.14423737951720544
1761039442.370869,12.957380533218384,-10.024838226444041,-10.614584769500082,0.5,-2.563883553524437,-2.720001219983167,-0.0,-0.10430192961768432,0.10227474578182584,-0.010390055940656399,0.62,0.006466228115537258,0.009005851091833796,-0.05263970623166793,-9.388071223591247,-10.95869788989443,0.9518774502253978,stabilize,85.0,10.0,0.0,0.0,-10.0,18.115533677646766,0.13995878144645785
1761039442.4795105,13.066022157669067,-10.305929071073226,-10.912467092516435,0.5,-2.611043534762892,-2.7628017601230908,-0.0,-0.09623392297269234,0.10752127713606516,-0.0004624875275829036,0.62,-0.01229070422969613,0.0017800195003358661,0.061801324087897194,-9.895018817013321,-10.97258449617572,0.8994753687186513,stabilize,85.0,10.0,0.0,0.0,-10.0,18.36048940600626,0.14168469817594992
1761039442.586493,13.173004627227783,-10.587644336104027,-11.210219024355522,0.5,-2.6552821523408494,-2.8049509010348688,-0.0,-0.10736679581413157,0.10735915610327605,0.005723936764106612,0.62,0.01345182411071949,0.004374567176484904,0.05111699342807682,-10.1380964738924,-11.233499640812914,0.9694996058501576,stabilize,85.0,10.0,0.0,0.0,-10.0,18.68963445059427,0.14468858267817986
1761039442.6933413,13.279852867126465,-10.873805499434454,-11.512216272025292,0.5,-2.7007941442502346,-2.8472029824742187,-0.0,-0.10138331229922028,0.10556514044492557,0.015937362514370966,0.62,-0.01496469268847142,0.003494421754797913,0.01566860386852984,-10.732042639472063,-11.609563581098826,1.0228360378207144,stabilize,85.0,10.0,0.0,0.0,-10.0,19.273339619165686,0.13967558731382654
1761039442.8026967,13.389208316802979,-11.170083224712902,-11.824678800262712,0.5,-2.7439119248898964,-2.896800736797935,-0.0,-0.11845633530526452,0.10853339108110624,0.0337553204248729,0.62,0.005357372720840943,-0.006664302787769975,-0.006725904364123816,-11.133892672334367,-11.481792099481128,0.9706015060341442,stabilize,85.0,10.0,0.0,0.0,-10.0,19.3945665911607,0.14522606427355278
1761039442.9112358,13.497747421264648,-11.471646595741051,-12.143511331550645,0.5,-2.785844966984657,-2.950577387214213,-0.0,-0.12053444538777834,0.10618398570543594,0.0425136788044214,0.62,0.0011642053237244671,0.0028414033248559817,-0.132649658532138,-11.698718184576007,-12.287670759456434,1.0734756711531455,stabilize,85.0,10.0,0.0,0.0,-10.0,20.260027721959084,0.16001956627891253
1761039443.0217125,13.608224153518677,-11.781763166809148,-12.472536075133036,0.5,-2.8283350970719576,-3.00592704828008,-0.0,-0.12343825065213464,0.10776320284063942,0.033550113540015414,0.62,0.007988636072582884,0.0014023472288956518,-0.005286008319842769,-12.073193893695292,-12.706224985917245,1.0226651895055399,stabilize,85.0,10.0,0.0,0.0,-10.0,20.705296715271825,0.1475287286192769
1761039443.131209,13.71772050857544,-12.093737661057878,-12.804513849220697,0.5,-2.870000816801015,-3.0562403565765703,-0.0,-0.11236621444025045,0.10779883650291101,0.019819323567720197,0.62,-0.007615616887023621,0.0019675481558581176,-0.03263958053469433,-12.736259234072659,-13.280669677875869,0.9196386273386693,stabilize,85.0,10.0,0.0,0.0,-10.0,21.396892160358693,0.14274377605190028
1761039443.2391562,13.82566785812378,-12.405852156103894,-13.137008595670297,0.5,-2.9119750698957243,-3.1044448985613324,-0.0,-0.11598874457597026,0.09987796114454993,0.008208379633301814,0.62,0.009359872295063968,0.0032845704386900597,0.05776172075173388,-13.007830828840946,-13.568145752188167,0.9094971211835846,stabilize,85.0,10.0,0.0,0.0,-10.0,21.73281779846966,0.1450322831689384
1761039443.3482103,13.934721946716309,-12.725403295075592,-13.477983711104894,0.5,-2.9481098480525705,-3.148005048985395,-0.0,-0.11001747072636349,0.09655796339839666,0.005729974576349744,0.62,-0.0006571069099720789,0.0041592600106321,0.01500509283437096,-12.934186181896242,-14.02522377296071,0.9362298550009476,stabilize,85.0,10.0,0.0,0.0,-10.0,21.99093443924091,0.14030002297583927
1761039443.4564133,14.042924880981445,-13.046394713667723,-13.82100973755498,0.5,-2.985683215962026,-3.192361448832074,-0.0,-0.10945881292513042,0.10166825805325803,0.0065063234416262656,0.62,-0.0019869989358312357,-0.006706613261468629,-0.15,-12.394372189549438,-14.619929563145517,0.8480175859248104,stabilize,85.0,10.0,0.0,0.0,-10.0,22.02367562304137,0.1617093926384089
1761039443.5645306,14.151042222976685,-13.37129825787158,-14.168434488610691,0.5,-3.0255083598996175,-3.234622773205937,-0.0,-0.11024256721825339,0.11010628172206904,0.008868816041778962,0.62,-0.0026362515433960487,-0.011733087513552516,0.11775636126534306,-12.674263475520746,-14.916324734900282,0.774355349651543,stabilize,85.0,10.0,0.0,0.0,-10.0,22.34324129226738,0.16170412714172647
1761039443.673864,14.260375499725342,-13.702622720465598,-14.522653414237416,0.5,-3.066087499852556,-3.279365709304813,-0.0,-0.1116624720648211,0.10177948258723568,0.019673634032609594,0.62,-0.0015560133113264366,0.007362875195585488,-0.1243682626615549,-13.464243728321378,-14.129997180096952,0.9935820230314658,stabilize,85.0,10.0,0.0,0.0,-10.0,22.40092688221427,0.15076769377177607
1761039443.780913,14.367424726486206,-14.03458937083359,-14.87787485426499,0.5,-3.103465368180211,-3.3215889138595673,-0.0,-0.11180371291857492,0.10638848367392119,0.011767736331681681,0.62,0.005433632695485948,-0.009495133211920666,-0.0041085301515633894,-13.461861403072854,-14.401376826391319,0.9560236805085204,stabilize,85.0,10.0,0.0,0.0,-10.0,22.553399340656544,0.1469411849284707
1761039443.8886347,14.475146293640137,-14.370947904950329,-15.237915305545624,0.5,-3.140749872062097,-3.3616613693104305,-0.0,-0.10119565124094933,0.0986743040620474,-0.002032513185600685,0.62,-0.009986887854757483,-0.00024278958703404462,0.028170169887482492,-13.760460983474992,-14.72510737427646,0.9847130158440769,stabilize,85.0,10.0,0.0,0.0,-10.0,22.95306066088274,0.14061769770666055
1761039443.99904,14.585551500320435,-14.719678076711428,-15.611051635884557,0.5,-3.177261187567337,-3.3988626101651676,-0.0,-0.10949803879196386,0.1027246984258263,-0.010926288103966918,0.62,0.014409273345719207,-0.00647205059292931,0.11747255060255078,-14.046009179017474,-14.729769285660126,0.9894801748782586,stabilize,85.0,10.0,0.0,0.0,-10.0,23.13061070486168,0.1569943859406191
1761039444.1072783,14.693789958953857,-15.065569957442262,-15.980930803773251,0.5,-3.2135087059989034,-3.434776615834473,-0.0,-0.10310151735443711,0.09897829209405795,-0.012301901371696265,0.62,-0.010198851343592458,0.015322920701228421,0.09272177957969549,-14.3502996943175,-15.054933166085245,1.0960719275428807,stabilize,85.0,10.0,0.0,0.0,-10.0,23.573394455895137,0.14115924163521693
1761039444.2173193,14.803830862045288,-15.418011175053628,-16.35754441987809,0.5,-3.251627502794985,-3.474996083198077,-0.0,-0.11852944919978338,0.10015263283375606,-0.01551615018096392,0.62,0.012277573585439502,-0.008524044474409812,0.034394595768556344,-14.803913314064875,-15.69470484735812,0.8959158272675458,stabilize,85.0,10.0,0.0,0.0,-10.0,24.170241855863445,0.14750014156365668
1761039444.3234224,14.909934043884277,-15.766347955474386,-16.730108795614647,0.5,-3.284043631171328,-3.5131538777073943,-0.0,-0.1057562652158998,0.10443244597203907,-0.02464636479165452,0.62,-0.006870423540058331,-0.008083988281954535,0.11273812591581406,-15.666921454140645,-16.05135824249797,0.9181745863607966,stabilize,85.0,10.0,0.0,0.0,-10.0,24.94604308457505,0.14624290082985847
1761039444.4314375,15.017949104309082,-16.124895906630286,-17.113282767793923,0.5,-3.322523353988038,-3.5494287340593127,-0.0,-0.11281233734949031,0.09359443035666655,-0.023802852325757604,0.62,0.0053361482207209664,0.009204402103045777,0.14032934358807744,-15.979921313332309,-16.3885838170747,0.9449603416504958,stabilize,85.0,10.0,0.0,0.0,-10.0,25.37194753245949,0.16650581627081248
1761039444.5396314,15.126142978668213,-16.482780881494843,-17.495910832392237,0.5,-3.3526542408893976,-3.585923271416943,-0.0,-0.10945606791263547,0.10157388203424185,-0.006075363050920562,0.62,-0.006180708028220568,-0.013552568851023199,-0.15,-16.146703299297677,-16.461845568055622,0.8690565631304817,stabilize,85.0,10.0,0.0,0.0,-10.0,25.492053222810295,0.1549766768487815
1761039444.6489685,15.235480070114136,-16.851043158406867,-17.88984617395698,0.5,-3.38601041313272,-3.6223256997606366,-0.0,-0.10104259974294588,0.09871854448349954,0.009040106550033651,0.62,-0.0156671789674795,0.003975150981893468,0.09578181972164714,-16.48008291104611,-16.816415319200576,0.9700960769746109,stabilize,85.0,10.0,0.0,0.0,-10.0,25.975526267639925,0.14877597312373614
1761039444.7556825,15.342194080352783,-17.217473828061607,-18.281802335290557,0.5,-3.417273267190452,-3.655393763999623,-0.0,-0.10368253984380704,0.10107637557727767,0.027509306122785827,0.62,0.001258340226852965,-0.00457846366347763,-0.0009122631789955232,-17.148772556787282,-17.1042262730542,1.045826006438633,stabilize,85.0,10.0,0.0,0.0,-10.0,26.62039122118182,0.14387693258980383
1761039444.862659,15.449170589447021,-17.58459847025272,-18.674586666354383,0.5,-3.446464449902612,-3.687749732923105,-0.0,-0.1001903161960323,0.10246026680039444,0.04178826759371846,0.62,-0.015656862705401994,0.0029640731327880516,-0.11228787569462945,-17.47597376960468,-17.453343062940753,1.016824911681925,stabilize,85.0,10.0,0.0,0.0,-10.0,27.04439450982899,0.14719394904194108
