timestamp,simulation_time,position_x,position_y,position_z,velocity_x,velocity_y,velocity_z,attitude_roll,attitude_pitch,attitude_yaw,control_throttle,control_roll,control_pitch,control_yaw,flight_mode
1761301895.041754,0.10523200035095215,0.0,0.0,-0.0,0.0,0.0,-0.0,0.0,0.0,0.0,0.0,0.0,0.0,0.0,manual
1761301895.1481938,0.2116718292236328,0.0,0.0,-0.0,0.0,0.0,-0.0,0.0,0.0,0.0,0.0,0.0,0.0,0.0,manual
1761301895.2540777,0.31755566596984863,0.0,0.0,-0.0,0.0,0.0,-0.0,0.0,0.0,0.0,0.0,0.0,0.0,0.0,manual
1761301895.3598447,0.4233226776123047,0.0,0.0,-0.0,0.0,0.0,-0.0,0.0,0.0,0.0,0.0,0.0,0.0,0.0,manual
1761301895.46245,0.5259280204772949,0.0,0.0,-0.0,0.0,0.0,-0.0,0.0,0.0,0.0,0.0,0.0,0.0,0.0,manual
1761301895.5714731,0.634951114654541,0.0,0.0,-0.0,0.0,0.0,-0.0,0.0,0.0,0.0,0.0,0.0,0.0,0.0,manual
1761301895.6765916,0.7400696277618408,0.0,0.0,-0.0,0.0,0.0,-0.0,0.0,0.0,0.0,0.0,0.0,0.0,0.0,manual
1761301895.7813497,0.8448276519775391,0.0,0.0,-0.0,0.0,0.0,-0.0,0.0,0.0,0.0,0.0,0.0,0.0,0.0,manual
1761301895.8863635,0.9498414993286133,0.0,0.0,-0.0,0.0,0.0,-0.0,0.0,0.0,0.0,0.0,0.0,0.0,0.0,manual
1761301895.989609,1.0530869960784912,0.0,0.0,-0.0,0.0,0.0,-0.0,0.0,0.0,0.0,0.0,0.0,0.0,0.0,manual
1761301896.0948758,1.1583538055419922,0.0,0.0,-0.0,0.0,0.0,-0.0,0.0,0.0,0.0,0.0,0.0,0.0,0.0,manual
1761301896.1983643,1.2618422508239746,0.0,0.0,-0.0,0.0,0.0,-0.0,0.0,0.0,0.0,0.0,0.0,0.0,0.0,manual
1761301896.3085768,1.3720548152923584,0.0,0.0,-0.0,0.0,0.0,-0.0,0.0,0.0,0.0,0.0,0.0,0.0,0.0,manual
1761301896.4140534,1.4775314331054688,0.0,0.0,0.0684170734568129,0.0,0.0,1.4337857554618876,0.0,0.0,0.0,1.0,0.0,0.0,0.0,stabilize
1761301896.5177128,1.581190824508667,0.0,0.0,0.23706118479643948,0.0,0.0,1.6884574599049489,0.0,0.0,0.0,0.4610191870763607,0.0,0.0,0.0,stabilize
1761301896.6216288,1.6851067543029785,0.0,0.0,0.4136974615546254,0.0,0.0,1.689689561006662,0.0,0.0,0.0,0.41680784607195287,0.0,0.0,0.0,stabilize
1761301896.726765,1.7902429103851318,0.0,0.0,0.587627124045289,0.0,0.0,1.607756560767868,0.0,0.0,0.0,0.3939023283349806,0.0,0.0,0.0,stabilize
1761301896.8315995,1.8950774669647217,0.0,0.0,0.7500490820939218,0.0,0.0,1.485985852969224,0.0,0.0,0.0,0.3806402219119658,0.0,0.0,0.0,stabilize
1761301896.9366145,2.0000925064086914,0.0,0.0,0.8989920067014693,0.0,0.0,1.3493924002692719,0.0,0.0,0.0,0.38028963234238033,0.0,0.0,0.0,stabilize
1761301897.040111,2.1035890579223633,0.0,0.0,1.031562279981984,0.0,0.0,1.212997405694429,0.0,0.0,0.0,0.37951765565072704,0.0,0.0,0.0,stabilize
1761301897.1527727,2.2162506580352783,0.0,0.0,1.1590891448103684,0.0,0.0,1.0730626636882792,0.0,0.0,0.0,0.3852287000913539,0.0,0.0,0.0,stabilize
1761301897.2578738,2.3213517665863037,0.0,0.0,1.2652910749121675,0.0,0.0,0.9503854361644006,0.0,0.0,0.0,0.38867355222141114,0.0,0.0,0.0,stabilize
1761301897.3625042,2.4259822368621826,0.0,0.0,1.3592572397883487,0.0,0.0,0.8394210234911967,0.0,0.0,0.0,0.3936387409830205,0.0,0.0,0.0,stabilize
1761301897.46684,2.530318021774292,0.0,0.0,1.4419654323309727,0.0,0.0,0.7399326780624744,0.0,0.0,0.0,0.3986265628152431,0.0,0.0,0.0,stabilize
1761301897.5733626,2.636840581893921,0.0,0.0,1.5158937813817994,0.0,0.0,0.6498646276317103,0.0,0.0,0.0,0.40346590299002516,0.0,0.0,0.0,stabilize
1761301897.6780598,2.7415378093719482,0.0,0.0,1.579742990821773,0.0,0.0,0.5713988018169156,0.0,0.0,0.0,0.40789149124883906,0.0,0.0,0.0,stabilize
1761301897.7835412,2.8470191955566406,0.0,0.0,1.6362513383256447,0.0,0.0,0.5014746959537669,0.0,0.0,0.0,0.4117018807119742,0.0,0.0,0.0,stabilize
1761301897.8892446,2.9527225494384766,0.0,0.0,1.685928060994363,0.0,0.0,0.4397342521749414,0.0,0.0,0.0,0.41534576159832404,0.0,0.0,0.0,stabilize
1761301897.9940126,3.057490587234497,0.0,0.0,1.7291160639661745,0.0,0.0,0.38585627979071296,0.0,0.0,0.0,0.41871205756915175,0.0,0.0,0.0,stabilize
1761301898.1008224,3.1643004417419434,0.0,0.0,1.767693014511112,0.0,0.0,0.33755752678055906,0.0,0.0,0.0,0.4215079422349791,0.0,0.0,0.0,stabilize
1761301898.2052858,3.268763780593872,0.0,0.0,1.8007416712693731,0.0,0.0,0.2960663652590671,0.0,0.0,0.0,0.4239448022468299,0.0,0.0,0.0,stabilize
1761301898.3107848,3.374262809753418,0.0,0.0,1.8299915172077401,0.0,0.0,0.2592341150742845,0.0,0.0,0.0,0.4260881702156612,0.0,0.0,0.0,stabilize
1761301898.4162734,3.4797513484954834,0.0,0.0,1.8555966112938789,0.0,0.0,0.22690627216337791,0.0,0.0,0.0,0.42793194131857126,0.0,0.0,0.0,stabilize
1761301898.5227141,3.5861921310424805,0.0,0.0,1.8781941225804364,0.0,0.0,0.19831409423299845,0.0,0.0,0.0,0.4297480208230965,0.0,0.0,0.0,stabilize
1761301898.6282942,3.691772222518921,0.0,0.0,1.8977900235451663,0.0,0.0,0.17342215821111798,0.0,0.0,0.0,0.4311500961067631,0.0,0.0,0.0,stabilize
1761301898.7299657,3.7934436798095703,0.0,0.0,1.9143305538622437,0.0,0.0,0.1524000754535298,0.0,0.0,0.0,0.43257392657508664,0.0,0.0,0.0,stabilize
1761301898.8366835,3.9001615047454834,0.0,0.0,1.9295328926705941,0.0,0.0,0.1329376426310108,0.0,0.0,0.0,0.4335955111134081,0.0,0.0,0.0,stabilize
1761301898.9436467,4.007124662399292,0.0,0.0,1.942820218032109,0.0,0.0,0.11587544480963305,0.0,0.0,0.0,0.4346617097464603,0.0,0.0,0.0,stabilize
1761301899.047914,4.111392021179199,0.0,0.0,1.954126210406152,0.0,0.0,0.10128924470272516,0.0,0.0,0.0,0.4354994435760335,0.0,0.0,0.0,stabilize
1761301899.152256,4.215734004974365,0.0,0.0,1.964012721718059,0.0,0.0,0.088474760911149,0.0,0.0,0.0,0.43628882787765844,0.0,0.0,0.0,stabilize
1761301899.258432,4.3219099044799805,0.0,0.0,1.972786437314847,0.0,0.0,0.07703534375994883,0.0,0.0,0.0,0.43698634064179387,0.0,0.0,0.0,stabilize
1761301899.3659847,4.429462671279907,0.0,0.0,1.9805145962278063,0.0,0.0,0.06688763695340352,0.0,0.0,0.0,0.43740232551297553,0.0,0.0,0.0,stabilize
1761301899.470794,4.534271955490112,0.0,0.0,1.9870628493642486,0.0,0.0,0.05823697840099538,0.0,0.0,0.0,0.438126765556035,0.0,0.0,0.0,stabilize
1761301899.5739582,4.637436151504517,0.0,0.0,1.9926769245645783,0.0,0.0,0.05075577211957981,0.0,0.0,0.0,0.4386038631134597,0.0,0.0,0.0,stabilize
1761301899.6799638,4.743441820144653,0.0,0.0,1.9976914278690523,0.0,0.0,0.04400792165130953,0.0,0.0,0.0,0.4390509789036371,0.0,0.0,0.0,stabilize
1761301899.7850895,4.848567485809326,0.0,0.0,2.002002232515267,0.0,0.0,0.03813416872199809,0.0,0.0,0.0,0.4393542227155197,0.0,0.0,0.0,stabilize
1761301899.8916438,4.955121755599976,0.0,0.0,2.0057821437112446,0.0,0.0,0.03292386237519417,0.0,0.0,0.0,0.4396487116672547,0.0,0.0,0.0,stabilize
1761301899.9955153,5.058993339538574,0.0,0.0,2.0089663625723424,0.0,0.0,0.02847364926379412,0.0,0.0,0.0,0.4399236511022427,0.0,0.0,0.0,stabilize
1761301900.1008408,5.164318799972534,0.0,0.0,2.011752725044339,0.0,0.0,0.024519495572693503,0.0,0.0,0.0,0.44018200206532604,0.0,0.0,0.0,stabilize
1761301900.2097454,5.273223400115967,0.0,0.0,2.0142235115466915,0.0,0.0,0.02094292263609066,0.0,0.0,0.0,0.44041649175879255,0.0,0.0,0.0,stabilize
1761301900.3150601,5.378538131713867,0.0,0.0,2.016266302831016,0.0,0.0,0.017918365831821093,0.0,0.0,0.0,0.4405950415270989,0.0,0.0,0.0,stabilize
1761301900.4196227,5.483100652694702,0.0,0.0,2.017999447108903,0.0,0.0,0.015290903703035378,0.0,0.0,0.0,0.44077033483591566,0.0,0.0,0.0,stabilize
1761301900.5252538,5.58873176574707,0.0,0.0,2.019488804767193,0.0,0.0,0.01296316585734164,0.0,0.0,0.0,0.4408967844709449,0.0,0.0,0.0,stabilize
1761301900.6279845,5.691462516784668,0.0,0.0,2.0207165055108107,0.0,0.0,0.010979801812160146,0.0,0.0,0.0,0.441010469945489,0.0,0.0,0.0,stabilize
1761301900.7312388,5.794716835021973,0.0,0.0,2.021758028593183,0.0,0.0,0.009232551394494925,0.0,0.0,0.0,0.4411311187663958,0.0,0.0,0.0,stabilize
1761301900.8385828,5.9020607471466064,0.0,0.0,2.0226539407193695,0.0,0.0,0.007652617429572052,0.0,0.0,0.0,0.4412378763313941,0.0,0.0,0.0,stabilize
1761301900.941059,6.004537105560303,0.0,0.0,2.0233751882646924,0.0,0.0,0.0063156832739019965,0.0,0.0,0.0,0.441315724834596,0.0,0.0,0.0,stabilize
1761301901.046811,6.110289096832275,0.0,0.0,2.0239780537382535,0.0,0.0,0.005119394334324031,0.0,0.0,0.0,0.44141577290730594,0.0,0.0,0.0,stabilize
1761301901.1523352,6.215813159942627,0.0,0.0,2.0244615428140933,0.0,0.0,0.004072379964020922,0.0,0.0,0.0,0.44144467394857556,0.0,0.0,0.0,stabilize
1761301901.258381,6.321858882904053,0.0,0.0,2.024843686875131,0.0,0.0,0.003158574191405044,0.0,0.0,0.0,0.4415093366889489,0.0,0.0,0.0,stabilize
1761301901.362112,6.4255900382995605,0.0,0.0,2.0251298472835964,0.0,0.0,0.002375079340319899,0.0,0.0,0.0,0.44154293433604525,0.0,0.0,0.0,stabilize
1761301901.4678428,6.531320810317993,0.0,0.0,2.025343589319698,0.0,0.0,0.0016829135113987802,0.0,0.0,0.0,0.44160279103162065,0.0,0.0,0.0,stabilize
1761301901.5732381,6.63671612739563,0.0,0.0,2.025487988248774,0.0,0.0,0.0010856176702740315,0.0,0.0,0.0,0.4416426585967952,0.0,0.0,0.0,stabilize
1761301901.6778853,6.741363286972046,0.0,0.0,2.025572839498614,0.0,0.0,0.0005508597124289781,0.0,0.0,0.0,0.4414143402195867,0.0,0.0,0.0,stabilize
1761301901.78088,6.844357967376709,0.0,0.0,2.025608272172023,0.0,0.0,0.00012126618735077202,0.0,0.0,0.0,0.4416989910625168,0.0,0.0,0.0,stabilize
1761301901.8852992,6.948777198791504,0.0,0.0,2.025599846991431,0.0,0.0,-0.0002738650731905756,0.0,0.0,0.0,0.4417182586391188,0.0,0.0,0.0,stabilize
1761301901.9924722,7.055950164794922,0.0,0.0,2.0255515208859163,0.0,0.0,-0.0006172571814844642,0.0,0.0,0.0,0.44175978634247604,0.0,0.0,0.0,stabilize
1761301902.0963433,7.159821271896362,0.0,0.0,2.025471717461871,0.0,0.0,-0.0009126168516173358,0.0,0.0,0.0,0.44175993997947527,0.0,0.0,0.0,stabilize
1761301902.2012007,7.264678716659546,0.0,0.0,2.0253625322142867,0.0,0.0,-0.001163134402292977,0.0,0.0,0.0,0.44179358072548336,0.0,0.0,0.0,stabilize
1761301902.3069243,7.3704023361206055,0.0,0.0,2.025227409618624,0.0,0.0,-0.0013844449895224413,0.0,0.0,0.0,0.44180393026619635,0.0,0.0,0.0,stabilize
1761301902.412545,7.476022958755493,0.0,0.0,2.025070927824682,0.0,0.0,-0.0015738946410446201,0.0,0.0,0.0,0.4418168173381236,0.0,0.0,0.0,stabilize
1761301902.517371,7.580848932266235,0.0,0.0,2.0248974947889145,0.0,0.0,-0.0017347909231161774,0.0,0.0,0.0,0.441810122066206,0.0,0.0,0.0,stabilize
1761301902.6198251,7.683303117752075,0.0,0.0,2.0247131670328193,0.0,0.0,-0.0018629369546427517,0.0,0.0,0.0,0.4418422992283867,0.0,0.0,0.0,stabilize
1761301902.7250645,7.7885425090789795,0.0,0.0,2.0245107167391243,0.0,0.0,-0.0019780319134296656,0.0,0.0,0.0,0.44184926867948676,0.0,0.0,0.0,stabilize
1761301902.8296018,7.89307975769043,0.0,0.0,2.0242986140072845,0.0,0.0,-0.0020743957689559984,0.0,0.0,0.0,0.44186051211262745,0.0,0.0,0.0,stabilize
1761301902.9381857,8.00166368484497,0.0,0.0,2.02406845727493,0.0,0.0,-0.002157166332350839,0.0,0.0,0.0,0.4418610957393566,0.0,0.0,0.0,stabilize
1761301903.042628,8.106106042861938,0.0,0.0,2.023839509626376,0.0,0.0,-0.002223623805387132,0.0,0.0,0.0,0.44185990529401786,0.0,0.0,0.0,stabilize
1761301903.1476343,8.211112260818481,0.0,0.0,2.023603041752654,0.0,0.0,-0.002278735914205441,0.0,0.0,0.0,0.441868300233707,0.0,0.0,0.0,stabilize
1761301903.253198,8.316675901412964,0.0,0.0,2.0233601771823233,0.0,0.0,-0.0023258753343076374,0.0,0.0,0.0,0.4418479775483426,0.0,0.0,0.0,stabilize
1761301903.3573544,8.420832395553589,0.0,0.0,2.0231165935120092,0.0,0.0,-0.002352719893967546,0.0,0.0,0.0,0.44189740393512145,0.0,0.0,0.0,stabilize
1761301903.4620929,8.5255708694458,0.0,0.0,2.022868571276747,0.0,0.0,-0.0023804446072234462,0.0,0.0,0.0,0.44187114485950996,0.0,0.0,0.0,stabilize
1761301903.5644805,8.627958536148071,0.0,0.0,2.0226239375447435,0.0,0.0,-0.00239808947569512,0.0,0.0,0.0,0.4418847035560468,0.0,0.0,0.0,stabilize
1761301903.671867,8.735344886779785,0.0,0.0,2.022365559207393,0.0,0.0,-0.0024136395125533227,0.0,0.0,0.0,0.44184094056068535,0.0,0.0,0.0,stabilize
1761301903.7785347,8.842012643814087,0.0,0.0,2.022108048057034,0.0,0.0,-0.0024183102111569937,0.0,0.0,0.0,0.4418947266136414,0.0,0.0,0.0,stabilize
1761301903.883566,8.947043895721436,0.0,0.0,2.0218537632479943,0.0,0.0,-0.002424598343788791,0.0,0.0,0.0,0.44187020604376914,0.0,0.0,0.0,stabilize
1761301903.9887638,9.052241802215576,0.0,0.0,2.021599193474218,0.0,0.0,-0.002418043417475381,0.0,0.0,0.0,0.441890928311736,0.0,0.0,0.0,stabilize
1761301904.0926044,9.156082391738892,0.0,0.0,2.0213482983547757,0.0,0.0,-0.0024124344298955547,0.0,0.0,0.0,0.441901585264714,0.0,0.0,0.0,stabilize
1761301904.1979327,9.2614107131958,0.0,0.0,2.0210944796805896,0.0,0.0,-0.0024046425223535023,0.0,0.0,0.0,0.4418959979880352,0.0,0.0,0.0,stabilize
1761301904.302113,9.365591049194336,0.0,0.0,2.0208444568223145,0.0,0.0,-0.00239606595441482,0.0,0.0,0.0,0.44188656679772453,0.0,0.0,0.0,stabilize
1761301904.409233,9.472711086273193,0.0,0.0,2.020588628488022,0.0,0.0,-0.002381460900271629,0.0,0.0,0.0,0.4418868448856784,0.0,0.0,0.0,stabilize
1761301904.5126147,9.576092720031738,0.0,0.0,2.02034333941086,0.0,0.0,-0.0023629443794272844,0.0,0.0,0.0,0.4419256932238246,0.0,0.0,0.0,stabilize
1761301904.6169114,9.680389404296875,0.0,0.0,2.0200974820882425,0.0,0.0,-0.002349124749700847,0.0,0.0,0.0,0.4418998971971502,0.0,0.0,0.0,stabilize
1761301904.7219596,9.78543758392334,0.0,0.0,2.0198516257450065,0.0,0.0,-0.002330176309066821,0.0,0.0,0.0,0.4419070843802173,0.0,0.0,0.0,stabilize
1761301904.8279948,9.891472816467285,0.0,0.0,2.0196054242017274,0.0,0.0,-0.002312708040755411,0.0,0.0,0.0,0.4418971932168636,0.0,0.0,0.0,stabilize
1761301904.9326296,9.996107578277588,0.0,0.0,2.0193645881421456,0.0,0.0,-0.0022908408725207893,0.0,0.0,0.0,0.441902383131488,0.0,0.0,0.0,stabilize
1761301905.0391207,10.102598667144775,0.0,0.0,2.019121661252258,0.0,0.0,-0.0022700768367888073,0.0,0.0,0.0,0.4419079447159878,0.0,0.0,0.0,stabilize
1761301905.1523945,10.215872526168823,0.0,0.0,2.018867925025322,0.0,0.0,-0.002275133030239483,0.0,0.0,0.0,0.4418269718506417,0.0,0.0,0.0,stabilize
1761301905.2580156,10.32149362564087,0.0,0.0,2.0186297306642023,0.0,0.0,-0.0022195471441865864,0.0,0.0,0.0,0.4419164473423094,0.0,0.0,0.0,stabilize
1761301905.3616235,10.425101518630981,0.0,0.0,2.0184007176181926,0.0,0.0,-0.0021986292303181683,0.0,0.0,0.0,0.44191054079023145,0.0,0.0,0.0,stabilize
1761301905.464827,10.528305053710938,0.0,0.0,2.018174705137344,0.0,0.0,-0.002168542074665315,0.0,0.0,0.0,0.44195001373856435,0.0,0.0,0.0,stabilize
1761301905.568236,10.631714105606079,0.0,0.0,2.017951106608824,0.0,0.0,-0.002150859566150058,0.0,0.0,0.0,0.44191127936520086,0.0,0.0,0.0,stabilize
1761301905.6724405,10.735918521881104,0.0,0.0,2.017727984961535,0.0,0.0,-0.0021315698734101956,0.0,0.0,0.0,0.44189434230533464,0.0,0.0,0.0,stabilize
1761301905.7765973,10.840075254440308,0.0,0.0,2.0175072978153654,0.0,0.0,-0.002108548706142005,0.0,0.0,0.0,0.44189399940890983,0.0,0.0,0.0,stabilize
1761301905.8851397,10.948617696762085,0.0,0.0,2.017279774244147,0.0,0.0,-0.0020845659827004423,0.0,0.0,0.0,0.4418996150173674,0.0,0.0,0.0,stabilize
1761301905.9913764,11.054854393005371,0.0,0.0,2.017059718393376,0.0,0.0,-0.0020604840357967267,0.0,0.0,0.0,0.4418919177774385,0.0,0.0,0.0,stabilize
1761301906.097467,11.160944938659668,0.0,0.0,2.0168436708230404,0.0,0.0,-0.002035497861729295,0.0,0.0,0.0,0.4419023714721133,0.0,0.0,0.0,stabilize
1761301906.201878,11.265356063842773,0.0,0.0,2.0166313602463695,0.0,0.0,-0.0020112988969123074,0.0,0.0,0.0,0.44190236168774055,0.0,0.0,0.0,stabilize
1761301906.307775,11.37125301361084,0.0,0.0,2.0164196887952457,0.0,0.0,-0.001987303852081153,0.0,0.0,0.0,0.4419017132155482,0.0,0.0,0.0,stabilize
1761301906.414751,11.47822904586792,0.0,0.0,2.016208422482972,0.0,0.0,-0.0019633877013886924,0.0,0.0,0.0,0.4418988749506419,0.0,0.0,0.0,stabilize
1761301906.5199118,11.58338975906372,0.0,0.0,2.0160033033769458,0.0,0.0,-0.0019396881623041716,0.0,0.0,0.0,0.4418965106095113,0.0,0.0,0.0,stabilize
1761301906.6257334,11.689211368560791,0.0,0.0,2.015799395524745,0.0,0.0,-0.0019138506281643909,0.0,0.0,0.0,0.4419183543513394,0.0,0.0,0.0,stabilize
1761301906.7346108,11.798088788986206,0.0,0.0,2.0155932303938227,0.0,0.0,-0.0018886585520980102,0.0,0.0,0.0,0.44189643519515887,0.0,0.0,0.0,stabilize
1761301906.8403368,11.903814792633057,0.0,0.0,2.0153937287933714,0.0,0.0,-0.001866768519169069,0.0,0.0,0.0,0.4419033882143163,0.0,0.0,0.0,stabilize
1761301906.949772,12.01324987411499,0.0,0.0,2.0151906644009236,0.0,0.0,-0.001835923620448749,0.0,0.0,0.0,0.44196003029570724,0.0,0.0,0.0,stabilize
1761301907.0564601,12.119938135147095,0.0,0.0,2.014995429303461,0.0,0.0,-0.0018194758545733783,0.0,0.0,0.0,0.4419000356774716,0.0,0.0,0.0,stabilize
1761301907.1614287,12.22490668296814,0.0,0.0,2.0148056519630644,0.0,0.0,-0.0017968640434696491,0.0,0.0,0.0,0.4419011628285332,0.0,0.0,0.0,stabilize
1761301907.266415,12.329893112182617,0.0,0.0,2.0146181235836735,0.0,0.0,-0.0017742327745717797,0.0,0.0,0.0,0.4419082005105133,0.0,0.0,0.0,stabilize
1761301907.3712668,12.434744834899902,0.0,0.0,2.0144331270762224,0.0,0.0,-0.0017542360049637626,0.0,0.0,0.0,0.44189883370342947,0.0,0.0,0.0,stabilize
1761301907.4762537,12.539731740951538,0.0,0.0,2.0142501731599665,0.0,0.0,-0.001731885199296094,0.0,0.0,0.0,0.4419054304667864,0.0,0.0,0.0,stabilize
1761301907.5823443,12.645822286605835,0.0,0.0,2.0140675957075866,0.0,0.0,-0.0017099555147504796,0.0,0.0,0.0,0.4419089824363918,0.0,0.0,0.0,stabilize
1761301907.6913145,12.75479245185852,0.0,0.0,2.013882452724935,0.0,0.0,-0.0016872841176844677,0.0,0.0,0.0,0.4418832509871238,0.0,0.0,0.0,stabilize
1761301907.796609,12.860086917877197,0.0,0.0,2.0137059714789847,0.0,0.0,-0.0016653286230000836,0.0,0.0,0.0,0.44190261383010976,0.0,0.0,0.0,stabilize
1761301907.897554,12.961031913757324,0.0,0.0,2.0135386418203574,0.0,0.0,-0.0016379898834071956,0.0,0.0,0.0,0.4419736576762254,0.0,0.0,0.0,stabilize
1761301908.0020602,13.065538167953491,0.0,0.0,2.0133678422963546,0.0,0.0,-0.0016232260773694806,0.0,0.0,0.0,0.4419138152675506,0.0,0.0,0.0,stabilize
1761301908.1063087,13.16978669166565,0.0,0.0,2.0131995286539768,0.0,0.0,-0.0016060476817853179,0.0,0.0,0.0,0.44189149841617537,0.0,0.0,0.0,stabilize
1761301908.2119458,13.275423765182495,0.0,0.0,2.013031051391445,0.0,0.0,-0.0015846589604991245,0.0,0.0,0.0,0.4418995616085823,0.0,0.0,0.0,stabilize
1761301908.3158429,13.379320859909058,0.0,0.0,2.0128666882742783,0.0,0.0,-0.0015791398643666913,0.0,0.0,0.0,0.4416983498978933,0.0,0.0,0.0,stabilize
1761301908.4215364,13.48501443862915,0.0,0.0,2.0127018010649653,0.0,0.0,-0.0015448213011769437,0.0,0.0,0.0,0.44192657122550233,0.0,0.0,0.0,stabilize
1761301908.5318766,13.595354557037354,0.0,0.0,2.012534015205102,0.0,0.0,-0.0015147500264614756,0.0,0.0,0.0,0.4419175941074032,0.0,0.0,0.0,stabilize
1761301908.6334362,13.696914196014404,0.0,0.0,2.012379813509377,0.0,0.0,-0.0014949500418795644,0.0,0.0,0.0,0.44200432467937595,0.0,0.0,0.0,stabilize
1761301908.7441,13.807578086853027,0.0,0.0,2.0122129192530966,0.0,0.0,-0.0014778190298682732,0.0,0.0,0.0,0.44194529677623745,0.0,0.0,0.0,stabilize
1761301908.8517697,13.915247678756714,0.0,0.0,2.01205586586466,0.0,0.0,-0.0014624432391234317,0.0,0.0,0.0,0.4418923879749672,0.0,0.0,0.0,stabilize
1761301908.955194,14.018671989440918,0.0,0.0,2.0119053590004357,0.0,0.0,-0.0014428163944133034,0.0,0.0,0.0,0.4419348231575178,0.0,0.0,0.0,stabilize
1761301909.0614533,14.124931335449219,0.0,0.0,2.0117510307327433,0.0,0.0,-0.001434064063448762,0.0,0.0,0.0,0.4418974059273024,0.0,0.0,0.0,stabilize
1761301909.1733646,14.236842632293701,0.0,0.0,2.0115932347327683,0.0,0.0,-0.001436961677494801,0.0,0.0,0.0,0.44184957663007823,0.0,0.0,0.0,stabilize
1761301909.2748244,14.338302373886108,0.0,0.0,2.011450549151042,0.0,0.0,-0.0013935682830921452,0.0,0.0,0.0,0.4419129513276875,0.0,0.0,0.0,stabilize
1761301909.380769,14.444247007369995,0.0,0.0,2.011284082431387,0.0,0.0,-0.00100954626944657,0.0,0.0,0.0,0.44529017406440796,0.0,0.0,0.0,stabilize
1761301909.494007,14.557485103607178,0.0,0.0,2.0111276961540416,0.0,0.0,-0.001356401404813181,0.0,0.0,0.0,0.4420152316056086,0.0,0.0,0.0,stabilize
1761301909.5968947,14.660372734069824,0.0,0.0,2.0109885816420325,0.0,0.0,-0.0013353588251049057,0.0,0.0,0.0,0.44193346927356414,0.0,0.0,0.0,stabilize
1761301909.7033758,14.76685380935669,0.0,0.0,2.0108477205360438,0.0,0.0,-0.0013038536887419866,0.0,0.0,0.0,0.4419463502584089,0.0,0.0,0.0,stabilize
1761301909.8153846,14.878862619400024,0.0,0.0,2.0107016826393904,0.0,0.0,-0.0014012403415446227,0.0,0.0,0.0,0.44175678867648155,0.0,0.0,0.0,stabilize
1761301909.9206533,14.984131336212158,0.0,0.0,2.006970329677761,0.0,0.0,-0.11566230427926118,0.0,0.0,0.0,0.35,0.0,0.0,0.0,auto
1761301910.0255725,15.089050531387329,0.0,0.0,1.9848244269003097,0.0,0.0,-0.30643296138694326,0.0,0.0,0.0,0.35,0.0,0.0,0.0,auto
1761301910.131551,15.195029020309448,0.0,0.0,1.9421588863014028,0.0,0.0,-0.49863130262859084,0.0,0.0,0.0,0.35,0.0,0.0,0.0,auto
1761301910.236903,15.300380945205688,0.0,0.0,1.87959667176425,0.0,0.0,-0.6888905157495588,0.0,0.0,0.0,0.35,0.0,0.0,0.0,auto
1761301910.341555,15.405033111572266,0.0,0.0,1.7976596646166585,0.0,0.0,-0.8767964350324031,0.0,0.0,0.0,0.35,0.0,0.0,0.0,auto
1761301910.4467835,15.510261535644531,0.0,0.0,1.695514272029494,0.0,0.0,-1.0643512003821782,0.0,0.0,0.0,0.35,0.0,0.0,0.0,auto
1761301910.5502965,15.613774538040161,0.0,0.0,1.5758604356186223,0.0,0.0,-1.2472180605189018,0.0,0.0,0.0,0.35,0.0,0.0,0.0,auto
1761301910.6598053,15.723283290863037,0.0,0.0,1.4321581483783445,0.0,0.0,-1.3421015172398798,0.0,0.0,0.0,0.40835997559824805,0.0,0.0,0.0,auto
1761301910.7642145,15.82769250869751,0.0,0.0,1.29494795718596,0.0,0.0,-1.2901305079690444,0.0,0.0,0.0,0.46368688629809246,0.0,0.0,0.0,auto
1761301910.870558,15.934036016464233,0.0,0.0,1.161960821104824,0.0,0.0,-1.206158252908469,0.0,0.0,0.0,0.4803743566677064,0.0,0.0,0.0,auto
1761301910.9773421,16.040820121765137,0.0,0.0,1.0386335955722854,0.0,0.0,-1.1020660998493186,0.0,0.0,0.0,0.4876025288642241,0.0,0.0,0.0,auto
1761301911.0816677,16.145145654678345,0.0,0.0,0.9292006010750568,0.0,0.0,-0.9959348485252586,0.0,0.0,0.0,0.48716434919626744,0.0,0.0,0.0,auto
1761301911.1870492,16.250527143478394,0.0,0.0,0.8272032198018783,0.0,0.0,-0.931933789840467,0.0,0.0,0.0,0.4711440817655915,0.0,0.0,0.0,auto
1761301911.2905388,16.35401678085327,0.0,0.0,0.7353082820749411,0.0,0.0,-0.8442746812796791,0.0,0.0,0.0,0.4796028950413314,0.0,0.0,0.0,auto
1761301911.3992815,16.462759494781494,0.0,0.0,0.6484750359099493,0.0,0.0,-0.753276102886342,0.0,0.0,0.0,0.48008218049259127,0.0,0.0,0.0,auto
1761301911.5040658,16.567543745040894,0.0,0.0,0.5739104189671882,0.0,0.0,-0.6707552490848898,0.0,0.0,0.0,0.4776201983921322,0.0,0.0,0.0,auto
1761301911.6102395,16.673717498779297,0.0,0.0,0.5068347623827922,0.0,0.0,-0.5938417754725899,0.0,0.0,0.0,0.4741553805266147,0.0,0.0,0.0,auto
1761301911.7153146,16.7787926197052,0.0,0.0,0.4872650198965584,0.0,0.0,0.5377546498350231,0.0,0.0,0.0,1.0,0.0,0.0,0.0,auto
1761301911.8217902,16.885268211364746,0.0,0.0,0.629625448083646,0.0,0.0,2.133265667550894,0.0,0.0,0.0,1.0,0.0,0.0,0.0,auto
1761301911.9274743,16.990952253341675,0.0,0.0,0.9346885462384418,0.0,0.0,3.4704891633672754,0.0,0.0,0.0,0.8462982971630584,0.0,0.0,0.0,auto
1761301912.033707,17.097184896469116,1.4883697123115065e-05,0.0,1.3142991689347292,0.0025422805995408467,0.0,3.6456830264668905,0.0,-0.03174913376060502,0.0,0.4119461552631206,0.0,-0.3,0.0,auto
1761301912.1389937,17.20247173309326,0.00684092629673994,0.0,1.696364011704376,0.16804600129352004,0.0,3.5775321009156453,0.0,-0.29973542176423595,0.0,0.36314729321072686,0.0,-0.3,0.0,auto
1761301912.2467859,17.310263872146606,0.044541223603474026,0.0,2.0708557245896,0.5617228549624368,0.0,3.350553953699571,0.0,-0.5072852405822794,0.0,0.39483312841485463,0.0,0.11387545217368857,0.0,auto
1761301912.3512065,17.414684534072876,0.12518505686802658,0.0,2.4064160471671343,0.9807104119759802,0.0,3.071666228990063,0.0,-0.5168786864386901,0.0,0.38010295697208396,0.0,0.020555495877200076,0.0,auto
1761301912.456897,17.52037501335144,0.2513574951616776,0.0,2.7152981042491096,1.403432689961033,0.0,2.7722999344515165,0.0,-0.516127308540484,0.0,0.3706350051706296,0.0,-0.014944815295262204,0.0,auto
1761301912.56171,17.625187873840332,0.42046567969236054,0.0,2.9905622865337134,1.8219037305165142,0.0,2.4845359107974505,0.0,-0.49098394852069444,0.0,0.35553204710463576,0.0,0.20078121161550466,0.0,auto
1761301912.6688795,17.732357501983643,0.6336435001449875,0.0,3.2414952057655944,2.133733222397993,0.0,2.2021965248164914,0.0,-0.3480984439622575,0.0,0.35257198562844544,0.0,0.046543621450500054,0.0,auto
1761301912.772136,17.83561396598816,0.8659016906395811,0.0,3.4560143499214844,2.349871322815866,0.0,1.955406783148899,0.0,-0.2539969242105572,0.0,0.35,0.0,-0.0012208900124404572,0.0,auto
1761301912.8818524,17.945330381393433,1.1332594424441274,0.0,3.6571550782565576,2.514078141804024,0.0,1.715811313996865,0.0,-0.18962272935709065,0.0,0.3556574331382936,0.0,0.007632510796908175,0.0,auto
1761301912.9871051,18.050583124160767,1.4040845832506526,0.0,3.8267848168879666,2.626761647862305,0.0,1.5113071748179514,0.0,-0.14834771670174055,0.0,0.36305214568854793,0.0,0.020186211381230015,0.0,auto
1761301913.0943024,18.157780408859253,1.6902918467800647,0.0,3.9786711280298346,2.7089838290925683,0.0,1.326232403273788,0.0,-0.1169485167864748,0.0,0.3712987702825471,0.0,0.018148286278649926,0.0,auto
1761301913.199879,18.263356924057007,1.9795221355202754,0.0,4.110006324418251,2.766911155758171,0.0,1.165050357443118,0.0,-0.09378440514258923,0.0,0.3791156937799159,0.0,0.011145655478637403,0.0,auto
1761301913.3045828,18.36806082725525,2.271513027491753,0.0,4.224448564821606,2.8081168530440976,0.0,1.0239000395173306,0.0,-0.07693874038513954,0.0,0.3863355236176107,0.0,0.0056082535872247,0.0,auto
1761301913.4093819,18.472859859466553,2.5674384787739273,0.0,4.3250882843344005,2.8375199874986663,0.0,0.899536983636329,0.0,-0.06278434463186316,0.0,0.3924149194994654,0.0,0.04685731897289509,0.0,auto
1761301913.51597,18.579447984695435,2.869971506260851,0.0,4.414899090263022,2.8292846523331017,0.0,0.7879314402112676,0.0,-0.007081404689274083,0.0,0.3979422699842575,0.0,-0.00031481669273444087,0.0,auto
1761301913.6219044,18.68538236618042,3.1677410927879124,0.0,4.493109588810379,2.7865582655267866,0.0,0.6906407270075564,0.0,0.025929613355505556,0.0,0.4035060257151211,0.0,-0.0074579751943228845,0.0,auto
1761301913.7289124,18.7923903465271,3.4625444847392117,0.0,4.562298922994372,2.720276491216482,0.0,0.6043826766394707,0.0,0.04547505136080145,0.0,0.4086268411443291,0.0,-0.0003115206009506942,0.0,auto
1761301913.8321595,18.89563751220703,3.739436198168644,0.0,4.620846193619101,2.642058037587448,0.0,0.5312656698001315,0.0,0.05672488471979485,0.0,0.41277377635019513,0.0,0.006175385977521428,0.0,auto
1761301913.9383173,19.001795291900635,4.0152178548575375,0.0,4.673660669699159,2.552841521407358,0.0,0.4651940209684058,0.0,0.06444580994801431,0.0,0.4165429389310407,0.0,0.006043614797297099,0.0,auto
1761301914.043215,19.106693029403687,4.278158456941883,0.0,4.719389080950561,2.45995605653284,0.0,0.40787414677282435,0.0,0.06937698193591293,0.0,0.4198226970484757,0.0,0.0026196462424930866,0.0,auto
1761301914.149315,19.212793111801147,4.534087056143335,0.0,4.759910093775859,2.3640996491837427,0.0,0.35702337528346023,0.0,0.07219885396723046,0.0,0.4227392184212377,0.0,0.00031342806786513813,0.0,auto
1761301914.253328,19.316806077957153,4.77509167312577,0.0,4.794721087310051,2.2700662746018216,0.0,0.3132604541630681,0.0,0.0732498692179423,0.0,0.42536932815221096,0.0,-0.0006830134805364211,0.0,auto
1761301914.3562493,19.419727325439453,5.003987780229852,0.0,4.8249569565784425,2.178155227631869,0.0,0.2752712645723628,0.0,0.07306540319863987,0.0,0.428759655166913,0.0,-2.1267221625091846e-06,0.0,auto
1761301914.4616113,19.525089263916016,5.228605881444904,0.0,4.852102101886035,2.0859928267316845,0.0,0.24084451613401295,0.0,0.07205340812745055,0.0,0.4291943428130267,0.0,-0.00047198831188931636,0.0,auto
1761301914.5649765,19.628454446792603,5.4396596973430755,0.0,4.875437085917556,1.9980958211361846,0.0,0.21127697608493828,0.0,0.07067943193744039,0.0,0.4308228815130047,0.0,-0.0008407553318616832,0.0,auto
1761301914.670665,19.734143018722534,5.646212889116963,0.0,4.896332397715936,1.9111074716732774,0.0,0.18471612149574912,0.0,0.0689695739337867,0.0,0.4322691572628829,0.0,-0.0010107965342846846,0.0,auto
1761301914.776286,19.839763879776,5.8436097109703296,0.0,4.914585395644471,1.8272522737722845,0.0,0.1614150181947258,0.0,0.06701546140207261,0.0,0.4334152752496704,0.0,-0.0010821753973930598,0.0,auto
1761301914.879765,19.9432430267334,6.02857364926586,0.0,4.930230697939397,1.7481643359758796,0.0,0.14139159163798123,0.0,0.06496008901035984,0.0,0.4346248452201758,0.0,-0.0010641158975159151,0.0,auto
1761301914.9853876,20.04886555671692,6.209096864323462,0.0,4.9441943516146685,1.6706515513647584,0.0,0.12341905664482253,0.0,0.0627430154828997,0.0,0.43553271880805905,0.0,-0.0008893990742357404,0.0,auto
1761301915.0901797,20.15365767478943,6.3802762625010025,0.0,4.956289836904379,1.5969009100143483,0.0,0.10777050672194931,0.0,0.0605517394659709,0.0,0.4363014380575069,0.0,-0.0008388349581646598,0.0,auto
1761301915.2000182,20.263496160507202,6.551582827011274,0.0,4.967320470442945,1.5228952982178086,0.0,0.09341412446192938,0.0,0.058344520735926914,0.0,0.436971136608241,0.0,-0.0008472695971580804,0.0,auto
1761301915.3053517,20.36882972717285,6.708391052097488,0.0,4.9765126343168244,1.4549800226337355,0.0,0.08137870950223026,0.0,0.056166419015266644,0.0,0.43769092373418916,0.0,-0.0007754986298937048,0.0,auto
1761301915.4190853,20.482563257217407,6.868462693816701,0.0,4.985035927019927,1.3855324395256505,0.0,0.07001481637882696,0.0,0.05392628439914366,0.0,0.437936080909156,0.0,-0.001126843753201251,0.0,auto
1761301915.523814,20.587291955947876,7.011643829211261,0.0,4.991953628281231,1.3232519395469164,0.0,0.06091550207013244,0.0,0.051883191818234094,0.0,0.4386720326665227,0.0,-0.0008314398978817333,0.0,auto
1761301915.6299899,20.69346785545349,7.14894552945556,0.0,4.9979812042418255,1.26348117136504,0.0,0.052800833332070474,0.0,0.04992599207990581,0.0,0.4391521783158916,0.0,-0.0010536823161399196,0.0,auto
1761301915.734892,20.798369884490967,7.278503544518057,0.0,5.003143680384013,1.2070039680975557,0.0,0.04577088442188383,0.0,0.048019220299403406,0.0,0.4394813952014361,0.0,-0.0009835920531968505,0.0,auto
1761301915.847451,20.910928964614868,7.40993119844627,0.0,5.007877167900956,1.1496304384178169,0.0,0.03917243675259594,0.0,0.0460286913804896,0.0,0.4396168440134227,0.0,-0.001112858130609045,0.0,auto
1761301915.9515479,21.015025854110718,7.5280187329869,0.0,5.011714391230186,1.0979802234712923,0.0,0.03387798763626559,0.0,0.044227995689104405,0.0,0.4400618588533347,0.0,-0.000887925794090494,0.0,auto
1761301916.057806,21.121284008026123,7.642017900079868,0.0,5.015056307543653,1.0480866546214673,0.0,0.029122993346838856,0.0,0.042485378726320265,0.0,0.4403518648904102,0.0,-0.0009243481601135185,0.0,auto
1761301916.1630673,21.226545333862305,7.749836096867543,0.0,5.017899938072907,1.0008430024866535,0.0,0.02498704499871245,0.0,0.040801783064144434,0.0,0.4405034017877079,0.0,-0.0009185201168558387,0.0,auto
1761301916.2671037,21.330581665039062,7.85162032153563,0.0,5.020310400824202,0.9561914933778723,0.0,0.021421271888589378,0.0,0.03918907797382068,0.0,0.4407492638994037,0.0,-0.0008187386544239304,0.0,auto
1761301916.3712454,21.434723377227783,7.94895727681028,0.0,5.022373991095991,0.9134456369084044,0.0,0.018283078711352586,0.0,0.037620739056496336,0.0,0.44092911245615585,0.0,-0.0007179866553980317,0.0,auto
1761301916.4751983,21.538676261901855,8.041775655787944,0.0,5.024128178291314,0.8726399350572706,0.0,0.015526540716484677,0.0,0.036104673245777465,0.0,0.44100229216929726,0.0,-0.0006632319158841065,0.0,auto
1761301916.578437,21.64191508293152,8.129850222800737,0.0,5.025605224059322,0.8338785866065501,0.0,0.013132012457869626,0.0,0.034657353291323766,0.0,0.44113163299463315,0.0,-0.000658697492722678,0.0,auto
1761301916.6797464,21.743224382400513,8.212473006090613,0.0,5.026828547917682,0.7974872573029063,0.0,0.011047907035953767,0.0,0.0332869593442088,0.0,0.4409095752791073,0.0,-0.00042613558952733327,0.0,auto
1761301916.7847462,21.84822416305542,8.294299499672476,0.0,5.027890525949993,0.7613954331258899,0.0,0.009202220969384707,0.0,0.031900625569328246,0.0,0.4413906454747261,0.0,-0.00048694398234532216,0.0,auto
1761301916.890093,21.9535710811615,8.37267472210442,0.0,5.0287706611253205,0.7268087581540049,0.0,0.007549693743722146,0.0,0.03059084120197683,0.0,0.44141141929304584,0.0,-0.0005653061451678714,0.0,auto
1761301916.9955676,22.059045553207397,8.447576775957856,0.0,5.029489245817444,0.6937263812480123,0.0,0.006114274656506757,0.0,0.029326500390891713,0.0,0.44152965463740423,0.0,-0.0005886757879414881,0.0,auto
1761301917.1004791,22.163957118988037,8.51869523325729,0.0,5.030063097092488,0.6622890227837152,0.0,0.004859510779563118,0.0,0.02810820973651688,0.0,0.44154872586564414,0.0,-0.0005806965109414976,0.0,auto
1761301917.2046173,22.26809525489807,8.586100290573219,0.0,5.030511301651157,0.6324685916242004,0.0,0.0037730452975942076,0.0,0.026934868008293564,0.0,0.4415777141239274,0.0,-0.0005208386156265299,0.0,auto
1761301917.3083048,22.371782779693604,8.650196893329895,0.0,5.030852607007316,0.6040872778129464,0.0,0.002827386648699489,0.0,0.025813548764867075,0.0,0.4416253601498677,0.0,-0.0005309831454499165,0.0,auto
1761301917.4169035,22.48038148880005,8.71424683615129,0.0,5.031111944372296,0.5757033996198899,0.0,0.0019719871999743207,0.0,0.024701603320016505,0.0,0.4416810756332361,0.0,-0.0005624597300214344,0.0,auto
1761301917.5230558,22.586533784866333,8.773943125550028,0.0,5.031281479854393,0.5492322176808712,0.0,0.001236317073942637,0.0,0.023631720911091815,0.0,0.4416993011214872,0.0,-0.0005068575152081283,0.0,auto
1761301917.6282191,22.691697120666504,8.830375180618455,0.0,5.0313782000730285,0.5241886988235203,0.0,0.0006127240609244944,0.0,0.022615642302723237,0.0,0.44175505177676805,0.0,-0.00044840946225004335,0.0,auto
1761301917.7334228,22.796900749206543,8.884253504450191,0.0,5.03141330278855,0.5002623035704262,0.0,5.971676602333479e-05,0.0,0.021646250319025808,0.0,0.4417344177953074,0.0,-0.00047047828217659977,0.0,auto
1761301917.8375974,22.90107536315918,8.935180462866496,0.0,5.031395430659631,0.4776318401883827,0.0,-0.00039846541832211553,0.0,0.020724620202728396,0.0,0.44180295521953095,0.0,-0.0004201956482793111,0.0,auto
1761301917.9404907,23.003968715667725,8.983218517636391,0.0,5.031333132076373,0.4562725201023742,0.0,-0.0008016418004891477,0.0,0.019851068244120005,0.0,0.44180947359753747,0.0,-0.00041513254026632833,0.0,auto
1761301918.0470893,23.110567331314087,9.030721389495588,0.0,5.031227854953759,0.43513963283937185,0.0,-0.001161917986446567,0.0,0.018980680315981813,0.0,0.44184104264821,0.0,-0.0003936241647446122,0.0,auto
1761301918.1528814,23.21635937690735,9.07568857141132,0.0,5.031088234908036,0.415121019344484,0.0,-0.001475913400614242,0.0,0.018150401051583345,0.0,0.4417972424521594,0.0,-0.00039173635950865283,0.0,auto
1761301918.2570353,23.320513248443604,9.11793749718698,0.0,5.030921462903974,0.39630164882365776,0.0,-0.001729787234348074,0.0,0.01736735063439328,0.0,0.44184344720775476,0.0,-0.00036866054920525743,0.0,auto
1761301918.3607075,23.424185514450073,9.158088412490908,0.0,5.030730520522512,0.3784085685164265,0.0,-0.0019486878397821544,0.0,0.01661953881299957,0.0,0.441867082256911,0.0,-0.00033566423610509425,0.0,auto
1761301918.4682875,23.531765460968018,9.197112649397686,0.0,5.030514105735789,0.3610092028769349,0.0,-0.002144262604669767,0.0,0.015887137565242695,0.0,0.4418415529890824,0.0,-0.0002960491038133797,0.0,auto
1761301918.570939,23.634417057037354,9.234026701163664,0.0,5.030281051955728,0.3445403999465668,0.0,-0.00230542244895221,0.0,0.015192015872974123,0.0,0.4418680768849326,0.0,-0.0002936809326822222,0.0,auto
1761301918.6760023,23.7394802570343,9.269389674236029,0.0,5.030031317302365,0.3287572192351152,0.0,-0.0024429868847276564,0.0,0.014524866866689847,0.0,0.44189443618387003,0.0,-0.0002937323797352895,0.0,auto
1761301918.7815187,23.844996690750122,9.3032745001803,0.0,5.029767101379133,0.3136268635548095,0.0,-0.0025574341806900245,0.0,0.013881900403368789,0.0,0.4419080291110319,0.0,-0.00027414763980351787,0.0,auto
1761301918.881639,23.945116996765137,9.333983142153661,0.0,5.029505763378359,0.2999097680014181,0.0,-0.002639457439223279,0.0,0.01329856590796149,0.0,0.4420039005195111,0.0,-0.00022028247081348344,0.0,auto
1761301918.987914,24.051392078399658,9.365045166774316,0.0,5.0292202523008545,0.28602501287359616,0.0,-0.0027296639682475045,0.0,0.01269785899850465,0.0,0.44190594263320737,0.0,-0.00022149314797600232,0.0,auto
1761301919.0910563,24.154534339904785,9.393939253242278,0.0,5.028934464851759,0.2731065759998384,0.0,-0.0027953509746592724,0.0,0.012146393119905351,0.0,0.44189771780752574,0.0,-0.00024657351529265483,0.0,auto
1761301919.1959589,24.25943684577942,9.421927256988855,0.0,5.028638248797347,0.2605901189720748,0.0,-0.0028502866354310767,0.0,0.011608872076744957,0.0,0.4418952431908471,0.0,-0.0002471554357864416,0.0,auto
1761301919.300814,24.36429190635681,9.448620509046144,0.0,5.0283372741676855,0.2486477797957706,0.0,-0.0028883967512447284,0.0,0.011094270840154541,0.0,0.441910427550871,0.0,-0.0002299134784196046,0.0,auto
1761301919.4053676,24.46884560585022,9.474018705657798,0.0,5.028033429310074,0.23728087894384106,0.0,-0.0029205286483746026,0.0,0.01060074128231236,0.0,0.44190212227620174,0.0,-0.00021260951247194964,0.0,auto
1761301919.5106597,24.574137687683105,9.498422782643834,0.0,5.02772461567145,0.22635505417008636,0.0,-0.0029437058544449423,0.0,0.010125682482074645,0.0,0.4418970631683647,0.0,-0.00020096822207176944,0.0,auto
1761301919.6170402,24.68051815032959,9.518604116903264,0.002909667395865897,5.067359714755715,0.08646092525241078,0.11895125016990117,0.9197170842828137,0.16220371842411302,0.17234504791737543,0.010448160941790472,1.0,0.3,0.3,-0.02371652894434323,auto
1761301919.724921,24.78839898109436,9.498654482163733,0.0437055312386065,5.220187983911842,-0.5316382634358774,0.715648053961236,1.8526887228571232,0.4085898909226224,0.4191801495601408,0.03365752572893572,1.0,0.3,0.3,-0.07853372937709532,auto
1761301919.8276975,24.891175508499146,9.394594356910087,0.1680926859007919,5.450879633796171,-1.518611526109231,1.7393849677777236,2.6160251116528093,0.5060882242487388,0.513611985855013,0.043747325260888224,1.0,-0.15167982596701612,-0.07165630230309888,-0.09637662212752643,auto
1761301919.9331305,24.99660849571228,9.186230091002932,0.3950037796406717,5.758349975151728,-2.3914573989205024,2.482220567495158,3.2538189383019622,0.2829694801528079,0.3697804569737872,0.049312320071521365,1.0,-0.3,-0.3,-0.10295846711363273,auto
1761301920.0363173,25.0997953414917,8.91160115851943,0.6684905404134454,6.136485953370026,-2.845106072698518,2.750799716014926,4.059799568182954,0.10136377211814612,0.12701048033362286,0.0592374425192928,0.6843007867482388,-0.02536539293809178,-0.3,-0.12,auto
1761301920.1399453,25.203423261642456,8.615849685439887,0.9556433624542973,6.577910106470976,-2.8787035041279743,2.813056519259629,4.46601399013999,0.08040058519896308,0.07815990558810604,0.05034364032024633,0.6293530279751759,-0.04236490602950698,-0.08945351994933043,-0.10064949530713324,auto
1761301920.2445889,25.308066844940186,8.312619777598007,1.2526506141172538,7.061216493899174,-2.878827126097069,2.8350581189513613,4.702253805945181,0.07552944608201675,0.06240292124224759,0.033782845595607874,0.5558095063796384,-0.057793468953158275,-0.020386025961211626,-0.0613199047741223,auto
1761301920.3456495,25.409127473831177,8.024544474066069,1.5366816922637818,7.539321710192528,-2.8723215194723797,2.841523815966524,4.846904608187558,0.07244788915822004,0.0519076801014128,0.021617572034171337,0.5691340603213801,-0.014617121152915916,0.05515149389257551,-0.03893117473391597,auto
1761301920.45002,25.513498067855835,7.722085475859749,1.8363008272975252,8.053874331649993,-2.8644883551994402,2.842614355910588,4.922701952521122,0.06618247820815835,0.04994505483538865,0.01326807880285427,0.5315588700763687,0.005646747917021136,0.046539006725763284,-0.023020907040069035,auto
1761301920.5561175,25.619595527648926,7.418455801324604,2.1380480278351675,8.579023670729224,-2.857231803923002,2.8423955272808468,4.972442075794931,0.06204853755965064,0.04831536422888452,0.008046589664499046,0.5190432135718508,0.020367965759282874,-0.023071313041674965,-0.014611641995237463,auto
1761301920.6616452,25.725123167037964,7.118866666831682,2.4380562381060256,9.10544273461161,-2.812452647582148,2.8418986450498314,5.001525764439596,0.061068468682923885,0.01243199339289288,0.004795384339268404,0.5100657018121787,0.01878916582693512,0.0002652284873506665,-0.009574261713107015,auto
1761301920.7691393,25.83261728286743,6.820242586109982,2.7432189033206043,9.644129587502503,-2.738881069194403,2.8263828546685463,5.0191033821589555,0.020162522507214523,-0.007556442023904515,0.002657381620293324,0.5067262799034264,0.025688636935691317,0.008712974861128778,-0.006192980941090357,auto
1761301920.8754559,25.938933849334717,6.53355019682197,3.0408332583780755,10.178317471853912,-2.6520109368082228,2.7696585306016663,5.02890601902639,0.0001456563509934965,-0.01874236840037332,0.0013016512040288353,0.5042673387470367,-0.003355368580098267,0.007830794810760048,-0.004023581420126385,auto
1761301920.9815624,26.045040369033813,6.2570797495384625,3.3305916106053064,10.712246824284577,-2.5584512668320274,2.691724221900888,5.034490832747467,-0.010914339425247492,-0.02471680211268861,0.0004314762193938532,0.5018665198418882,-0.016955457299999775,0.0030929761153626507,-0.0026227985901197317,auto
1761301921.0879967,26.151474714279175,5.98991930005342,3.6123248777330352,11.248281514422896,-2.4618479229707315,2.602372866756784,5.037760748260252,-0.018524425881553758,-0.027902556943433732,-0.0001330699625036737,0.501237758959432,-0.016867496441471105,-0.0007312933997312716,-0.0017216945813199388,auto
1761301921.192096,26.255573987960815,5.738594341276381,3.878424960019784,11.772804407957928,-2.367210483243088,2.510020736401135,5.039350380547735,-0.02371220683238466,-0.029395254262915026,-0.0004936189490718778,0.49943152234834753,-0.013629343887962763,-0.004777410132197504,-0.0011082581288630077,auto
1761301921.2971551,26.36063313484192,5.49488793594367,4.137142256680982,12.302295665568753,-2.2727763131544885,2.414928263387854,5.040365147183576,-0.027803673299848012,-0.03025834915010585,-0.0007319600630683628,0.49935284324890966,-0.004752755782414077,-0.003722355751542745,-0.0007365146282760779,auto
1761301921.4016612,26.465139150619507,5.262182773272214,4.38461314959745,12.82907045760932,-2.1810757359059174,2.320839908832574,5.040811399580997,-0.030590663343487395,-0.030901352888923945,-0.0008866215698023302,0.4985909129960254,0.0006861133661905906,-0.0016612748333834043,-0.00047977758852780063,auto
1761301921.5073938,26.570871829986572,5.036351799490656,4.625055524881362,13.36205890879038,-2.0910324068422135,2.2272666795619793,5.040964206115465,-0.032053341884519124,-0.031225886112514485,-0.0009882827160452654,0.49788840406687496,0.0028553704050743875,0.0002736993323988258,-0.00030911957592215123,auto
1761301921.611789,26.675266981124878,4.822565828643189,4.852852870915523,13.888310728271309,-2.005068050019431,2.1371327725961384,5.040936650524027,-0.03249558928119373,-0.03117402333877539,-0.0010529072544199168,0.49725316609620995,0.0022564078571654807,0.0008631244037896955,-0.00019509962690002515,auto
1761301921.7192817,26.78275966644287,4.61164962746085,5.077712086334337,14.430167307709326,-1.9196998405703203,2.047067529942097,5.040789952927871,-0.0322783604712783,-0.030785666287279523,-0.001095019455506343,0.49663155342177767,0.0012837518963527315,0.0010090896953938123,-0.00011899558965540509,auto
1761301921.8235497,26.887027740478516,4.4156685126642445,5.286724216587782,14.955750461072352,-1.8399747737090195,1.962618951823797,5.040586138605821,-0.031725222145456096,-0.030200074839184837,-0.0011202365796833247,0.4961004250645566,0.00017646166232116345,0.0005882485748383117,-6.971896077073203e-05,auto
1761301921.930099,26.993577003479004,4.223823676379336,5.491374964037541,15.492807299151861,-1.7616134911649926,1.8793964812986914,5.040324493057947,-0.031058991529546626,-0.029491138000705908,-0.001135583492085649,0.4955499924261837,-3.960925460261331e-05,0.00045547366355612576,-3.6807720014218754e-05,auto
1761301922.0353014,27.098779439926147,4.042434319901069,5.684904503499154,16.02304680077184,-1.6872906264198246,1.8003341880606907,5.04004032165244,-0.030338722229545936,-0.028727811959700693,-0.0011439160741536039,0.49507607908871687,-3.3759991127091274e-05,0.00028140647346236843,-1.5276854557319677e-05,auto
1761301922.1409705,27.204448461532593,3.867954153660612,5.871083475677389,16.555606494154972,-1.6156077255044572,1.7240038787944156,5.039731782976256,-0.029560976177021987,-0.0279159079579923,-0.0011477938017044192,0.4946257895685756,6.269592012965282e-05,0.00016466650357431758,-9.735315754418505e-07,auto
1761301922.2467573,27.310235261917114,3.7007123342956323,6.049552740033697,17.088726225295876,-1.5467425843490705,1.6506250219297338,5.039403944461198,-0.028765131119430163,-0.027106872343794892,-0.0011486960447581222,0.4941803620544631,0.00029698050162769296,0.00025410830385710827,8.46849954346976e-06,auto
1761301922.351986,27.41546392440796,3.5414322506372597,6.219535031146429,17.618998457509687,-1.4810332243236735,1.5805765834136922,5.03907194149002,-0.027925306762040466,-0.026279922806892533,-0.0011476430601634155,0.4938155991013998,0.00028006099339545807,0.0001990640697989047,1.4659288859781287e-05,auto
1761301922.4574027,27.520880699157715,3.3886576956150707,6.382580999259894,18.150182744658487,-1.4178965484232287,1.5132485778981386,5.0387242751184935,-0.027067857461676132,-0.025455641841587322,-0.0011453020430738058,0.49345056772700835,0.0003985056748058036,0.0003262026832551046,1.8794848471689622e-05,auto
1761301922.5650692,27.628547191619873,3.239348242936337,6.5419334850260995,18.692664998769295,-1.3560990993825468,1.4473326539964364,5.038361592595834,-0.026177615878407872,-0.024610765992212204,-0.0011420367410273236,0.49308844412112457,0.0003759661405002638,0.0003331297447157048,2.1517321580420497e-05,auto
1761301922.673106,27.736583948135376,3.096070738077402,6.694851640152848,19.236973348865043,-1.2967142978692556,1.3839793805674607,5.038009451621114,-0.025268012502354678,-0.023752121361939164,-0.001138183403166099,0.4929253594746914,0.00011931959809046221,0.00011241847967117987,2.3168856753531447e-05,auto
1761301922.778608,27.84208607673645,2.962216194332198,6.837715196545378,19.768473256045787,-1.2411542093073475,1.3246997033086214,5.037625170652927,-0.024398593029133536,-0.022933175317821314,-0.0011340635299945002,0.4924667053841763,0.0003340644658777958,0.0003253884817540687,2.440332810570241e-05,auto
1761301922.8836317,27.947109699249268,2.834667818200823,6.973849987398425,20.297523944658554,-1.188159104481907,1.2681524682547765,5.03725738089094,-0.02356532416297256,-0.022147832914905814,-0.001129735402681651,0.4921991863777944,0.000441433274505186,0.0004255894911662449,2.50738959102156e-05,auto
1761301922.9837947,28.04727268218994,2.71810221352724,7.098264033462355,20.80205311657021,-1.1396643172304333,1.216404456966221,5.036908253719423,-0.022836920997602164,-0.021460742453539534,-0.001125467817842501,0.49199259495971875,0.0007933962411904417,0.000749126026708254,2.543080220212935e-05,auto
1761301923.0889554,28.152433395385742,2.6005676731404908,7.22371330014429,21.31900494619879,-1.096377670360494,1.1702097454321654,4.768951065657206,-0.02465715038676582,-0.023162366976073413,-0.0011216339055828172,0.35,0.0005215643950397988,0.00048661662609579206,2.747175324299485e-05,auto
1761301923.1945307,28.2580087184906,2.487048830814911,7.344876784489145,21.80718018035126,-1.0543647805069463,1.1253686108307677,4.4808908425483835,-0.025774969884535804,-0.024209321728478398,-0.0011178466552130462,0.35,-0.0013057177211900789,-0.0012252388591297103,2.950133376019193e-05,auto
1761301923.3006318,28.364109754562378,2.3777872775261555,7.461496205823508,22.266038492370352,-1.01334752011318,1.0815869970680998,4.203550044655141,-0.02684871105721794,-0.02521663336577408,-0.0011135801273392326,0.35,-0.0011793852971436207,-0.0011052608423383092,3.0162985723860545e-05,auto
1761301923.4083614,28.471839427947998,2.2704235624291313,7.576089666729787,22.705720650065352,-0.9725610508936271,1.0380501508487892,3.9301509321545973,-0.027891274085095657,-0.02619509638589039,-0.001108925272517695,0.35,-0.0003075017401184968,-0.00028854403663480273,3.0263126318180062e-05,auto
1761301923.513202,28.576679944992065,2.170480492872341,7.6827623620141035,23.10426479310196,-0.9341990301976405,0.9971007914190669,3.6741230879510245,-0.02858038763432631,-0.02684239881409531,-0.0011042974035879527,0.35,-0.00023549409295438127,-0.0002216204446656924,3.0181363723395462e-05,auto
1761301923.6171944,28.68067240715027,2.0752598586142437,7.784394203129895,23.473489577325914,-0.8972898408448247,0.9577023082055495,3.4281250701820536,-0.029075876070802795,-0.027308315607629967,-0.0010996790186718613,0.35,-0.0001918749863523417,-0.0001807715231256723,3.0133189593502913e-05,auto
1761301923.719648,28.78312587738037,1.9851446345669694,7.880576483322295,23.812601039866617,-0.862040130088518,0.9200756203015565,3.192795412518632,-0.029413000367269234,-0.027625744041446645,-0.0010951293474183888,0.35,-0.0001344102525197942,-0.0001266726539217832,3.002059558491998e-05,auto
1761301923.8249428,28.888420820236206,1.8962328941827211,7.975473891769032,24.136344080997546,-0.8269666587260883,0.8826377164842961,2.957523561549968,-0.029627886696454105,-0.02782844108572263,-0.0010904623401115057,0.35,-5.965979667117019e-05,-5.643916028570275e-05,2.994472641528219e-05,auto
1761301923.9294007,28.992878675460815,1.8116168361848495,8.065785832754356,24.43335281692996,-0.7933267333896589,0.8467202667438859,2.7300880755535264,-0.029711970368825415,-0.02788584251827814,-0.001085846998070442,0.35,7.820085179887032e-05,2.008178954355487e-05,2.9820898409166738e-05,auto
1761301924.0371437,29.100621700286865,1.7279563551271633,8.155076233342575,24.71511696233856,-0.7598377107789223,0.8109654223334709,2.50111187172439,-0.029667703132884977,-0.027853460765114413,-0.0010811033731155009,0.35,7.990092564409972e-05,6.153201155342508e-05,2.9673362746650624e-05,auto
1761301924.144484,29.207962036132812,1.6488652199014948,8.239488646708034,24.96927936090355,-0.7279607734650917,0.7769345310527441,2.280150852282486,-0.029527360763586454,-0.027729636543426264,-0.0010764428156602062,0.35,7.440432771037042e-05,7.729752434080576e-05,2.949074272278058e-05,auto
1761301924.2496006,29.31307864189148,1.5732490650838176,8.320191514733526,25.19975432705086,-0.6972882562935362,0.7441922695576698,2.0640740801961206,-0.02930893064157299,-0.02752820166334528,-0.0010718149915671005,0.35,0.00010959908093854493,0.00010963089297262082,2.941943795963625e-05,auto
1761301924.3537018,29.417179822921753,1.5021794854903237,8.396041483622113,25.40376344240805,-0.6682821358337077,0.7132314148835126,1.855963070674752,-0.029034827649178377,-0.02727190999000246,-0.0010672967783700237,0.35,0.00014599759918244856,0.00013715282680784683,2.9264092863014668e-05,auto
1761301924.4580164,29.521494388580322,1.4339380439801366,8.468872821540758,25.586639768526027,-0.640266208082048,0.6833295344427971,1.6508149192200743,-0.028711802193703666,-0.02696927310603713,-0.001062789266268342,0.35,0.0002580087120779312,0.00023970663179576302,2.9223321455818386e-05,auto
1761301924.5613086,29.624786615371704,1.3691925576803847,8.537972977056475,25.74679334649459,-0.6135346279655525,0.6547999529875386,1.4506216384384043,-0.02833417855625682,-0.026615539601068546,-0.0010583457684599934,0.35,0.000256513976007669,0.00023953482675665973,2.9051173605365198e-05,auto
1761301924.6668956,29.73037362098694,1.3058094730584289,8.605619148870975,25.88927392534952,-0.5872174698902843,0.6267138341292116,1.2486191881570539,-0.02789999411286143,-0.02620854142707344,-0.0010538210410297342,0.35,0.0002592994732657985,0.00024345142167590957,2.8923502102435673e-05,auto
1761301924.7705722,29.834050178527832,1.2462267014790167,8.669209565392432,26.008542599411488,-0.562337305978602,0.60016224179024,1.052504197089984,-0.027425829735938,-0.02576362616101218,-0.0010493985427889546,0.35,0.0002523631221956985,0.00023733545688847915,2.8801486073397004e-05,auto
1761301924.8707767,29.93425464630127,1.1910458846283745,8.728102183998265,26.10458736095384,-0.5391700683264129,0.5754394062627459,0.8647379122330178,-0.02693356432441889,-0.02530138828145943,-0.0010451371442133245,0.35,0.00011078350397980208,0.00010458734085504787,2.8585440123598992e-05,auto
1761301924.976002,30.039479970932007,1.1355530446308963,8.787328141261225,26.185275297027605,-0.5157262828358442,0.5504220708168852,0.6691246922568262,-0.026376959262710484,-0.024778564857442405,-0.0010406856575545594,0.35,0.0002223807532152193,0.00020909168785240392,2.8543770037238974e-05,auto
1761301925.0798175,30.143295526504517,1.083175274554833,8.843229863025321,26.24477906708054,-0.49346532256176084,0.5266675127320155,0.4773964013489773,-0.025810368785207524,-0.024246194230149374,-0.001036316018469218,0.35,0.000319402293047234,0.0003000350703700257,2.846175897017892e-05,auto
1761301925.1842852,30.24776315689087,1.0327582090645748,8.897039411290255,26.284617919927634,-0.4718858553165537,0.5036406225608635,0.2854491304617203,-0.02519001176317048,-0.023663281917955737,-0.00103193640511584,0.35,0.00033582825788544795,0.0003155651812828175,2.8397410649654885e-05,auto
1761301925.288433,30.351911067962646,0.9846991738496109,8.94833275321731,26.304415289596545,-0.4511360994139112,0.48149946723979425,0.09483700764854064,-0.02452340267268422,-0.0230368891671708,-0.0010275874095364787,0.35,0.0003850405956811376,0.0003617736728164978,2.8340844242490796e-05,auto
1761301925.3930616,30.456539630889893,0.9385567235344422,8.99758106388878,26.304346368930837,-0.4310005483207455,0.46001405258021055,-0.09606339195191997,-0.023794644754553035,-0.02235210437607479,-0.0010232371929679636,0.35,0.0004029615576613489,0.00037865137303133583,2.814432016421054e-05,auto
1761301925.499048,30.562525987625122,0.8939278051304738,9.045214558019053,26.28394176522583,-0.41127083195617326,0.4389620242442868,-0.2888810657852059,-0.02297962037730843,-0.021586316565606074,-0.0010188511732578348,0.35,0.0004610650488596579,0.0004331483898378731,2.812330549570046e-05,auto
1761301925.6049132,30.668391227722168,0.8508234893286672,9.09122059136575,26.243853289422056,-0.4085193255097672,0.43600744949996795,-0.4702538357017795,0.001356461365043633,0.0013033191116365774,-0.001426300805342849,0.35,-0.03613374014638592,-0.03398383000266921,0.0010107427737063857,auto
1761301925.716015,30.7794930934906,0.8061010062872564,9.138951064194444,26.181267807664504,-0.4057480756786775,0.43302755060464887,-0.666670871989765,0.0038465948192612526,0.0036420176445783213,-0.0016532658919825608,0.35,-0.027869734986119547,-0.02619445345122925,0.0014882717454716525,auto
1761301925.8209703,30.884448289871216,0.7632172098873742,9.184716767484145,26.100583341084214,-0.4035676924059262,0.4306776081507757,-0.856087209250105,0.001766618636239758,0.0016838629937725648,-0.0015864525953185884,0.35,-0.007605458407134522,-0.00713458194250778,0.001219920768444984,auto
1761301925.9281883,30.991666316986084,0.7200267583366573,9.230807197693728,26.002774621709985,-0.40166150260827627,0.42861735385677974,-0.9354278929925024,0.0001950998377204321,0.00020683103522219852,-0.0014373200209365487,0.4219902421277003,0.0011277350315890683,0.0010682828521196665,0.0008568117540064262,auto
1761301926.0328972,31.096375226974487,0.6780501948702817,9.275599410381277,25.90533948833855,-0.3998751961549821,0.4266835033917454,-0.9192765549079934,-0.00029289314308888977,-0.0002509979488970058,-0.0012993729438717562,0.4510413824125582,0.002279686099899681,0.0021444588927246894,0.0005788554658943927,auto
1761301926.1360254,31.199503421783447,0.636899275778014,9.319507724230796,25.813112760700086,-0.3981331244287453,0.42479660005492154,-0.8665832492126501,-0.00028024400996387616,-0.00023854995377658444,-0.0011953636585678663,0.46800390543518317,0.001211114471291854,0.0011372663977765693,0.00039052857964383685,auto
1761301926.2393346,31.302812576293945,0.5958581109684867,9.363296006924308,25.727067611844177,-0.3964349722944911,0.42295629835447796,-0.7976198391445851,-0.00015637618004477107,-0.00012201034756563103,-0.0011209667442415266,0.4745732818777522,0.00028773086942719776,0.00026921831196055244,0.0002665605997362408,auto
1761301926.3511965,31.414674520492554,0.5516121168717908,9.410500313088473,25.642304296137958,-0.3946919172188059,0.4210657846799243,-0.7184621219074228,-0.00010113991123092671,-7.021562022758667e-05,-0.0010654162350188263,0.471421014970578,-0.00010163458699148815,-9.616054126901232e-05,0.00018822811322160714,auto
1761301926.456823,31.52030110359192,0.5100051847734403,9.454885936500114,25.570578206009714,-0.3931541372386235,0.41939612358025785,-0.6419171147613163,-6.632839511619899e-05,-3.7600114459030936e-05,-0.0010294318849162671,0.47329952092466365,-0.00011230433671313871,-0.00010582619229367306,0.00012776628226975452,auto
1761301926.5620031,31.625481128692627,0.4687295797580314,9.498915060194484,25.506807885385914,-0.3917234309300903,0.41784112394883693,-0.5715314150314653,-6.143478362105462e-05,-3.310138245969906e-05,-0.0010042191566657262,0.47184332780039717,-8.021008442832262e-05,-7.544562359504998e-05,9.359137919255045e-05,auto
1761301926.6682608,31.731738805770874,0.4271786918714031,9.543234766255546,25.449603440206236,-0.3903684637762291,0.4163669331992026,-0.5061681060844002,-6.577321436725723e-05,-3.7261248226273305e-05,-0.000985831176300302,0.46904980094587656,-3.1964327310360016e-05,-3.0034376578767353e-05,7.028034826402951e-05,auto
1761301926.7743723,31.837850332260132,0.38582436572188283,9.587341761694608,25.399083580988815,-0.3890922496135505,0.41497710596235954,-0.44707899863126527,-6.995239239121214e-05,-4.1258281949786296e-05,-0.0009722203299291007,0.4663557646335807,-5.523543901431854e-06,-5.1843666084401665e-06,5.4290385145110435e-05,auto
1761301926.88055,31.9440279006958,0.3445763525064865,9.631332340475119,25.35447687545275,-0.3878794285240657,0.4136551926482321,-0.3941441476093595,-7.19265432491934e-05,-4.317739850659418e-05,-0.0009617870916323208,0.46385490989123423,3.7785188207776508e-06,3.5405487325198834e-06,4.385962347743395e-05,auto
1761301926.9866552,32.050133228302,0.305230691331813,9.676895420944387,25.356418324828574,-0.30218434244823955,0.49622817370317085,0.5823202692400248,0.13530452691546235,-0.1355744364248357,-0.0091693157100884,1.0,0.3,-0.3,0.018140091613756678,auto
1761301927.0912626,32.15474057197571,0.29724413756044343,9.75201966254187,25.469969253245235,0.22504177062701353,1.0159562182440658,1.5392835304893266,0.37120326079102645,-0.3756379451725876,-0.03138905907554426,1.0,0.16722055698949595,-0.3,0.07172273818109001,auto
1761301927.1979768,32.261454820632935,0.3688730495652511,9.897428513513933,25.673506166311437,1.1837734630749097,1.6661689086363702,2.298758351887807,0.21710999355711552,-0.5265802488323273,-0.03623349584572366,1.0,-0.3,0.17403765019711875,0.07570202735325203,auto
1761301927.3016272,32.36510515213013,0.5468426670664234,10.083978484553004,25.955778232848786,2.1883660814812136,1.8309150961146925,3.11117635905714,0.04496467725818349,-0.42510974654845146,-0.038039644624110525,1.0,0.04098818113983367,0.3,0.077593567939664,auto
1761301927.4074345,32.47091245651245,0.814180399741025,10.280411438357794,26.3333188558422,2.7625626333812336,1.874179358246241,3.985820660520407,0.017554002547628324,-0.17043498652842573,-0.03755381124041505,0.708467283587039,-0.11182281755727405,0.3,0.07433168005549591,auto
