timestamp,simulation_time,position_x,position_y,position_z,velocity_x,velocity_y,velocity_z,attitude_roll,attitude_pitch,attitude_yaw,control_throttle,control_roll,control_pitch,control_yaw,estimated_position_x,estimated_position_y,estimated_position_z,flight_mode,battery_level,setpoint_altitude,setpoint_position_x,setpoint_position_y,setpoint_position_z,position_error,attitude_error,waypoint_index,mission_complete
1761255770.9072535,0.10583996772766113,0.0,0.0,-0.0,0.0,0.0,-0.0,0.0,0.0,0.0,0.0,0.0,0.0,0.0,0.0,0.0,-0.0,manual,85.0,0.0,0.0,0.0,0.0,0.0,0.0,0,0
1761255771.0127301,0.21131658554077148,0.0,0.0,-0.0,0.0,0.0,-0.0,0.0,0.0,0.0,0.0,0.0,0.0,0.0,0.0,0.0,-0.0,manual,85.0,0.0,0.0,0.0,0.0,0.0,0.0,0,0
1761255771.116254,0.31484055519104004,0.0,0.0,-0.0,0.0,0.0,-0.0,0.0,0.0,0.0,0.0,0.0,0.0,0.0,0.0,0.0,-0.0,manual,85.0,0.0,0.0,0.0,0.0,0.0,0.0,0,0
1761255771.220139,0.41872549057006836,0.0,0.0,-0.0,0.0,0.0,-0.0,0.0,0.0,0.0,0.0,0.0,0.0,0.0,0.0,0.0,-0.0,manual,85.0,0.0,0.0,0.0,0.0,0.0,0.0,0,0
1761255771.3240147,0.5226011276245117,0.0,0.0,-0.0,0.0,0.0,-0.0,0.0,0.0,0.0,0.0,0.0,0.0,0.0,0.0,0.0,-0.0,manual,85.0,0.0,0.0,0.0,0.0,0.0,0.0,0,0
1761255771.430248,0.6288344860076904,0.0,0.0,-0.0,0.0,0.0,-0.0,0.0,0.0,0.0,0.0,0.0,0.0,0.0,0.0,0.0,-0.0,manual,85.0,0.0,0.0,0.0,0.0,0.0,0.0,0,0
1761255771.5366783,0.735264778137207,0.0,0.0,-0.0,0.0,0.0,-0.0,0.0,0.0,0.0,0.0,0.0,0.0,0.0,0.0,0.0,-0.0,manual,85.0,0.0,0.0,0.0,0.0,0.0,0.0,0,0
1761255771.6436732,0.8422596454620361,0.0,0.0,-0.0,0.0,0.0,-0.0,0.0,0.0,0.0,0.0,0.0,0.0,0.0,0.0,0.0,-0.0,manual,85.0,0.0,0.0,0.0,0.0,0.0,0.0,0,0
1761255771.746714,0.9453005790710449,0.0,0.0,-0.0,0.0,0.0,-0.0,0.0,0.0,0.0,0.0,0.0,0.0,0.0,0.0,0.0,-0.0,manual,85.0,0.0,0.0,0.0,0.0,0.0,0.0,0,0
1761255771.8495917,1.0481781959533691,0.0,0.0,-0.0,0.0,0.0,-0.0,0.0,0.0,0.0,0.0,0.0,0.0,0.0,0.0,0.0,-0.0,manual,85.0,0.0,0.0,0.0,0.0,0.0,0.0,0,0
1761255771.955093,1.153679370880127,0.0,0.0,-0.0,0.0,0.0,-0.0,0.0,0.0,0.0,0.0,0.0,0.0,0.0,0.0,0.0,-0.0,manual,85.0,0.0,0.0,0.0,0.0,0.0,0.0,0,0
1761255772.0932295,1.291815996170044,0.0,0.0,-0.0,0.0,0.0,-0.0,0.0,0.0,0.0,0.0,0.0,0.0,0.0,0.0,0.0,-0.0,manual,85.0,0.0,0.0,0.0,0.0,0.0,0.0,0,0
1761255772.1977255,1.3963119983673096,0.0,0.0,-0.0,0.0,0.0,-0.0,0.0,0.0,0.0,0.0,0.0,0.0,0.0,0.0,0.0,-0.0,manual,85.0,0.0,0.0,0.0,0.0,0.0,0.0,0,0
1761255772.3022165,1.500802993774414,0.0,0.0,-0.0,0.0,0.0,-0.0,0.0,0.0,0.0,0.0,0.0,0.0,0.0,0.0,0.0,-0.0,manual,85.0,0.0,0.0,0.0,0.0,0.0,0.0,0,0
1761255772.4059336,1.6045200824737549,0.0,0.0,-0.0,0.0,0.0,-0.0,0.0,0.0,0.0,0.0,0.0,0.0,0.0,0.0,0.0,-0.0,manual,85.0,0.0,0.0,0.0,0.0,0.0,0.0,0,0
1761255772.5106916,1.7092781066894531,0.0,0.0,-0.0,0.0,0.0,-0.0,0.0,0.0,0.0,0.0,0.0,0.0,0.0,0.0,0.0,-0.0,manual,85.0,0.0,0.0,0.0,0.0,0.0,0.0,0,0
1761255772.6133602,1.8119466304779053,0.0,0.0,-0.0,0.0,0.0,-0.0,0.0,0.0,0.0,0.0,0.0,0.0,0.0,0.0,0.0,-0.0,manual,85.0,0.0,0.0,0.0,0.0,0.0,0.0,0,0
1761255772.7217333,1.9203197956085205,0.0,0.0,-0.0,0.0,0.0,-0.0,0.0,0.0,0.0,0.0,0.0,0.0,0.0,0.0,0.0,-0.0,manual,85.0,0.0,0.0,0.0,0.0,0.0,0.0,0,0
1761255772.826347,2.0249335765838623,0.0,0.0,-0.0,0.0,0.0,-0.0,0.0,0.0,0.0,0.0,0.0,0.0,0.0,0.0,0.0,-0.0,manual,85.0,0.0,0.0,0.0,0.0,0.0,0.0,0,0
1761255772.9301941,2.1287806034088135,0.0,0.0,-0.0,0.0,0.0,-0.0,0.0,0.0,0.0,0.0,0.0,0.0,0.0,0.0,0.0,-0.0,manual,85.0,0.0,0.0,0.0,0.0,0.0,0.0,0,0
1761255773.0344713,2.233057737350464,0.0,0.0,0.00712564915080018,0.0,0.0,0.46328296847691997,0.0,0.0,0.0,1.0,0.0,0.0,0.0,0.0,0.0,0.00712564915080018,stabilize,85.0,2.0,0.0,0.0,-2.0,1.9928743508491997,0.0,0,0
1761255773.1403906,2.338977098464966,0.0,0.0,0.12493370819574016,0.0,0.0,1.3288454485053554,0.0,0.0,0.0,0.35,0.0,0.0,0.0,0.0,0.0,0.12493370819574016,stabilize,85.0,2.0,0.0,0.0,-2.0,1.8750662918042598,0.0,0,0
1761255773.2429664,2.4415528774261475,0.0,0.0,0.2627433379771823,0.0,0.0,1.37241579050112,0.0,0.0,0.0,0.611275213509417,0.0,0.0,0.0,0.0,0.0,0.2627433379771823,stabilize,85.0,2.0,0.0,0.0,-2.0,1.7372566620228178,0.0,0,0
1761255773.353709,2.552295446395874,0.0,0.0,0.41079257099322225,0.0,0.0,1.3117236937260757,0.0,0.0,0.0,0.4003400935113399,0.0,0.0,0.0,0.0,0.0,0.41079257099322225,stabilize,85.0,2.0,0.0,0.0,-2.0,1.5892074290067777,0.0,0,0
1761255773.4592557,2.6578421592712402,0.0,0.0,0.5482772251236888,0.0,0.0,1.2918547796311461,0.0,0.0,0.0,0.5014508334270589,0.0,0.0,0.0,0.0,0.0,0.5482772251236888,stabilize,85.0,2.0,0.0,0.0,-2.0,1.4517227748763113,0.0,0,0
1761255773.561704,2.7602903842926025,0.0,0.0,0.676941590354199,0.0,0.0,1.233127701143714,0.0,0.0,0.0,0.4706151468362858,0.0,0.0,0.0,0.0,0.0,0.676941590354199,stabilize,85.0,2.0,0.0,0.0,-2.0,1.323058409645801,0.0,0,0
1761255773.6639802,2.8625667095184326,0.0,0.0,0.7992225621131924,0.0,0.0,1.1532327086133436,0.0,0.0,0.0,0.35,0.0,0.0,0.0,0.0,0.0,0.7992225621131924,stabilize,85.0,2.0,0.0,0.0,-2.0,1.2007774378868077,0.0,0,0
1761255773.7698548,2.9684412479400635,0.0,0.0,0.9192352484970604,0.0,0.0,1.105844045220626,0.0,0.0,0.0,0.49323223866881993,0.0,0.0,0.0,0.0,0.0,0.9192352484970604,stabilize,85.0,2.0,0.0,0.0,-2.0,1.0807647515029397,0.0,0,0
1761255773.8775697,3.0761561393737793,0.0,0.0,1.0337408033863777,0.0,0.0,1.0127430325071007,0.0,0.0,0.0,0.3536546014642288,0.0,0.0,0.0,0.0,0.0,1.0337408033863777,stabilize,85.0,2.0,0.0,0.0,-2.0,0.9662591966136223,0.0,0,0
1761255773.98319,3.181776523590088,0.0,0.0,1.1387745017746926,0.0,0.0,0.9765744760899495,0.0,0.0,0.0,0.5659731733463972,0.0,0.0,0.0,0.0,0.0,1.1387745017746926,stabilize,85.0,2.0,0.0,0.0,-2.0,0.8612254982253074,0.0,0,0
1761255774.0837677,3.2823541164398193,0.0,0.0,1.2316761254105948,0.0,0.0,0.8801750334866807,0.0,0.0,0.0,0.35,0.0,0.0,0.0,0.0,0.0,1.2316761254105948,stabilize,85.0,2.0,0.0,0.0,-2.0,0.7683238745894052,0.0,0,0
1761255774.19033,3.388916492462158,0.0,0.0,1.3219767492660437,0.0,0.0,0.824478189546698,0.0,0.0,0.0,0.5227800750168066,0.0,0.0,0.0,0.0,0.0,1.3219767492660437,stabilize,85.0,2.0,0.0,0.0,-2.0,0.6780232507339563,0.0,0,0
1761255774.295117,3.4937033653259277,0.0,0.0,1.4029817332183454,0.0,0.0,0.7327938080594495,0.0,0.0,0.0,0.35,0.0,0.0,0.0,0.0,0.0,1.4029817332183454,stabilize,85.0,2.0,0.0,0.0,-2.0,0.5970182667816546,0.0,0,0
1761255774.3993454,3.5979318618774414,0.0,0.0,1.4761821881176622,0.0,0.0,0.6582446564375514,0.0,0.0,0.0,0.35,0.0,0.0,0.0,0.0,0.0,1.4761821881176622,stabilize,85.0,2.0,0.0,0.0,-2.0,0.5238178118823378,0.0,0,0
1761255774.50405,3.702636480331421,0.0,0.0,1.5435253389488959,0.0,0.0,0.6223772628895711,0.0,0.0,0.0,0.35,0.0,0.0,0.0,0.0,0.0,1.5435253389488959,stabilize,85.0,2.0,0.0,0.0,-2.0,0.4564746610511041,0.0,0,0
1761255774.6089363,3.807522773742676,0.0,0.0,1.6046005924105013,0.0,0.0,0.5567538808127039,0.0,0.0,0.0,0.4705485957574547,0.0,0.0,0.0,0.0,0.0,1.6046005924105013,stabilize,85.0,2.0,0.0,0.0,-2.0,0.39539940758949865,0.0,0,0
1761255774.7131836,3.9117701053619385,0.0,0.0,1.6594502178484019,0.0,0.0,0.49090667563269763,0.0,0.0,0.0,0.35,0.0,0.0,0.0,0.0,0.0,1.6594502178484019,stabilize,85.0,2.0,0.0,0.0,-2.0,0.34054978215159815,0.0,0,0
1761255774.8181534,4.016739845275879,0.0,0.0,1.7089548315447018,0.0,0.0,0.44515622873975785,0.0,0.0,0.0,0.44506567353826243,0.0,0.0,0.0,0.0,0.0,1.7089548315447018,stabilize,85.0,2.0,0.0,0.0,-2.0,0.29104516845529815,0.0,0,0
1761255774.924224,4.122810363769531,0.0,0.0,1.754018186854752,0.0,0.0,0.3846687036483096,0.0,0.0,0.0,0.35,0.0,0.0,0.0,0.0,0.0,1.754018186854752,stabilize,85.0,2.0,0.0,0.0,-2.0,0.24598181314524803,0.0,0,0
1761255775.0281732,4.226759672164917,0.0,0.0,1.7944017827606915,0.0,0.0,0.3481487254027763,0.0,0.0,0.0,0.35,0.0,0.0,0.0,0.0,0.0,1.7944017827606915,stabilize,85.0,2.0,0.0,0.0,-2.0,0.2055982172393085,0.0,0,0
1761255775.1317468,4.330333232879639,0.0,0.0,1.8308202376184053,0.0,0.0,0.32681149352418,0.0,0.0,0.0,0.35,0.0,0.0,0.0,0.0,0.0,1.8308202376184053,stabilize,85.0,2.0,0.0,0.0,-2.0,0.1691797623815947,0.0,0,0
1761255775.2361994,4.434785842895508,0.0,0.0,1.863971692296927,0.0,0.0,0.2971239164361818,0.0,0.0,0.0,0.4663358406366938,0.0,0.0,0.0,0.0,0.0,1.863971692296927,stabilize,85.0,2.0,0.0,0.0,-2.0,0.13602830770307306,0.0,0,0
1761255775.3370874,4.5356738567352295,0.0,0.0,1.8927149037991706,0.0,0.0,0.273716385154364,0.0,0.0,0.0,0.4996803693952777,0.0,0.0,0.0,0.0,0.0,1.8927149037991706,stabilize,85.0,2.0,0.0,0.0,-2.0,0.10728509620082938,0.0,0,0
1761255775.4420333,4.64061975479126,0.0,0.0,1.9191656418333274,0.0,0.0,0.23449098366108495,0.0,0.0,0.0,0.4546011502255317,0.0,0.0,0.0,0.0,0.0,1.9191656418333274,stabilize,85.0,2.0,0.0,0.0,-2.0,0.08083435816667262,0.0,0,0
1761255775.5420685,4.740654945373535,0.0,0.0,1.9421684192061288,0.0,0.0,0.20339428850240598,0.0,0.0,0.0,0.42599502676797785,0.0,0.0,0.0,0.0,0.0,1.9421684192061288,stabilize,85.0,2.0,0.0,0.0,-2.0,0.057831580793871185,0.0,0,0
1761255775.6464255,4.845011949539185,0.0,0.0,1.9627504304865058,0.0,0.0,0.1714187843557687,0.0,0.0,0.0,0.35,0.0,0.0,0.0,0.0,0.0,1.9627504304865058,stabilize,85.0,2.0,0.0,0.0,-2.0,0.03724956951349423,0.0,0,0
1761255775.751296,4.949882507324219,0.0,0.0,1.9814739869254534,0.0,0.0,0.1694606335948419,0.0,0.0,0.0,0.35,0.0,0.0,0.0,0.0,0.0,1.9814739869254534,stabilize,85.0,2.0,0.0,0.0,-2.0,0.0185260130745466,0.0,0,0
1761255775.857295,5.055881500244141,0.0,0.0,1.997890037592608,0.0,0.0,0.1860261250023341,0.0,0.0,0.0,0.6771493775075853,0.0,0.0,0.0,0.0,0.0,1.997890037592608,stabilize,85.0,2.0,0.0,0.0,-2.0,0.0021099624073919188,0.0,0,0
1761255775.969436,5.168022394180298,0.0,0.0,2.013958098556098,0.0,0.0,0.10283851665935684,0.0,0.0,0.0,0.35,0.0,0.0,0.0,0.0,0.0,2.013958098556098,stabilize,85.0,2.0,0.0,0.0,-2.0,0.013958098556098086,0.0,0,0
1761255776.0742729,5.272859334945679,0.0,0.0,2.028523174011411,0.0,0.0,0.10206471649031579,0.0,0.0,0.0,0.35,0.0,0.0,0.0,0.0,0.0,2.028523174011411,stabilize,85.0,2.0,0.0,0.0,-2.0,0.028523174011410912,0.0,0,0
1761255776.1795478,5.378134250640869,0.0,0.0,2.041054885870245,0.0,0.0,0.10627091862983305,0.0,0.0,0.0,0.47053640802152036,0.0,0.0,0.0,0.0,0.0,2.041054885870245,stabilize,85.0,2.0,0.0,0.0,-2.0,0.041054885870245084,0.0,0,0
1761255776.2842665,5.482852935791016,0.0,0.0,2.0516071417531343,0.0,0.0,0.09740323499209677,0.0,0.0,0.0,0.35,0.0,0.0,0.0,0.0,0.0,2.0516071417531343,stabilize,85.0,2.0,0.0,0.0,-2.0,0.0516071417531343,0.0,0,0
1761255776.3910732,5.589659690856934,0.0,0.0,2.0603764837530436,0.0,0.0,0.06621995934759149,0.0,0.0,0.0,0.35,0.0,0.0,0.0,0.0,0.0,2.0603764837530436,stabilize,85.0,2.0,0.0,0.0,-2.0,0.06037648375304361,0.0,0,0
1761255776.4970315,5.695617914199829,0.0,0.0,2.06814877188296,0.0,0.0,0.07673367398644751,0.0,0.0,0.0,0.35,0.0,0.0,0.0,0.0,0.0,2.06814877188296,stabilize,85.0,2.0,0.0,0.0,-2.0,0.06814877188296009,0.0,0,0
1761255776.602905,5.8014914989471436,0.0,0.0,2.0749748713287834,0.0,0.0,0.09212431256496353,0.0,0.0,0.0,0.6473514381361225,0.0,0.0,0.0,0.0,0.0,2.0749748713287834,stabilize,85.0,2.0,0.0,0.0,-2.0,0.07497487132878344,0.0,0,0
1761255776.7089403,5.907526731491089,0.0,0.0,2.0810898975524474,0.0,0.0,0.043684018828214474,0.0,0.0,0.0,0.35,0.0,0.0,0.0,0.0,0.0,2.0810898975524474,stabilize,85.0,2.0,0.0,0.0,-2.0,0.08108989755244744,0.0,0,0
1761255776.8188832,6.017469644546509,0.0,0.0,2.0854300556114644,0.0,0.0,0.020270235705305124,0.0,0.0,0.0,0.35,0.0,0.0,0.0,0.0,0.0,2.0854300556114644,stabilize,85.0,2.0,0.0,0.0,-2.0,0.08543005561146444,0.0,0,0
1761255776.9254234,6.124009847640991,0.0,0.0,2.0895882377239148,0.0,0.0,0.02782508671797433,0.0,0.0,0.0,0.35,0.0,0.0,0.0,0.0,0.0,2.0895882377239148,stabilize,85.0,2.0,0.0,0.0,-2.0,0.08958823772391478,0.0,0,0
1761255777.0325186,6.231105089187622,0.0,0.0,2.0927549583746226,0.0,0.0,0.02772655696597299,0.0,0.0,0.0,0.35,0.0,0.0,0.0,0.0,0.0,2.0927549583746226,stabilize,85.0,2.0,0.0,0.0,-2.0,0.09275495837462255,0.0,0,0
1761255777.1327062,6.331292629241943,0.0,0.0,2.095668281704085,0.0,0.0,0.06060465321059616,0.0,0.0,0.0,0.6483253819886212,0.0,0.0,0.0,0.0,0.0,2.095668281704085,stabilize,85.0,2.0,0.0,0.0,-2.0,0.09566828170408481,0.0,0,0
1761255777.2377472,6.436333656311035,0.0,0.0,2.0989821981967953,0.0,0.0,0.0098739922621407,0.0,0.0,0.0,0.35,0.0,0.0,0.0,0.0,0.0,2.0989821981967953,stabilize,85.0,2.0,0.0,0.0,-2.0,0.09898219819679532,0.0,0,0
1761255777.34214,6.54072642326355,0.0,0.0,2.101385118363106,0.0,0.0,0.006002076951262283,0.0,0.0,0.0,0.35,0.0,0.0,0.0,0.0,0.0,2.101385118363106,stabilize,85.0,2.0,0.0,0.0,-2.0,0.10138511836310604,0.0,0,0
1761255777.447058,6.645644426345825,0.0,0.0,2.1027953926730527,0.0,0.0,-0.002085024166781274,0.0,0.0,0.0,0.35,0.0,0.0,0.0,0.0,0.0,2.1027953926730527,stabilize,85.0,2.0,0.0,0.0,-2.0,0.10279539267305271,0.0,0,0
1761255777.5494459,6.748032331466675,0.0,0.0,2.1056575452380617,0.0,0.0,0.0036079771513886534,0.0,0.0,0.0,0.35,0.0,0.0,0.0,0.0,0.0,2.1056575452380617,stabilize,85.0,2.0,0.0,0.0,-2.0,0.1056575452380617,0.0,0,0
1761255777.6557655,6.854351997375488,0.0,0.0,2.107848365114288,0.0,0.0,0.023650324597175275,0.0,0.0,0.0,0.5314995521156906,0.0,0.0,0.0,0.0,0.0,2.107848365114288,stabilize,85.0,2.0,0.0,0.0,-2.0,0.10784836511428786,0.0,0,0
1761255777.7614522,6.960038661956787,0.0,0.0,2.109644172610869,0.0,0.0,0.0060522281341843405,0.0,0.0,0.0,0.35,0.0,0.0,0.0,0.0,0.0,2.109644172610869,stabilize,85.0,2.0,0.0,0.0,-2.0,0.109644172610869,0.0,0,0
1761255777.8662717,7.0648581981658936,0.0,0.0,2.110502065201445,0.0,0.0,0.01729554833466655,0.0,0.0,0.0,0.35,0.0,0.0,0.0,0.0,0.0,2.110502065201445,stabilize,85.0,2.0,0.0,0.0,-2.0,0.11050206520144501,0.0,0,0
1761255777.972348,7.170934438705444,0.0,0.0,2.110915895305618,0.0,0.0,0.004574568245569302,0.0,0.0,0.0,0.35,0.0,0.0,0.0,0.0,0.0,2.110915895305618,stabilize,85.0,2.0,0.0,0.0,-2.0,0.11091589530561796,0.0,0,0
1761255778.0772135,7.275799989700317,0.0,0.0,2.1114087918761393,0.0,0.0,0.01073360424930243,0.0,0.0,0.0,0.35,0.0,0.0,0.0,0.0,0.0,2.1114087918761393,stabilize,85.0,2.0,0.0,0.0,-2.0,0.11140879187613928,0.0,0,0
1761255778.1839335,7.382519960403442,0.0,0.0,2.1119670091672718,0.0,0.0,-0.006798139183753691,0.0,0.0,0.0,0.35,0.0,0.0,0.0,0.0,0.0,2.1119670091672718,stabilize,85.0,2.0,0.0,0.0,-2.0,0.11196700916727176,0.0,0,0
1761255778.2902462,7.488832712173462,0.0,0.0,2.1118224309382723,0.0,0.0,0.04199881046781277,0.0,0.0,0.0,0.7160326358608126,0.0,0.0,0.0,0.0,0.0,2.1118224309382723,stabilize,85.0,2.0,0.0,0.0,-2.0,0.11182243093827227,0.0,0,0
1761255778.3943517,7.592938184738159,0.0,0.0,2.111730228793958,0.0,0.0,-0.02651898372636024,0.0,0.0,0.0,0.35,0.0,0.0,0.0,0.0,0.0,2.111730228793958,stabilize,85.0,2.0,0.0,0.0,-2.0,0.11173022879395811,0.0,0,0
1761255778.4997027,7.698289155960083,0.0010837295868585727,0.0,2.1311535748121018,0.061563825398222055,0.0,0.639844616012827,0.0,-0.1183455362187354,0.0,1.0,0.0,-0.3,0.0,0.0010837295868585727,0.0,2.1311535748121018,auto,85.0,5,10.0,0.0,0.0,10.223509287038725,0.11834553621873539,0,0
1761255778.6048062,7.803392648696899,0.029054741164135794,0.0,2.2515792325895,0.48949301095276104,0.0,1.440906557197268,0.0,-0.37022966826924886,0.0,0.35,0.0,-0.25860587614142233,0.0,0.029054741164135794,0.0,2.2515792325895,auto,85.0,5,10.0,0.0,0.0,10.222003638980457,0.37022966826924886,0,0
1761255778.7079382,7.906524658203125,0.10800547838699057,0.0,2.4140667233764086,1.0030581728198653,0.0,1.608805442102605,0.0,-0.37623405862102133,0.0,0.3640527287779925,0.0,0.3,0.0,0.10800547838699057,0.0,2.4140667233764086,auto,85.0,5,10.0,0.0,0.0,10.182301987298112,0.37623405862102133,0,0
1761255778.8098965,8.008482933044434,0.22844729028495808,0.0,2.585401944795027,1.307451355152766,0.0,1.6843860102185582,0.0,-0.26584979583474455,0.0,0.35,0.0,-0.3,0.0,0.22844729028495808,0.0,2.585401944795027,auto,85.0,5,10.0,0.0,0.0,10.107796276879016,0.26584979583474455,0,0
1761255778.915059,8.113645553588867,0.3821844279631232,0.0,2.767302735197942,1.5863691599265897,0.0,1.7363564966961602,0.0,-0.23952596803799708,0.0,0.35,0.0,-0.12872470266166405,0.0,0.3821844279631232,0.0,2.767302735197942,auto,85.0,5,10.0,0.0,0.0,10.00801382922451,0.23952596803799708,0,0
1761255779.0265098,8.225096225738525,0.5712914431762309,0.0,2.958141989321758,1.800545291462634,0.0,1.7124673453493529,0.0,-0.09413676978131887,0.0,0.4538845523112148,0.0,0.3,0.0,0.5712914431762309,0.0,2.958141989321758,auto,85.0,5,10.0,0.0,0.0,9.881859596174714,0.09413676978131887,0,0
1761255779.1300738,8.328660249710083,0.7605812728378718,0.0,3.1335218758866197,1.8303216910827935,0.0,1.656681635617875,0.0,-0.11600730592500937,0.0,0.49645128538117306,0.0,0.036797207337279064,0.0,0.7605812728378718,0.0,3.1335218758866197,auto,85.0,5,10.0,0.0,0.0,9.756321938235445,0.11600730592500937,0,0
1761255779.233113,8.431699514389038,0.9525581920411799,0.0,3.299857954269268,1.883877251095452,0.0,1.5927255693433415,0.0,-0.07332000557260178,0.0,0.520748906246867,0.0,-0.0915264453632171,0.0,0.9525581920411799,0.0,3.299857954269268,auto,85.0,5,10.0,0.0,0.0,9.630434350887572,0.07332000557260178,0,0
1761255779.3386788,8.537265300750732,1.1525649970495002,0.0,3.461187677573019,1.9086039696711479,0.0,1.4905202042577002,0.0,-0.036994496154279306,0.0,0.37549502762702786,0.0,-0.24056211987573128,0.0,1.1525649970495002,0.0,3.461187677573019,auto,85.0,5,10.0,0.0,0.0,9.500364533575382,0.036994496154279306,0,0
1761255779.4443104,8.642896890640259,1.3569493047128232,0.0,3.615431021632568,1.922575126289865,0.0,1.4144194318955439,0.0,0.014100058220288992,0.0,0.35,0.0,-0.3,0.0,1.3569493047128232,0.0,3.615431021632568,auto,85.0,5,10.0,0.0,0.0,9.368760152415433,0.014100058220288992,0,0
1761255779.5487514,8.747337818145752,1.55829781067364,0.0,3.757699097687214,1.9290528363992638,0.0,1.3308483037947032,0.0,0.01890086956147218,0.0,0.35,0.0,-0.28524112205369934,0.0,1.55829781067364,0.0,3.757699097687214,auto,85.0,5,10.0,0.0,0.0,9.240272634616186,0.018900869561472175,0,0
1761255779.6529772,8.851563692092896,1.758946569237996,0.0,3.890283731024744,1.9199895317565174,0.0,1.2288398038115007,0.0,0.03234339557647187,0.0,0.45081124271385853,0.0,-0.19751073473717765,0.0,1.758946569237996,0.0,3.890283731024744,auto,85.0,5,10.0,0.0,0.0,9.11313717424192,0.03234339557647187,0,0
1761255779.758945,8.957531452178955,1.961748434133805,0.0,4.01580380399406,1.9130392397551528,0.0,1.1362008239116843,0.0,0.02768552781870282,0.0,0.35,0.0,-0.12270077604027238,0.0,1.961748434133805,0.0,4.01580380399406,auto,85.0,5,10.0,0.0,0.0,8.985553317872167,0.027685527818702822,0,0
1761255779.8631735,9.061759948730469,2.1589864647796473,0.0,4.1286022756301435,1.8852471988839659,0.0,1.0633140837627368,0.0,-0.01607120380208441,0.0,0.5382728075325259,0.0,0.3,0.0,2.1589864647796473,0.0,4.1286022756301435,auto,85.0,5,10.0,0.0,0.0,8.861537677505366,0.01607120380208441,0,0
1761255779.9676135,9.166199922561646,2.3541484162042687,0.0,4.232434801873323,1.8570346981140589,0.0,0.9386130077898353,0.0,-0.023882925160696237,0.0,0.35,0.0,0.19181653514613148,0.0,2.3541484162042687,0.0,4.232434801873323,auto,85.0,5,10.0,0.0,0.0,8.739139019007546,0.023882925160696237,0,0
1761255780.077442,9.276028394699097,2.5563708827399862,0.0,4.332591068131208,1.8247486805509654,0.0,0.8680509696187321,0.0,0.01709188188084721,0.0,0.35,0.0,0.3,0.0,2.5563708827399862,0.0,4.332591068131208,auto,85.0,5,10.0,0.0,0.0,8.612720812784508,0.01709188188084721,0,0
1761255780.183496,9.382082462310791,2.7459930652098175,0.0,4.4194057472521555,1.7863331003175043,0.0,0.7792560253319616,0.0,-0.03611182446377657,0.0,0.3629135542175552,0.0,0.3,0.0,2.7459930652098175,0.0,4.4194057472521555,auto,85.0,5,10.0,0.0,0.0,8.494219432580573,0.03611182446377657,0,0
1761255780.286943,9.48552942276001,2.9301845521087366,0.0,4.496453361779425,1.7508591145767016,0.0,0.693297983550137,0.0,-0.016223351916191807,0.0,0.35,0.0,-0.11229366645057942,0.0,2.9301845521087366,0.0,4.496453361779425,auto,85.0,5,10.0,0.0,0.0,8.378566900246094,0.016223351916191807,0,0
1761255780.3927782,9.591364622116089,3.1143869838739566,0.0,4.568700452333376,1.7160599368339802,0.0,0.6410442484202292,0.0,0.005723479958803703,0.0,0.35,0.0,-0.1343120539916304,0.0,3.1143869838739566,0.0,4.568700452333376,auto,85.0,5,10.0,0.0,0.0,8.263455114599195,0.005723479958803703,0,0
1761255780.5014396,9.700026035308838,3.2991539638270853,0.0,4.6348254128942745,1.6697877536116357,0.0,0.5657208647543085,0.0,0.07779597050803189,0.0,0.3834728801594819,0.0,0.001589881785301072,0.0,3.2991539638270853,0.0,4.6348254128942745,auto,85.0,5,10.0,0.0,0.0,8.147572902926665,0.07779597050803189,0,0
1761255780.6055353,9.804121732711792,3.470189708100669,0.0,4.692353555951272,1.6349995117936702,0.0,0.5110238634472224,0.0,0.02778158161228,0.0,0.3743000811083203,0.0,0.18441295168669225,0.0,3.470189708100669,0.0,4.692353555951272,auto,85.0,5,10.0,0.0,0.0,8.04093305171999,0.027781581612279997,0,0
1761255780.7108743,9.90946078300476,3.6403991688070647,0.0,4.743725259879544,1.6090749124904367,0.0,0.45878825849615734,0.0,0.023720567254741386,0.0,0.384376859093903,0.0,0.3,0.0,3.6403991688070647,0.0,4.743725259879544,auto,85.0,5,10.0,0.0,0.0,7.9339430344141695,0.023720567254741386,0,0
1761255780.8157163,10.014302730560303,3.806309024979767,0.0,4.789434071118971,1.5680434737881084,0.0,0.40287461505603017,0.0,0.01755558648528469,0.0,0.35,0.0,0.266430378863176,0.0,3.806309024979767,0.0,4.789434071118971,auto,85.0,5,10.0,0.0,0.0,7.82946272841517,0.01755558648528469,0,0
1761255780.9203043,10.118890762329102,3.967931964184556,0.0,4.830599714648691,1.5352563676404667,0.0,0.3706525542680809,0.0,0.01621472227233639,0.0,0.35,0.0,0.294508004086925,0.0,3.967931964184556,0.0,4.830599714648691,auto,85.0,5,10.0,0.0,0.0,7.727906468887315,0.01621472227233639,0,0
1761255781.0247362,10.223322629928589,4.1253321462375085,0.0,4.866631669381408,1.4917336817118003,0.0,0.34454345090228927,0.0,-0.002686249024694728,0.0,0.5154929878109689,0.0,0.3,0.0,4.1253321462375085,0.0,4.866631669381408,auto,85.0,5,10.0,0.0,0.0,7.628618891873972,0.002686249024694728,0,0
1761255781.13048,10.329066514968872,4.280771089435936,0.0,4.900325692724677,1.4532791305133532,0.0,0.28337711332712945,0.0,0.02591234222226091,0.0,0.3818206930206217,0.0,0.08185963458602107,0.0,4.280771089435936,0.0,4.900325692724677,auto,85.0,5,10.0,0.0,0.0,7.5314521326374635,0.02591234222226091,0,0
1761255781.2349896,10.433576107025146,4.4304776537686905,0.0,4.930089249996874,1.4178041524860916,0.0,0.26294809791174817,0.0,0.034039773063638284,0.0,0.35,0.0,-0.04354001773280351,0.0,4.4304776537686905,0.0,4.930089249996874,auto,85.0,5,10.0,0.0,0.0,7.438101853168229,0.034039773063638284,0,0
1761255781.33743,10.536016464233398,4.573836128464549,0.0,4.956504160844925,1.3742321815825893,0.0,0.2705544806331769,0.0,0.085591976532232,0.0,0.6064149614567091,0.0,-0.13938363696111158,0.0,4.573836128464549,0.0,4.956504160844925,auto,85.0,5,10.0,0.0,0.0,7.349162391540252,0.085591976532232,0,0
1761255781.4418285,10.640414953231812,4.714893054190395,0.0,4.980919388077975,1.3491635058093525,0.0,0.20874609605594854,0.0,0.012396175915142988,0.0,0.35,0.0,0.2598479304135576,0.0,4.714893054190395,0.0,4.980919388077975,auto,85.0,5,10.0,0.0,0.0,7.262362795893359,0.012396175915142988,0,0
1761255781.54946,10.748046398162842,4.857884339762346,0.0,5.003098112611209,1.3169713620214092,0.0,0.19011655184410564,0.0,0.02458529671135027,0.0,0.35,0.0,0.3,0.0,4.857884339762346,0.0,5.003098112611209,auto,85.0,5,10.0,0.0,0.0,7.174422916700351,0.02458529671135027,0,0
1761255781.6533544,10.851940870285034,4.992163160364897,0.0,5.02080640012918,1.281496757354105,0.0,0.15484295912841245,0.0,0.009425393543976783,0.0,0.4185978820480119,0.0,0.2075983669499774,0.0,4.992163160364897,0.0,5.02080640012918,auto,85.0,5,10.0,0.0,0.0,7.0913275710535775,0.009425393543976783,0,0
1761255781.757646,10.95623254776001,5.123522008077229,0.0,5.036705824102808,1.2482342725747289,0.0,0.1386203985633488,0.0,0.005331907907304419,0.0,0.35,0.0,0.21071492590817087,0.0,5.123522008077229,0.0,5.036705824102808,auto,85.0,5,10.0,0.0,0.0,7.010595064918404,0.005331907907304419,0,0
1761255781.8628201,11.06140661239624,5.252549376730699,0.0,5.050997399816369,1.215870109464078,0.0,0.13978436228727315,0.0,-0.010059670668799033,0.0,0.35,0.0,0.3,0.0,5.252549376730699,0.0,5.050997399816369,auto,85.0,5,10.0,0.0,0.0,6.931872918146422,0.010059670668799033,0,0
1761255781.9722457,11.17083215713501,5.3823960346555735,0.0,5.064043998467564,1.1914143115663982,0.0,0.16424306826801802,0.0,-0.029733901506331848,0.0,0.7404648064244909,0.0,0.3,0.0,5.3823960346555735,0.0,5.064043998467564,auto,85.0,5,10.0,0.0,0.0,6.853233397395708,0.029733901506331848,0,0
1761255782.0800226,11.278609037399292,5.509987682855237,0.0,5.077259259660692,1.1389980420683907,0.0,0.09534780621435003,0.0,0.02422375506150361,0.0,0.40604222033289256,0.0,-0.23591656435550803,0.0,5.509987682855237,0.0,5.077259259660692,auto,85.0,5,10.0,0.0,0.0,6.777814706667771,0.02422375506150361,0,0
1761255782.1863554,11.384941816329956,5.630530026890975,0.0,5.086747391676855,1.1166573401566686,0.0,0.07141731857888735,0.0,0.02063092829649037,0.0,0.35,0.0,-0.22351910632557326,0.0,5.630530026890975,0.0,5.086747391676855,auto,85.0,5,10.0,0.0,0.0,6.705763705397968,0.02063092829649037,0,0
1761255782.2928436,11.491430044174194,5.748394939765059,0.0,5.095550619553924,1.083700480691252,0.0,0.07952973775232117,0.0,0.024026891451456353,0.0,0.35,0.0,-0.3,0.0,5.748394939765059,0.0,5.095550619553924,auto,85.0,5,10.0,0.0,0.0,6.636322905393599,0.024026891451456353,0,0
1761255782.399549,11.598135471343994,5.862683553170054,0.0,5.102325913519397,1.0528895322026828,0.0,0.07103297153896986,0.0,0.051397214585225635,0.0,0.5056096490184079,0.0,-0.3,0.0,5.862683553170054,0.0,5.102325913519397,auto,85.0,5,10.0,0.0,0.0,6.568950989996889,0.051397214585225635,0,0
1761255782.5055299,11.704116344451904,5.974074527460319,0.0,5.107580166201207,1.0288709933326337,0.0,0.04487942597703496,0.0,0.04473609076770597,0.0,0.35,0.0,-0.3,0.0,5.974074527460319,0.0,5.107580166201207,auto,85.0,5,10.0,0.0,0.0,6.5034952959632255,0.044736090767705974,0,0
1761255782.6102304,11.808816909790039,6.080890796533975,0.0,5.111970764259417,1.0026804464118126,0.0,0.03232461507287795,0.0,0.037087276337243874,0.0,0.39659962468808907,0.0,-0.3,0.0,6.080890796533975,0.0,5.111970764259417,auto,85.0,5,10.0,0.0,0.0,6.4414021799088985,0.037087276337243874,0,0
1761255782.7139802,11.912566661834717,6.184116717187823,0.0,5.115977694549041,0.975061951951717,0.0,0.06045997794050865,0.0,0.043611016136815665,0.0,0.35,0.0,-0.3,0.0,6.184116717187823,0.0,5.115977694549041,auto,85.0,5,10.0,0.0,0.0,6.382334447454847,0.04361101613681567,0,0
1761255782.8231223,12.021708726882935,6.289937816461673,0.0,5.120476165456357,0.9463520604639606,0.0,0.05796802297144965,0.0,0.08519986300200554,0.0,0.5782932662439382,0.0,-0.3,0.0,6.289937816461673,0.0,5.120476165456357,auto,85.0,5,10.0,0.0,0.0,6.323277438696472,0.08519986300200555,0,0
1761255782.9272277,12.125814199447632,6.38698420072859,0.0,5.123736186612787,0.9314373927450225,0.0,0.022404229952787572,0.0,0.034354959166873575,0.0,0.44949559068255174,0.0,0.18706752384887948,0.0,6.38698420072859,0.0,5.123736186612787,auto,85.0,5,10.0,0.0,0.0,6.269494052616221,0.034354959166873575,0,0
1761255783.0335913,12.232177734375,6.484142214183418,0.0,5.127445606707061,0.910522261365014,0.0,0.028485727982475118,0.0,0.027517601762271627,0.0,0.35,0.0,0.2692815808605482,0.0,6.484142214183418,0.0,5.127445606707061,auto,85.0,5,10.0,0.0,0.0,6.217069600690234,0.027517601762271627,0,0
1761255783.1407378,12.339324235916138,6.579651624246235,0.0,5.130505342264925,0.8851045207853248,0.0,0.02686435995248697,0.0,0.030664970824234833,0.0,0.35,0.0,0.18986681362886448,0.0,6.579651624246235,0.0,5.130505342264925,auto,85.0,5,10.0,0.0,0.0,6.166106395330067,0.030664970824234836,0,0
1761255783.245338,12.44392442703247,6.670344652254796,0.0,5.132788475831598,0.8627268800516318,0.0,0.010345167010585134,0.0,0.022093727288405342,0.0,0.35,0.0,0.21058828758102088,0.0,6.670344652254796,0.0,5.132788475831598,auto,85.0,5,10.0,0.0,0.0,6.118179653491542,0.022093727288405342,0,0
1761255783.3490396,12.54762601852417,6.757903349238836,0.0,5.133915641835123,0.8394438452028521,0.0,-0.0029298544599588895,0.0,0.011274921682830862,0.0,0.35,0.0,0.21027063415239566,0.0,6.757903349238836,0.0,5.133915641835123,auto,85.0,5,10.0,0.0,0.0,6.071925601516878,0.011274921682830862,0,0
1761255783.4533603,12.651946783065796,6.843698874939919,0.0,5.13411832131371,0.8187928224215006,0.0,-0.008024654590796506,0.0,0.005630612039462539,0.0,0.38410146863039013,0.0,0.3,0.0,6.843698874939919,0.0,5.13411832131371,auto,85.0,5,10.0,0.0,0.0,6.026724461040561,0.005630612039462539,0,0
1761255783.5535986,12.752185106277466,6.923239533696454,0.0,5.1348284436143885,0.7698364827309659,0.0,-0.015947394681121267,0.0,-0.006565352409927252,0.0,0.35,0.0,-0.1429739387010226,0.0,6.923239533696454,0.0,5.1348284436143885,auto,85.0,5,10.0,0.0,0.0,5.9860603164652275,0.006565352409927252,0,0
1761255783.6576357,12.856222152709961,7.003243832531469,0.0,5.1347269744737245,0.7529796089250791,0.0,0.004641258941961086,0.0,0.008079347189844986,0.0,0.35,0.0,-0.2762681776744961,0.0,7.003243832531469,0.0,5.1347269744737245,auto,85.0,5,10.0,0.0,0.0,5.945247566724936,0.008079347189844984,0,0
1761255783.7640882,12.962674617767334,7.083220920080853,0.0,5.134857284286514,0.7362479112423644,0.0,0.0053745162024841295,0.0,0.011559561215953574,0.0,0.35,0.0,-0.2639756204529417,0.0,7.083220920080853,0.0,5.134857284286514,auto,85.0,5,10.0,0.0,0.0,5.90545167883408,0.011559561215953574,0,0
1761255783.8675737,13.066160202026367,7.1588951174422855,0.0,5.134521310703917,0.7178357632710489,0.0,-0.02176270960057772,0.0,-0.0013081933811033286,0.0,0.35,0.0,-0.11063395367301822,0.0,7.1588951174422855,0.0,5.134521310703917,auto,85.0,5,10.0,0.0,0.0,5.8681501381411465,0.0013081933811033286,0,0
1761255783.9731762,13.171762704849243,7.234286615824655,0.0,5.134349149197281,0.6984437971869777,0.0,-0.013602055223067172,0.0,-0.0019188624086750386,0.0,0.35,0.0,-0.20572199461334018,0.0,7.234286615824655,0.0,5.134349149197281,auto,85.0,5,10.0,0.0,0.0,5.831870344003669,0.0019188624086750386,0,0
1761255784.078763,13.277349472045898,7.3077883612666374,0.0,5.132952030784503,0.68099881173739,0.0,-0.02806490128990003,0.0,0.0036705683519826955,0.0,0.35,0.0,-0.2496912072052379,0.0,7.3077883612666374,0.0,5.132952030784503,auto,85.0,5,10.0,0.0,0.0,5.796136649361032,0.0036705683519826955,0,0
1761255784.1854348,13.384021282196045,7.380199432947037,0.0,5.131222390152539,0.6656216561276775,0.0,-0.03686712227315321,0.0,-0.001158222169887084,0.0,0.35,0.0,-0.14669922294091453,0.0,7.380199432947037,0.0,5.131222390152539,auto,85.0,5,10.0,0.0,0.0,5.761319139601083,0.001158222169887084,0,0
1761255784.2945983,13.493184804916382,7.452413879620367,0.0,5.130053479100763,0.647902522035913,0.0,-0.002043124330096256,0.0,-0.0027718019196205437,0.0,0.524926621747538,0.0,0.3,0.0,7.452413879620367,0.0,5.130053479100763,auto,85.0,5,10.0,0.0,0.0,5.727795713813892,0.0027718019196205437,0,0
1761255784.4002614,13.59884786605835,7.519506284717513,0.0,5.128536202517136,0.6305215881993067,0.0,-0.012674071254709061,0.0,-0.028031118907408236,0.0,0.35,0.0,0.3,0.0,7.519506284717513,0.0,5.128536202517136,auto,85.0,5,10.0,0.0,0.0,5.696905533013936,0.028031118907408236,0,0
1761255784.5063381,13.704924583435059,7.585162265817414,0.0,5.126697887073145,0.6164801047953294,0.0,0.0032192940483986715,0.0,-0.02047375829739897,0.0,0.35,0.0,0.3,0.0,7.585162265817414,0.0,5.126697887073145,auto,85.0,5,10.0,0.0,0.0,5.666963252726484,0.02047375829739897,0,0
1761255784.6062021,13.804788589477539,7.645639467156221,0.0,5.125411531369933,0.5810519206402349,0.0,-0.029470805085075418,0.0,-0.0009582918246005372,0.0,0.35,0.0,-0.27534686665496133,0.0,7.645639467156221,0.0,5.125411531369933,auto,85.0,5,10.0,0.0,0.0,5.640288723506299,0.0009582918246005372,0,0
1761255784.7117949,13.910381317138672,7.707262320518554,0.0,5.1233110604295895,0.5737454719817084,0.0,-0.031132902465388006,0.0,0.0033050599726134194,0.0,0.4112693555523421,0.0,-0.11394851539511663,0.0,7.707262320518554,0.0,5.1233110604295895,auto,85.0,5,10.0,0.0,0.0,5.6129281385774155,0.0033050599726134194,0,0
1761255784.8165832,14.015169620513916,7.767206444562164,0.0,5.120816107876861,0.5592960093311975,0.0,-0.0391032544782897,0.0,-0.0005766013174834696,0.0,0.35,0.0,-0.15590108268773795,0.0,7.767206444562164,0.0,5.120816107876861,auto,85.0,5,10.0,0.0,0.0,5.586423244965946,0.0005766013174834696,0,0
1761255784.921354,14.119940519332886,7.825733187168955,0.0,5.118300452024501,0.5457882378256353,0.0,-0.03482981119306468,0.0,0.002019839837321215,0.0,0.35,0.0,-0.2360090625898309,0.0,7.825733187168955,0.0,5.118300452024501,auto,85.0,5,10.0,0.0,0.0,5.560974347232028,0.002019839837321215,0,0
1761255785.0278487,14.22643518447876,7.883817961341374,0.0,5.117120338830214,0.5303828399597876,0.0,-0.003008110873186063,0.0,0.007210728125582389,0.0,0.35,0.0,-0.2583333260937557,0.0,7.883817961341374,0.0,5.117120338830214,auto,85.0,5,10.0,0.0,0.0,5.537431442718837,0.0072107281255823896,0,0
1761255785.1336772,14.332263708114624,7.94002426053494,0.0,5.116074823230946,0.5184511206116512,0.0,-0.020253586171407198,0.0,0.014693619919441205,0.0,0.35,0.0,-0.2651135494786261,0.0,7.94002426053494,0.0,5.116074823230946,auto,85.0,5,10.0,0.0,0.0,5.515226345679946,0.014693619919441205,0,0
1761255785.2389631,14.437549591064453,7.9945660659357225,0.0,5.11530833613621,0.5043385710273146,0.0,-0.0032181580116839477,0.0,0.015567758031326984,0.0,0.4608302622673756,0.0,-0.3,0.0,7.9945660659357225,0.0,5.11530833613621,auto,85.0,5,10.0,0.0,0.0,5.494373907702418,0.015567758031326984,0,0
1761255785.344747,14.543333530426025,8.047788860788703,0.0,5.113712478059203,0.49177817311071004,0.0,-0.0315367693041777,0.0,0.007487787403531378,0.0,0.35,0.0,-0.22608254167137296,0.0,8.047788860788703,0.0,5.113712478059203,auto,85.0,5,10.0,0.0,0.0,5.473680995483667,0.007487787403531378,0,0
1761255785.45039,14.648976564407349,8.099668486902557,0.0,5.112407394084396,0.4790176147229217,0.0,-0.022634251055247048,0.0,0.005442279906743567,0.0,0.35,0.0,-0.2530488753196119,0.0,8.099668486902557,0.0,5.112407394084396,auto,85.0,5,10.0,0.0,0.0,5.454169893096476,0.005442279906743567,0,0
1761255785.5533223,14.751908779144287,8.149001100892875,0.0,5.110026222088907,0.46725976339108105,0.0,-0.02475461297623622,0.0,0.00514446630350621,0.0,0.35,0.0,-0.278628309206187,0.0,8.149001100892875,0.0,5.110026222088907,auto,85.0,5,10.0,0.0,0.0,5.434939274263514,0.00514446630350621,0,0
1761255785.656835,14.855421543121338,8.197474492368107,0.0,5.109205960260112,0.4573101201102525,0.0,-0.022265194500909528,0.0,0.00412078169619803,0.0,0.4076140389223936,0.0,-0.19222645571656663,0.0,8.197474492368107,0.0,5.109205960260112,auto,85.0,5,10.0,0.0,0.0,5.417848627455465,0.00412078169619803,0,0
1761255785.7609417,14.95952820777893,8.245075095657574,0.0,5.1078014616884495,0.44468507145014363,0.0,-0.004822351802496232,0.0,0.0004307852196551963,0.0,0.35,0.0,-0.21609002434853053,0.0,8.245075095657574,0.0,5.1078014616884495,auto,85.0,5,10.0,0.0,0.0,5.400870040272024,0.0004307852196551963,0,0
1761255785.8692002,15.067786693572998,8.293937233208338,0.0,5.107064706314016,0.43817932745198,0.0,-0.018416018026406793,0.0,0.040360970270093416,0.0,0.381492204637519,0.0,-0.3,0.0,8.293937233208338,0.0,5.107064706314016,auto,85.0,5,10.0,0.0,0.0,5.384492555358499,0.040360970270093416,0,0
1761255785.973133,15.171719551086426,8.33942256298897,0.0,5.1060462974111775,0.42821204657790746,0.0,-0.01741597457132938,0.0,0.04088660652818228,0.0,0.35,0.0,-0.3,0.0,8.33942256298897,0.0,5.1060462974111775,auto,85.0,5,10.0,0.0,0.0,5.369285447395819,0.04088660652818228,0,0
1761255786.080639,15.27922534942627,8.385279938078586,0.0,5.105251278944725,0.4138699256978668,0.0,0.01725742898356123,0.0,0.06870720582147005,0.0,0.35,0.0,-0.3,0.0,8.385279938078586,0.0,5.105251278944725,auto,85.0,5,10.0,0.0,0.0,5.354522527689864,0.06870720582147005,0,0
1761255786.1853447,15.383931159973145,8.427814369164965,0.0,5.104606196096115,0.4072451120907938,0.0,-0.031566696471957006,0.0,0.03911920617994416,0.0,0.35,0.0,-0.05192589324611467,0.0,8.427814369164965,0.0,5.104606196096115,auto,85.0,5,10.0,0.0,0.0,5.341233197963463,0.03911920617994416,0,0
1761255786.2898934,15.488479852676392,8.469392792216516,0.0,5.105602240865745,0.396451295780835,0.0,0.005960911079036409,0.0,0.04121048656231776,0.0,0.5196481565154483,0.0,-0.02013068142575605,0.0,8.469392792216516,0.0,5.105602240865745,auto,85.0,5,10.0,0.0,0.0,5.3300968721452024,0.04121048656231775,0,0
1761255786.3948803,15.593466758728027,8.510160500950766,0.0,5.104781471087653,0.39044060522698704,0.0,-0.02968778255707436,0.0,0.03169325111862189,0.0,0.35753693769546485,0.0,0.07896086634698568,0.0,8.510160500950766,0.0,5.104781471087653,auto,85.0,5,10.0,0.0,0.0,5.317745349345632,0.03169325111862189,0,0
1761255786.499902,15.698488473892212,8.549905697770516,0.0,5.104934520232161,0.37924798531944176,0.0,-0.016400788723767476,0.0,0.02732218016335612,0.0,0.35,0.0,0.07440507607665431,0.0,8.549905697770516,0.0,5.104934520232161,auto,85.0,5,10.0,0.0,0.0,5.306894566619577,0.02732218016335612,0,0
1761255786.6038866,15.802473068237305,8.588235265629358,0.0,5.103539283563199,0.3692309937400779,0.0,-0.022870848145170198,0.0,0.02516265244975766,0.0,0.4216920669774221,0.0,0.11403040502471792,0.0,8.588235265629358,0.0,5.103539283563199,auto,85.0,5,10.0,0.0,0.0,5.295204706532636,0.02516265244975766,0,0
1761255786.708031,15.906617403030396,8.625554392497433,0.0,5.101369904398349,0.3610526580231139,0.0,-0.03684725470761565,0.0,0.016812499088003485,0.0,0.35,0.0,0.2057609129613039,0.0,8.625554392497433,0.0,5.101369904398349,auto,85.0,5,10.0,0.0,0.0,5.283282656595644,0.01681249908800348,0,0
1761255786.8143446,16.01293110847473,8.662751865995132,0.0,5.099046330475261,0.35369465728596633,0.0,-0.00818325962372812,0.0,0.006209035936778059,0.0,0.5149415980622718,0.0,0.3,0.0,8.662751865995132,0.0,5.099046330475261,auto,85.0,5,10.0,0.0,0.0,5.271480442174924,0.006209035936778058,0,0
1761255786.919206,16.11779236793518,8.698472248213427,0.0,5.098278961588214,0.34214479300763095,0.0,-0.02158938216403749,0.0,-0.00017943494758233466,0.0,0.35,0.0,0.3,0.0,8.698472248213427,0.0,5.098278961588214,auto,85.0,5,10.0,0.0,0.0,5.261788940925283,0.00017943494758233466,0,0
1761255787.0233624,16.221948862075806,8.732844315415013,0.0,5.0983749556567535,0.3340272508994628,0.0,0.012015569831106819,0.0,0.0030522361500969733,0.0,0.35,0.0,0.3,0.0,8.732844315415013,0.0,5.0983749556567535,auto,85.0,5,10.0,0.0,0.0,5.2534855779229135,0.0030522361500969738,0,0
1761255787.1271043,16.325690746307373,8.766517004268566,0.0,5.099834165989187,0.3248481118863312,0.0,0.020810712771860536,0.0,0.008329920556386077,0.0,0.35,0.0,0.2678855847604361,0.0,8.766517004268566,0.0,5.099834165989187,auto,85.0,5,10.0,0.0,0.0,5.246883724778854,0.008329920556386077,0,0
1761255787.2315714,16.430157899856567,8.799337442020558,0.0,5.101229627664706,0.3166340135480321,0.0,0.0010283490157400182,0.0,0.007828841509966149,0.0,0.35,0.0,0.2653715008742258,0.0,8.799337442020558,0.0,5.101229627664706,auto,85.0,5,10.0,0.0,0.0,5.240623464083059,0.007828841509966149,0,0
1761255787.3398654,16.53845191001892,8.832382407324346,0.0,5.102511596310166,0.3048657526124214,0.0,-0.0020024483158403075,0.0,0.021343355649219308,0.0,0.35,0.0,0.13663729313432996,0.0,8.832382407324346,0.0,5.102511596310166,auto,85.0,5,10.0,0.0,0.0,5.234401153255777,0.021343355649219305,0,0
1761255787.445702,16.644288539886475,8.863660919406541,0.0,5.104338178676267,0.2991412899771921,0.0,0.0031777742699531063,0.0,0.023169709252371253,0.0,0.35,0.0,0.13921489027365952,0.0,8.863660919406541,0.0,5.104338178676267,auto,85.0,5,10.0,0.0,0.0,5.229295817638943,0.023169709252371253,0,0
1761255787.5498943,16.748480796813965,8.893729444091443,0.0,5.10659858979823,0.2918880426539096,0.0,0.023143430053152635,0.0,0.019205542014577123,0.0,0.35,0.0,0.19875289028067106,0.0,8.893729444091443,0.0,5.10659858979823,auto,85.0,5,10.0,0.0,0.0,5.225053463860394,0.019205542014577123,0,0
1761255787.653237,16.851823568344116,8.922908184078914,0.0,5.108137325991126,0.2857070346897323,0.0,0.020353990417954666,0.0,0.013327069967661795,0.0,0.35,0.0,0.2572421895792225,0.0,8.922908184078914,0.0,5.108137325991126,auto,85.0,5,10.0,0.0,0.0,5.220459148495269,0.013327069967661795,0,0
1761255787.7590845,16.95767092704773,8.95211338716491,0.0,5.108818829698164,0.27814917613921597,0.0,0.004643149902540472,0.0,0.014986770648253477,0.0,0.35,0.0,0.24146653647545918,0.0,8.95211338716491,0.0,5.108818829698164,auto,85.0,5,10.0,0.0,0.0,5.215179401328157,0.014986770648253477,0,0
1761255787.8648076,17.06339406967163,8.980466995831025,0.0,5.108374189966803,0.2711829606244044,0.0,-0.022487127221966524,0.0,0.012154865280047542,0.0,0.35,0.0,0.25790681465994797,0.0,8.980466995831025,0.0,5.108374189966803,auto,85.0,5,10.0,0.0,0.0,5.209120310696308,0.012154865280047542,0,0
1761255787.9750044,17.173590898513794,9.009297465247476,0.0,5.106757264900289,0.26381115824814827,0.0,-0.035546008799228174,0.0,0.01982150867331877,0.0,0.35,0.0,0.15699270198420837,0.0,9.009297465247476,0.0,5.106757264900289,auto,85.0,5,10.0,0.0,0.0,5.201967058236428,0.01982150867331877,0,0
1761255788.0816803,17.280266761779785,9.035710996300706,0.0,5.105476160649501,0.2510287177670029,0.0,0.0009029276912661238,0.0,-0.013576558652812902,0.0,0.35,0.0,0.3,0.0,9.035710996300706,0.0,5.105476160649501,auto,85.0,5,10.0,0.0,0.0,5.1957424983938285,0.0135765586528129,0,0
1761255788.18704,17.385626554489136,9.061279149277139,0.0,5.104521368199812,0.24511930146268066,0.0,-0.01635601978698041,0.0,-0.00647704428159146,0.0,0.35,0.0,0.3,0.0,9.061279149277139,0.0,5.104521368199812,auto,85.0,5,10.0,0.0,0.0,5.190118999983559,0.00647704428159146,0,0
1761255788.2918239,17.490410327911377,9.086062159112494,0.0,5.102919675567975,0.23987067142836666,0.0,-0.013861200679264106,0.0,-0.005195574452700119,0.0,0.35,0.0,0.3,0.0,9.086062159112494,0.0,5.102919675567975,auto,85.0,5,10.0,0.0,0.0,5.184117243302362,0.00519557445270012,0,0
1761255788.3966205,17.59520697593689,9.110243962415183,0.0,5.100498237631599,0.2337107522776986,0.0,-0.025607205708964676,0.0,-0.007691591428255991,0.0,0.35,0.0,0.3,0.0,9.110243962415183,0.0,5.100498237631599,auto,85.0,5,10.0,0.0,0.0,5.177523353737932,0.007691591428255991,0,0
1761255788.5018187,17.70040512084961,9.13392846188032,0.0,5.097562148653586,0.22767858606730856,0.0,-0.037917305970681436,0.0,-0.003320048559230203,0.0,0.3746551201089942,0.0,0.2880607985247834,0.0,9.13392846188032,0.0,5.097562148653586,auto,85.0,5,10.0,0.0,0.0,5.170611160059008,0.003320048559230203,0,0
1761255788.6047845,17.8033709526062,9.15640548734011,0.0,5.095982174401923,0.22212938036989247,0.0,-0.022328498687642542,0.0,-0.006137210645056437,0.0,0.35,0.0,0.3,0.0,9.15640548734011,0.0,5.095982174401923,auto,85.0,5,10.0,0.0,0.0,5.165335034981955,0.006137210645056438,0,0
1761255788.710322,17.908908367156982,9.178922101261794,0.0,5.093840809295465,0.21722817128078686,0.0,-0.024337483995070984,0.0,-0.009894934205212355,0.0,0.41300237281801394,0.0,0.3,0.0,9.178922101261794,0.0,5.093840809295465,auto,85.0,5,10.0,0.0,0.0,5.1595913700835085,0.009894934205212355,0,0
1761255788.8115916,18.010178089141846,9.200049165093885,0.0,5.091071406448728,0.2117632873131834,0.0,-0.035951743526493635,0.0,-0.014067099712190403,0.0,0.35,0.0,0.3,0.0,9.200049165093885,0.0,5.091071406448728,auto,85.0,5,10.0,0.0,0.0,5.153535621670508,0.014067099712190403,0,0
1761255788.9164948,18.115081310272217,9.221293912017835,0.0,5.088340332448732,0.20534993403962237,0.0,-0.0360046901623816,0.0,-0.019479515478970453,0.0,0.35,0.0,0.3,0.0,9.221293912017835,0.0,5.088340332448732,auto,85.0,5,10.0,0.0,0.0,5.1475810348439355,0.019479515478970456,0,0
1761255789.0217001,18.22028660774231,9.24217122882831,0.0,5.085315515112294,0.20142276243061147,0.0,-0.03375893819762768,0.0,-0.018266833782960477,0.0,0.35,0.0,0.3,0.0,9.24217122882831,0.0,5.085315515112294,auto,85.0,5,10.0,0.0,0.0,5.141472389759319,0.018266833782960477,0,0
1761255789.1276972,18.3262836933136,9.262649605639085,0.0,5.0816209441703215,0.1963397481021343,0.0,-0.023791929761728937,0.0,-0.0252519038976009,0.0,0.48324665413688145,0.0,0.3,0.0,9.262649605639085,0.0,5.0816209441703215,auto,85.0,5,10.0,0.0,0.0,5.134837584996693,0.025251903897600896,0,0
1761255789.2318096,18.43039608001709,9.282321804109317,0.0,5.078590942882339,0.19042521317433786,0.0,-0.019007791606080786,0.0,-0.025893577131042473,0.0,0.35,0.0,0.3,0.0,9.282321804109317,0.0,5.078590942882339,auto,85.0,5,10.0,0.0,0.0,5.129049420505073,0.02589357713104247,0,0
1761255789.3353713,18.533957719802856,9.301389949753062,0.0,5.075885535175589,0.18537793053765275,0.0,-0.011220513262691715,0.0,-0.025643938669129757,0.0,0.35,0.0,0.3,0.0,9.301389949753062,0.0,5.075885535175589,auto,85.0,5,10.0,0.0,0.0,5.123735938600935,0.025643938669129757,0,0
1761255789.440096,18.63868236541748,9.320152314503588,0.0,5.073266769241619,0.1808366865265794,0.0,-0.031013184629956725,0.0,-0.03029978685719328,0.0,0.3911707045262097,0.0,0.3,0.0,9.320152314503588,0.0,5.073266769241619,auto,85.0,5,10.0,0.0,0.0,5.118615885897879,0.03029978685719328,0,0
1761255789.5453084,18.743894815444946,9.33859197180459,0.0,5.069883713867088,0.1776139368377619,0.0,0.01162894069323269,0.0,-0.030464812234980813,0.0,0.6492097673431609,0.0,0.3,0.0,9.33859197180459,0.0,5.069883713867088,auto,85.0,5,10.0,0.0,0.0,5.112844751397804,0.030464812234980813,0,0
1761255789.6503544,18.8489408493042,9.356605140507645,0.0,5.06774561125295,0.17132860777503897,0.0,-0.019151965043066974,0.0,-0.029002976553388814,0.0,0.4578386846095295,0.0,0.2961954854747417,0.0,9.356605140507645,0.0,5.06774561125295,auto,85.0,5,10.0,0.0,0.0,5.108424661830173,0.029002976553388814,0,0
1761255789.7554674,18.95405387878418,9.374025939742884,0.0,5.06528059810398,0.16593208251646463,0.0,-0.027394813785191992,0.0,-0.028675195545174403,0.0,0.35,0.0,0.3,0.0,9.374025939742884,0.0,5.06528059810398,auto,85.0,5,10.0,0.0,0.0,5.103813384288594,0.028675195545174403,0,0
1761255789.859348,19.057934522628784,9.39075484230919,0.0,5.063022131500478,0.1628479214770255,0.0,0.014986223045439832,0.0,-0.024299282448705616,0.0,0.35,0.0,0.3,0.0,9.39075484230919,0.0,5.063022131500478,auto,85.0,5,10.0,0.0,0.0,5.099546329452586,0.024299282448705616,0,0
1761255789.9662015,19.164788007736206,9.407447757065407,0.0,5.062313732506668,0.15777108648646102,0.0,-0.018275740695189294,0.0,-0.02404301659303059,0.0,0.35,0.0,0.3,0.0,9.407447757065407,0.0,5.062313732506668,auto,85.0,5,10.0,0.0,0.0,5.096875365057734,0.02404301659303059,0,0
1761255790.0721986,19.270785093307495,9.423504221046823,0.0,5.0620101963197675,0.15432001375334295,0.0,0.006366714766689832,0.0,-0.02326721323582014,0.0,0.35,0.0,0.3,0.0,9.423504221046823,0.0,5.0620101963197675,auto,85.0,5,10.0,0.0,0.0,5.094732045043794,0.023267213235820143,0,0
1761255790.1780322,19.37661862373352,9.43912937234845,0.0,5.061764147280486,0.15017769408070197,0.0,0.0038339596340381827,0.0,-0.0257060140067851,0.0,0.35,0.0,0.3,0.0,9.43912937234845,0.0,5.061764147280486,auto,85.0,5,10.0,0.0,0.0,5.092743086358901,0.0257060140067851,0,0
1761255790.2861457,19.484732151031494,9.454566893587,0.0,5.061841898284736,0.14632673586175865,0.0,-0.003560358418229331,0.0,-0.030545992722683633,0.0,0.41355564103542697,0.0,0.3,0.0,9.454566893587,0.0,5.061841898284736,auto,85.0,5,10.0,0.0,0.0,5.091143356536148,0.030545992722683633,0,0
1761255790.390729,19.58931541442871,9.469375723605774,0.0,5.061465364679055,0.14272678602648745,0.0,-0.010159707513889813,0.0,-0.030240621629327197,0.0,0.35,0.0,0.3,0.0,9.469375723605774,0.0,5.061465364679055,auto,85.0,5,10.0,0.0,0.0,5.0892036469908115,0.030240621629327197,0,0
1761255790.4956126,19.694199085235596,9.483815073089284,0.0,5.060164277649048,0.13874758774544865,0.0,-0.015464081216429545,0.0,-0.028417375131064185,0.0,0.4051468290857714,0.0,0.3,0.0,9.483815073089284,0.0,5.060164277649048,auto,85.0,5,10.0,0.0,0.0,5.086424028289947,0.028417375131064185,0,0
1761255790.603262,19.80184841156006,9.498105201327148,0.0,5.060061788169009,0.1352550654389491,0.0,0.03140878595602713,0.0,-0.025495686327502376,0.0,0.35,0.0,0.3,0.0,9.498105201327148,0.0,5.060061788169009,auto,85.0,5,10.0,0.0,0.0,5.084891708682006,0.025495686327502376,0,0
1761255790.709185,19.907771348953247,9.510095909005063,0.0,5.057168830666797,0.05270592207584249,0.0,-0.07937702187504674,0.0,0.21585278594097493,0.0,0.35,0.0,0.3,0.0,9.510095909005063,0.0,5.057168830666797,auto,85.0,0,0.0,0.0,0.0,10.771113256313972,0.21585278594097493,1,0
1761255790.8150082,20.01359462738037,9.501012997442029,0.0,5.041079613724573,-0.25108921416697094,0.0,-0.25776772718154756,0.0,0.4400694578728991,0.0,0.35,0.0,-0.1155891856818948,0.0,9.501012997442029,0.0,5.041079613724573,auto,85.0,0,0.0,0.0,0.0,10.75554422841875,0.4400694578728991,1,0
1761255790.919302,20.11788845062256,9.456396559741368,0.0,5.004099568988974,-0.5800012546992512,0.0,-0.42567680628888144,0.0,0.24928090048087165,0.0,0.35,0.0,-0.3,0.0,9.456396559741368,0.0,5.004099568988974,auto,85.0,0,0.0,0.0,0.0,10.698805932974203,0.24928090048087165,1,0
1761255791.02437,20.22295641899109,9.387926276635953,0.0,4.953235417317346,-0.6962345446702057,0.0,-0.5647898361952902,0.0,0.06252747819389089,0.0,0.35,0.0,0.11768685682713509,0.0,9.387926276635953,0.0,4.953235417317346,auto,85.0,0,0.0,0.0,0.0,10.614504268919898,0.06252747819389089,1,0
1761255791.130398,20.32898449897766,9.31110657144778,0.0,4.883205708328767,-0.7371828471580225,0.0,-0.7496539840918566,0.0,0.03126929461657596,0.0,0.35,0.0,0.05201040197901691,0.0,9.31110657144778,0.0,4.883205708328767,auto,85.0,0,0.0,0.0,0.0,10.513914759722597,0.03126929461657596,1,0
1761255791.234203,20.43278956413269,9.233493346316573,0.0,4.79588912472677,-0.7540121196278763,0.0,-0.9326872816335434,0.0,0.015466312064190404,0.0,0.35,0.0,0.02209274490204735,0.0,9.233493346316573,0.0,4.79588912472677,auto,85.0,0,0.0,0.0,0.0,10.404708158960775,0.015466312064190404,1,0
1761255791.3393264,20.537912845611572,9.153807023838946,0.0,4.688088049327892,-0.7597916811712894,0.0,-1.1181607752956533,0.0,0.005079568954120727,0.0,0.35,0.0,0.0016574190762302405,0.0,9.153807023838946,0.0,4.688088049327892,auto,85.0,0,0.0,0.0,0.0,10.28447142968146,0.005079568954120727,1,0
1761255791.4434662,20.64205265045166,9.074720811389561,0.0,4.562131787760256,-0.7588774881340635,0.0,-1.300513038486781,0.0,0.0040363752760974765,0.0,0.35,0.0,-0.0008713490438636922,0.0,9.074720811389561,0.0,4.562131787760256,auto,85.0,0,0.0,0.0,0.0,10.156948569996768,0.004036375276097477,1,0
1761255791.5490618,20.747648239135742,8.994690743444648,0.0,4.415128977490179,-0.7565961537392454,0.0,-1.4833863452293483,0.0,0.002468438767836453,0.0,0.35,0.0,-0.0007870286384116612,0.0,8.994690743444648,0.0,4.415128977490179,auto,85.0,0,0.0,0.0,0.0,10.019871529020834,0.002468438767836453,1,0
1761255791.6522796,20.850866079330444,8.916788811624436,0.0,4.25288584828376,-0.7526162622125679,0.0,-1.6599345490832749,0.0,0.00117779047017334,0.0,0.35,0.0,-0.0003961795991817977,0.0,8.916788811624436,0.0,4.25288584828376,auto,85.0,0,0.0,0.0,0.0,9.879076917892835,0.00117779047017334,1,0
1761255791.755444,20.954030513763428,8.83940705414809,0.0,4.072639831206349,-0.7473723038431733,0.0,-1.8339921907396664,0.0,0.00044255995283506755,0.0,0.35,0.0,-0.00024785310335288384,0.0,8.83940705414809,0.0,4.072639831206349,auto,85.0,0,0.0,0.0,0.0,9.732497740233567,0.00044255995283506755,1,0
1761255791.8589318,21.057518243789673,8.76237609836904,0.0,3.873921499462847,-0.741191025986423,0.0,-2.005977018841341,0.0,-6.185350546010936e-06,0.0,0.35,0.0,-0.00014975864065612903,0.0,8.76237609836904,0.0,3.873921499462847,auto,85.0,0,0.0,0.0,0.0,9.580527264888374,6.185350546010936e-06,1,0
1761255791.963834,21.162420511245728,8.684984401243476,0.0,3.6551363082199373,-0.7342074168343486,0.0,-2.1596996509108206,0.0,-0.00028829137019398515,0.0,0.3635354824765205,0.0,-9.591131088170274e-05,0.0,8.684984401243476,0.0,3.6551363082199373,auto,85.0,0,0.0,0.0,0.0,9.42279021742022,0.00028829137019398515,1,0
1761255792.0730476,21.271634101867676,8.605222191601477,0.0,3.4125527105452877,-0.7263879739803283,0.0,-2.2818694283543652,0.0,-0.00047270375285357006,0.0,0.35,0.0,-5.3830327930191056e-05,0.0,8.605222191601477,0.0,3.4125527105452877,auto,85.0,0,0.0,0.0,0.0,9.257179104299567,0.00047270375285357006,1,0
1761255792.1773784,21.375964879989624,8.529843812229826,0.0,3.16918114381408,-0.7185438264114294,0.0,-2.3721106106777214,0.0,-0.0005766159934123963,0.0,0.46769535149201763,0.0,-3.4238588527369965e-05,0.0,8.529843812229826,0.0,3.16918114381408,auto,85.0,0,0.0,0.0,0.0,9.0995573839249,0.0005766159934123964,1,0
1761255792.2814367,21.48002314567566,8.455491234247523,0.0,2.9164314258109445,-0.7104642550010691,0.0,-2.468448753025443,0.0,-0.0006406579023389493,0.0,0.42719188716192324,0.0,-2.015734710464858e-05,0.0,8.455491234247523,0.0,2.9164314258109445,auto,85.0,0,0.0,0.0,0.0,8.944322460303763,0.0006406579023389493,1,0
1761255792.383844,21.582430362701416,8.383149930683404,0.0,2.659500413870402,-0.7023179052361226,0.0,-2.532608067168031,0.0,-0.0006787458691139424,0.0,0.4817543040718883,0.0,-1.2023655877770445e-05,0.0,8.383149930683404,0.0,2.659500413870402,auto,85.0,0,0.0,0.0,0.0,8.794893132477164,0.0006787458691139424,1,0
1761255792.492062,21.690648555755615,8.307617859929524,0.0,2.384483327675471,-0.6936163278633442,0.0,-2.497620816569949,0.0,-0.0007028644087207587,0.0,0.35,0.0,-6.206852058181099e-06,0.0,8.307617859929524,0.0,2.384483327675471,auto,85.0,0,0.0,0.0,0.0,8.643047798466828,0.0007028644087207587,1,0
1761255792.5942526,21.79283905029297,8.23713861055195,0.0,2.148586867532576,-0.6859222188525094,0.0,-2.2062050562859543,0.0,-0.0007155921056696397,0.0,0.5661229501269012,0.0,-3.530295701580633e-06,0.0,8.23713861055195,0.0,2.148586867532576,auto,85.0,0,0.0,0.0,0.0,8.512747970942119,0.0007155921056696398,1,0
1761255792.7000363,21.898622751235962,8.164966434920759,0.0,1.9308358812420205,-0.6787708815545679,0.0,-1.9873739548877238,0.0,-0.0007227630192720548,0.0,0.40700508444561134,0.0,-1.7855493800833776e-06,0.0,8.164966434920759,0.0,1.9308358812420205,auto,85.0,0,0.0,0.0,0.0,8.390161147658265,0.0007227630192720548,1,0
1761255792.8039002,22.00248670578003,8.094804695336581,0.0,1.7416820424567567,-0.672429573850162,0.0,-1.7639732112988609,0.0,-0.0007262461042514633,0.0,0.35,0.0,-7.291794225214757e-07,0.0,8.094804695336581,0.0,1.7416820424567567,auto,85.0,0,0.0,0.0,0.0,8.280055518694274,0.0007262461042514633,1,0
1761255792.9075732,22.106159687042236,8.02539896772057,0.0,1.571694415596326,-0.6666411657935492,0.0,-1.5709521159473807,0.0,-0.0007276325333949496,0.0,0.35,0.0,-6.883008556961968e-08,0.0,8.02539896772057,0.0,1.571694415596326,auto,85.0,0,0.0,0.0,0.0,8.177851302579857,0.0007276325333949496,1,0
1761255793.0117385,22.210325002670288,7.95624137775418,0.0,1.4183004320931367,-0.661316166461401,0.0,-1.4069151074104367,0.0,-0.0007276853681494471,0.0,0.5220448115554872,0.0,3.055076808976779e-07,0.0,7.95624137775418,0.0,1.4183004320931367,auto,85.0,0,0.0,0.0,0.0,8.081667710117962,0.0007276853681494471,1,0
1761255793.1150305,22.31361699104309,7.888187585781613,0.0,1.2831483624278515,-0.6564814569018844,0.0,-1.248763104566375,0.0,-0.0007269564311577006,0.0,0.5596058574678714,0.0,5.241626059071682e-07,0.0,7.888187585781613,0.0,1.2831483624278515,auto,85.0,0,0.0,0.0,0.0,7.991869187397929,0.0007269564311577006,1,0
1761255793.2201772,22.418763637542725,7.819403022214965,0.0,1.160457997308756,-0.6519397248767547,0.0,-1.0888632742044029,0.0,-0.0007257458988683701,0.0,0.6797094525400377,0.0,6.564873461574896e-07,0.0,7.819403022214965,0.0,1.160457997308756,auto,85.0,0,0.0,0.0,0.0,7.905044363401282,0.0007257458988683701,1,0
1761255793.3292274,22.52781391143799,7.748546987486192,0.0,1.0470640530135078,-0.6476084190701659,0.0,-0.9721052559495436,0.0,-0.0007232628175757392,0.0,0.6491199677067152,0.0,1.4299240241952855e-07,0.0,7.748546987486192,0.0,1.0470640530135078,auto,85.0,0,0.0,0.0,0.0,7.818972026321261,0.0007232628175757393,1,0
1761255793.432214,22.630800485610962,7.682049057288042,0.0,0.9522303599430131,-0.6437852937865818,0.0,-0.8274015940525816,0.0,-0.0007211610567952863,0.0,0.8527678611511128,0.0,6.598972033729117e-07,0.0,7.682049057288042,0.0,0.9522303599430131,auto,85.0,0,0.0,0.0,0.0,7.740841063926923,0.0007211610567952864,1,0
1761255793.538636,22.73722243309021,7.614058107806761,0.0,0.8625843520364327,-0.6401352297142722,0.0,-0.806035217495756,0.0,-0.0007191247803761336,0.0,0.35,0.0,4.893528651179988e-07,0.0,7.614058107806761,0.0,0.8625843520364327,auto,85.0,0,0.0,0.0,0.0,7.662762728509606,0.0007191247803761336,1,0
1761255793.6418529,22.840439319610596,7.547837065136586,0.0,0.7813472512425035,-0.6367032469225399,0.0,-0.7684227256133458,0.0,-0.0007172411335720494,0.0,0.35,0.0,5.017885174745627e-07,0.0,7.547837065136586,0.0,0.7813472512425035,auto,85.0,0,0.0,0.0,0.0,7.588171577453549,0.0007172411335720494,1,0
1761255793.7440515,22.94263792037964,7.482935682721869,0.0,0.7095209437935207,-0.6334599343272522,0.0,-0.6742128559699615,0.0,-0.0007154076333011483,0.0,0.35,0.0,6.994183758918002e-07,0.0,7.482935682721869,0.0,0.7095209437935207,auto,85.0,0,0.0,0.0,0.0,7.516498280544861,0.0007154076333011483,1,0
1761255793.8480177,23.04660415649414,7.417241650979112,0.0,0.6429783568075269,-0.6303455981374521,0.0,-0.6411835638731209,0.0,-0.0007135459848911611,0.0,0.35,0.0,7.994413656674674e-07,0.0,7.417241650979112,0.0,0.6429783568075269,auto,85.0,0,0.0,0.0,0.0,7.445058419941529,0.0007135459848911611,1,0
1761255793.951666,23.1502525806427,7.352065528878022,0.0,0.5839871257071528,-0.6273488571706232,0.0,-0.5538964337566942,0.0,-0.0007116988478402764,0.0,0.35,0.0,8.896872617565516e-07,0.0,7.352065528878022,0.0,0.5839871257071528,auto,85.0,0,0.0,0.0,0.0,7.375222607074865,0.0007116988478402764,1,0
1761255794.0560613,23.254647731781006,7.286725603069678,0.0,0.5299708753598189,-0.6244674347308529,0.0,-0.5087832488164318,0.0,-0.0007098455487766773,0.0,0.35,0.0,1.0117872716599576e-06,0.0,7.286725603069678,0.0,0.5299708753598189,auto,85.0,0,0.0,0.0,0.0,7.305972840297233,0.0007098455487766773,1,0
1761255794.1601846,23.358771085739136,7.221850761499766,0.0,0.47915394301206266,-0.6216221352832643,0.0,-0.41210303095086404,0.0,-0.0007079932288518579,0.0,0.7701609550338927,0.0,9.397417781387163e-07,0.0,7.221850761499766,0.0,0.47915394301206266,auto,85.0,0,0.0,0.0,0.0,7.237728712965053,0.0007079932288518579,1,0
1761255794.263065,23.46165156364441,7.1580327311361005,0.0,0.4346821794820639,-0.6189972407658774,0.0,-0.43722699712581653,0.0,-0.0007061717697923733,0.0,0.35,0.0,9.200704282274849e-07,0.0,7.1580327311361005,0.0,0.4346821794820639,auto,85.0,0,0.0,0.0,0.0,7.171218946397817,0.0007061717697923733,1,0
1761255794.367361,23.56594753265381,7.093613840736245,0.0,0.39397103858154575,-0.6163487230653751,0.0,-0.37401519031760533,0.0,-0.000704307273587815,0.0,0.35,0.0,8.393808888911965e-07,0.0,7.093613840736245,0.0,0.39397103858154575,auto,85.0,0,0.0,0.0,0.0,7.1045457631523385,0.0007043072735878151,1,0
1761255794.470689,23.669275522232056,7.030059961240255,0.0,0.35843104722531743,-0.6137984383074899,0.0,-0.30867584952841864,0.0,-0.000702504562344267,0.0,0.631647924536262,0.0,9.314781887242432e-07,0.0,7.030059961240255,0.0,0.35843104722531743,auto,85.0,0,0.0,0.0,0.0,7.039191421906949,0.000702504562344267,1,0
1761255794.5732226,23.771809101104736,6.967249695479609,0.0,0.32604428513976497,-0.611356194124335,0.0,-0.300660869605581,0.0,-0.0007006928429551974,0.0,0.5189912448484946,0.0,8.43424629630775e-07,0.0,6.967249695479609,0.0,0.32604428513976497,auto,85.0,0,0.0,0.0,0.0,6.974874421452546,0.0007006928429551974,1,0
1761255794.6765504,23.875136852264404,6.904205450453495,0.0,0.2963003907854541,-0.6089115531386678,0.0,-0.2513470857246499,0.0,-0.0006988929546104933,0.0,0.6372743814179738,0.0,9.157834345031075e-07,0.0,6.904205450453495,0.0,0.2963003907854541,auto,85.0,0,0.0,0.0,0.0,6.9105605289043925,0.0006988929546104932,1,0
1761255794.7775443,23.976130723953247,6.84282545647083,0.0,0.26969672776266035,-0.6066225021580814,0.0,-0.29222628577184356,0.0,-0.0006970908911607878,0.0,0.35,0.0,1.812331366007514e-06,0.0,6.84282545647083,0.0,0.26969672776266035,auto,85.0,0,0.0,0.0,0.0,6.848138181483425,0.0006970908911607878,1,0
