timestamp,simulation_time,position_x,position_y,position_z,velocity_x,velocity_y,velocity_z,attitude_roll,attitude_pitch,attitude_yaw,control_throttle,control_roll,control_pitch,control_yaw,estimated_position_x,estimated_position_y,estimated_position_z,flight_mode,battery_level,setpoint_altitude,setpoint_position_x,setpoint_position_y,setpoint_position_z,position_error,attitude_error,waypoint_index,mission_complete
1761142375.9120386,0.15081119537353516,0.0,0.0,-0.0,0.0,0.0,-0.0,0.0,0.0,0.0,0.0,0.0,0.0,0.0,0.0,0.0,-0.0,manual,85.0,0.0,0.0,0.0,0.0,0.0,0.0,0,0
1761142376.016348,0.25512051582336426,0.0,0.0,-0.0,0.0,0.0,-0.0,0.0,0.0,0.0,0.0,0.0,0.0,0.0,0.0,0.0,-0.0,manual,85.0,0.0,0.0,0.0,0.0,0.0,0.0,0,0
1761142376.1164463,0.35521888732910156,0.0,0.0,-0.0,0.0,0.0,-0.0,0.0,0.0,0.0,0.0,0.0,0.0,0.0,0.0,0.0,-0.0,manual,85.0,0.0,0.0,0.0,0.0,0.0,0.0,0,0
1761142376.2195892,0.4583618640899658,0.0,0.0,-0.0,0.0,0.0,-0.0,0.0,0.0,0.0,0.0,0.0,0.0,0.0,0.0,0.0,-0.0,manual,85.0,0.0,0.0,0.0,0.0,0.0,0.0,0,0
1761142376.323407,0.5621795654296875,0.0,0.0,-0.0,0.0,0.0,-0.0,0.0,0.0,0.0,0.0,0.0,0.0,0.0,0.0,0.0,-0.0,manual,85.0,0.0,0.0,0.0,0.0,0.0,0.0,0,0
1761142376.4266334,0.6654059886932373,0.0,0.0,-0.0,0.0,0.0,-0.0,0.0,0.0,0.0,0.0,0.0,0.0,0.0,0.0,0.0,-0.0,manual,85.0,0.0,0.0,0.0,0.0,0.0,0.0,0,0
1761142376.5288804,0.7676529884338379,0.0,0.0,-0.0,0.0,0.0,-0.0,0.0,0.0,0.0,0.0,0.0,0.0,0.0,0.0,0.0,-0.0,manual,85.0,0.0,0.0,0.0,0.0,0.0,0.0,0,0
1761142376.630713,0.86948561668396,0.0,0.0,-0.0,0.0,0.0,-0.0,0.0,0.0,0.0,0.0,0.0,0.0,0.0,0.0,0.0,-0.0,manual,85.0,0.0,0.0,0.0,0.0,0.0,0.0,0,0
1761142376.7347863,0.9735589027404785,0.0,0.0,-0.0,0.0,0.0,-0.0,0.0,0.0,0.0,0.0,0.0,0.0,0.0,0.0,0.0,-0.0,manual,85.0,0.0,0.0,0.0,0.0,0.0,0.0,0,0
1761142376.8368406,1.075613260269165,0.0,0.0,-0.0,0.0,0.0,-0.0,0.0,0.0,0.0,0.0,0.0,0.0,0.0,0.0,0.0,-0.0,manual,85.0,0.0,0.0,0.0,0.0,0.0,0.0,0,0
1761142376.94038,1.1791527271270752,0.0,0.0,-0.0,0.0,0.0,-0.0,0.0,0.0,0.0,0.0,0.0,0.0,0.0,0.0,0.0,-0.0,manual,85.0,0.0,0.0,0.0,0.0,0.0,0.0,0,0
1761142377.04529,1.2840626239776611,0.0,0.0,-0.0,0.0,0.0,-0.0,0.0,0.0,0.0,0.0,0.0,0.0,0.0,0.0,0.0,-0.0,manual,85.0,0.0,0.0,0.0,0.0,0.0,0.0,0,0
1761142377.1469314,1.3857040405273438,0.0,0.0,-0.0,0.0,0.0,-0.0,0.0,0.0,0.0,0.0,0.0,0.0,0.0,0.0,0.0,-0.0,manual,85.0,0.0,0.0,0.0,0.0,0.0,0.0,0,0
1761142377.2492201,1.487992763519287,0.0,0.0,-0.0,0.0,0.0,-0.0,0.0,0.0,0.0,0.0,0.0,0.0,0.0,0.0,0.0,-0.0,manual,85.0,0.0,0.0,0.0,0.0,0.0,0.0,0,0
1761142377.3523467,1.5911192893981934,0.0,0.0,-0.0,0.0,0.0,-0.0,0.0,0.0,0.0,0.0,0.0,0.0,0.0,0.0,0.0,-0.0,manual,85.0,0.0,0.0,0.0,0.0,0.0,0.0,0,0
1761142377.4562583,1.695030927658081,0.0,0.0,-0.0,0.0,0.0,-0.0,0.0,0.0,0.0,0.0,0.0,0.0,0.0,0.0,0.0,-0.0,manual,85.0,0.0,0.0,0.0,0.0,0.0,0.0,0,0
1761142377.5591393,1.7979118824005127,0.0,0.0,-0.0,0.0,0.0,-0.0,0.0,0.0,0.0,0.0,0.0,0.0,0.0,0.0,0.0,-0.0,manual,85.0,0.0,0.0,0.0,0.0,0.0,0.0,0,0
1761142377.6628454,1.9016180038452148,0.0,0.0,-0.0,0.0,0.0,-0.0,0.0,0.0,0.0,0.0,0.0,0.0,0.0,0.0,0.0,-0.0,manual,85.0,0.0,0.0,0.0,0.0,0.0,0.0,0,0
1761142377.7674456,2.006218194961548,0.0,0.0,-0.0,0.0,0.0,-0.0,0.0,0.0,0.0,0.0,0.0,0.0,0.0,0.0,0.0,-0.0,manual,85.0,0.0,0.0,0.0,0.0,0.0,0.0,0,0
1761142377.8708284,2.1096010208129883,0.0,0.0,-0.0,0.0,0.0,-0.0,0.0,0.0,0.0,0.0,0.0,0.0,0.0,0.0,0.0,-0.0,manual,85.0,0.0,0.0,0.0,0.0,0.0,0.0,0,0
1761142377.976298,2.2150707244873047,0.0,0.0,-0.0,0.0,0.0,-0.0,0.0,0.0,0.0,0.0,0.0,0.0,0.0,0.0,0.0,-0.0,manual,85.0,0.0,0.0,0.0,0.0,0.0,0.0,0,0
1761142378.0786836,2.3174562454223633,0.0,0.0,-0.0,0.0,0.0,-0.0,0.0,0.0,0.0,0.0,0.0,0.0,0.0,0.0,0.0,-0.0,manual,85.0,0.0,0.0,0.0,0.0,0.0,0.0,0,0
1761142378.1805902,2.419362783432007,0.0,0.0,-0.0,0.0,0.0,-0.0,0.0,0.0,0.0,0.0,0.0,0.0,0.0,0.0,0.0,-0.0,manual,85.0,0.0,0.0,0.0,0.0,0.0,0.0,0,0
1761142378.2843902,2.523162841796875,0.0,0.0,-0.0,0.0,0.0,-0.0,0.0,0.0,0.0,0.0,0.0,0.0,0.0,0.0,0.0,-0.0,manual,85.0,0.0,0.0,0.0,0.0,0.0,0.0,0,0
1761142378.388332,2.6271045207977295,0.0,0.0,-0.0,0.0,0.0,-0.0,0.0,0.0,0.0,0.0,0.0,0.0,0.0,0.0,0.0,-0.0,manual,85.0,0.0,0.0,0.0,0.0,0.0,0.0,0,0
1761142378.491283,2.730055570602417,0.0,0.0,-0.0,0.0,0.0,-0.0,0.0,0.0,0.0,0.0,0.0,0.0,0.0,0.0,0.0,-0.0,manual,85.0,0.0,0.0,0.0,0.0,0.0,0.0,0,0
1761142378.5947518,2.833524465560913,0.0,0.0,-0.0,0.0,0.0,-0.0,0.0,0.0,0.0,0.0,0.0,0.0,0.0,0.0,0.0,-0.0,manual,85.0,0.0,0.0,0.0,0.0,0.0,0.0,0,0
1761142378.6968133,2.9355859756469727,0.0,0.0,-0.0,0.0,0.0,-0.0,0.0,0.0,0.0,0.0,0.0,0.0,0.0,0.0,0.0,-0.0,manual,85.0,0.0,0.0,0.0,0.0,0.0,0.0,0,0
1761142378.79995,3.038722515106201,0.0,0.0,-0.0,0.0,0.0,-0.0,0.0,0.0,0.0,0.0,0.0,0.0,0.0,0.0,0.0,-0.0,manual,85.0,0.0,0.0,0.0,0.0,0.0,0.0,0,0
1761142378.9042485,3.1430211067199707,0.0,0.0,-0.0,0.0,0.0,-0.0,0.0,0.0,0.0,0.0,0.0,0.0,0.0,0.0,0.0,-0.0,manual,85.0,0.0,0.0,0.0,0.0,0.0,0.0,0,0
1761142379.008236,3.2470085620880127,0.0,0.0,-0.0,0.0,0.0,-0.0,0.0,0.0,0.0,0.0,0.0,0.0,0.0,0.0,0.0,-0.0,manual,85.0,0.0,0.0,0.0,0.0,0.0,0.0,0,0
1761142379.112772,3.3515446186065674,0.0,0.0,-0.0,0.0,0.0,-0.0,0.0,0.0,0.0,0.0,0.0,0.0,0.0,0.0,0.0,-0.0,manual,85.0,0.0,0.0,0.0,0.0,0.0,0.0,0,0
1761142379.217288,3.4560606479644775,0.0,0.0,-0.0,0.0,0.0,-0.0,0.0,0.0,0.0,0.0,0.0,0.0,0.0,0.0,0.0,-0.0,manual,85.0,0.0,0.0,0.0,0.0,0.0,0.0,0,0
1761142379.320058,3.558830738067627,0.0,0.0,-0.0,0.0,0.0,-0.0,0.0,0.0,0.0,0.0,0.0,0.0,0.0,0.0,0.0,-0.0,manual,85.0,0.0,0.0,0.0,0.0,0.0,0.0,0,0
1761142379.4249644,3.6637370586395264,0.0,0.0,-0.0,0.0,0.0,-0.0,0.0,0.0,0.0,0.0,0.0,0.0,0.0,0.0,0.0,-0.0,manual,85.0,0.0,0.0,0.0,0.0,0.0,0.0,0,0
1761142379.528121,3.7668936252593994,0.0,0.0,-0.0,0.0,0.0,-0.0,0.0,0.0,0.0,0.0,0.0,0.0,0.0,0.0,0.0,-0.0,manual,85.0,0.0,0.0,0.0,0.0,0.0,0.0,0,0
1761142379.6303282,3.86910080909729,0.0,0.0,-0.0,0.0,0.0,-0.0,0.0,0.0,0.0,0.0,0.0,0.0,0.0,0.0,0.0,-0.0,manual,85.0,0.0,0.0,0.0,0.0,0.0,0.0,0,0
1761142379.7349513,3.973723888397217,0.0,0.0,-0.0,0.0,0.0,-0.0,0.0,0.0,0.0,0.0,0.0,0.0,0.0,0.0,0.0,-0.0,manual,85.0,0.0,0.0,0.0,0.0,0.0,0.0,0,0
1761142379.8380818,4.076854467391968,0.0,0.0,-0.0,0.0,0.0,-0.0,0.0,0.0,0.0,0.0,0.0,0.0,0.0,0.0,0.0,-0.0,manual,85.0,0.0,0.0,0.0,0.0,0.0,0.0,0,0
1761142379.9400518,4.178824424743652,0.0,0.0,-0.0,0.0,0.0,-0.0,0.0,0.0,0.0,0.0,0.0,0.0,0.0,0.0,0.0,-0.0,manual,85.0,0.0,0.0,0.0,0.0,0.0,0.0,0,0
1761142380.045075,4.2838475704193115,0.0,0.0,-0.0,0.0,0.0,-0.0,0.0,0.0,0.0,0.0,0.0,0.0,0.0,0.0,0.0,-0.0,manual,85.0,0.0,0.0,0.0,0.0,0.0,0.0,0,0
1761142380.1475546,4.386327266693115,0.0,0.0,-0.0,0.0,0.0,-0.0,0.0,0.0,0.0,0.0,0.0,0.0,0.0,0.0,0.0,-0.0,manual,85.0,0.0,0.0,0.0,0.0,0.0,0.0,0,0
1761142380.24961,4.488382577896118,0.0,0.0,-0.0,0.0,0.0,-0.0,0.0,0.0,0.0,0.0,0.0,0.0,0.0,0.0,0.0,-0.0,manual,85.0,0.0,0.0,0.0,0.0,0.0,0.0,0,0
1761142380.352174,4.590946674346924,0.0,0.0,-0.0,0.0,0.0,-0.0,0.0,0.0,0.0,0.0,0.0,0.0,0.0,0.0,0.0,-0.0,manual,85.0,0.0,0.0,0.0,0.0,0.0,0.0,0,0
1761142380.4559715,4.694744110107422,0.0,0.0,-0.0,0.0,0.0,-0.0,0.0,0.0,0.0,0.0,0.0,0.0,0.0,0.0,0.0,-0.0,manual,85.0,0.0,0.0,0.0,0.0,0.0,0.0,0,0
1761142380.5576859,4.79645848274231,0.0,0.0,-0.0,0.0,0.0,-0.0,0.0,0.0,0.0,0.0,0.0,0.0,0.0,0.0,0.0,-0.0,manual,85.0,0.0,0.0,0.0,0.0,0.0,0.0,0,0
1761142380.6612813,4.900053977966309,0.0,0.0,-0.0,0.0,0.0,-0.0,0.0,0.0,0.0,0.0,0.0,0.0,0.0,0.0,0.0,-0.0,manual,85.0,0.0,0.0,0.0,0.0,0.0,0.0,0,0
1761142380.765072,5.003844738006592,0.0,0.0,-0.0,0.0,0.0,-0.0,0.0,0.0,0.0,0.0,0.0,0.0,0.0,0.0,0.0,-0.0,manual,85.0,0.0,0.0,0.0,0.0,0.0,0.0,0,0
1761142380.8679378,5.106710433959961,0.0,0.0,-0.0,0.0,0.0,-0.0,0.0,0.0,0.0,0.0,0.0,0.0,0.0,0.0,0.0,-0.0,manual,85.0,0.0,0.0,0.0,0.0,0.0,0.0,0,0
1761142380.9704058,5.209178447723389,0.0,0.0,-0.0,0.0,0.0,-0.0,0.0,0.0,0.0,0.0,0.0,0.0,0.0,0.0,0.0,-0.0,manual,85.0,0.0,0.0,0.0,0.0,0.0,0.0,0,0
1761142381.0733404,5.312113046646118,0.0,0.0,-0.0,0.0,0.0,-0.0,0.0,0.0,0.0,0.0,0.0,0.0,0.0,0.0,0.0,-0.0,manual,85.0,0.0,0.0,0.0,0.0,0.0,0.0,0,0
1761142381.1764157,5.415188312530518,0.0,0.0,-0.0,0.0,0.0,-0.0,0.0,0.0,0.0,0.0,0.0,0.0,0.0,0.0,0.0,-0.0,manual,85.0,0.0,0.0,0.0,0.0,0.0,0.0,0,0
1761142381.279202,5.517974615097046,0.0,0.0,-0.0,0.0,0.0,-0.0,0.0,0.0,0.0,0.0,0.0,0.0,0.0,0.0,0.0,-0.0,manual,85.0,0.0,0.0,0.0,0.0,0.0,0.0,0,0
1761142381.3814874,5.620260000228882,0.0,0.0,-0.0,0.0,0.0,-0.0,0.0,0.0,0.0,0.0,0.0,0.0,0.0,0.0,0.0,-0.0,manual,85.0,0.0,0.0,0.0,0.0,0.0,0.0,0,0
1761142381.4854193,5.724191904067993,0.0,0.0,-0.0,0.0,0.0,-0.0,0.0,0.0,0.0,0.0,0.0,0.0,0.0,0.0,0.0,-0.0,manual,85.0,0.0,0.0,0.0,0.0,0.0,0.0,0,0
1761142381.5884717,5.827244281768799,0.0,0.0,-0.0,0.0,0.0,-0.0,0.0,0.0,0.0,0.0,0.0,0.0,0.0,0.0,0.0,-0.0,manual,85.0,0.0,0.0,0.0,0.0,0.0,0.0,0,0
1761142381.6948116,5.933584213256836,0.0,0.0,-0.0,0.0,0.0,-0.0,0.0,0.0,0.0,0.0,0.0,0.0,0.0,0.0,0.0,-0.0,manual,85.0,0.0,0.0,0.0,0.0,0.0,0.0,0,0
1761142381.7977078,6.03648042678833,0.0,0.0,-0.0,0.0,0.0,-0.0,0.0,0.0,0.0,0.0,0.0,0.0,0.0,0.0,0.0,-0.0,manual,85.0,0.0,0.0,0.0,0.0,0.0,0.0,0,0
1761142381.8998857,6.138658285140991,0.0,0.0,-0.0,0.0,0.0,-0.0,0.0,0.0,0.0,0.0,0.0,0.0,0.0,0.0,0.0,-0.0,manual,85.0,0.0,0.0,0.0,0.0,0.0,0.0,0,0
1761142382.0045962,6.243368864059448,0.0,0.0,-0.0,0.0,0.0,-0.0,0.0,0.0,0.0,0.0,0.0,0.0,0.0,0.0,0.0,-0.0,manual,85.0,0.0,0.0,0.0,0.0,0.0,0.0,0,0
1761142382.1076496,6.34642219543457,0.0,0.0,-0.0,0.0,0.0,-0.0,0.0,0.0,0.0,0.0,0.0,0.0,0.0,0.0,0.0,-0.0,manual,85.0,0.0,0.0,0.0,0.0,0.0,0.0,0,0
1761142382.210037,6.448809623718262,0.0,0.0,-0.0,0.0,0.0,-0.0,0.0,0.0,0.0,0.0,0.0,0.0,0.0,0.0,0.0,-0.0,manual,85.0,0.0,0.0,0.0,0.0,0.0,0.0,0,0
1761142382.3144822,6.553254842758179,0.0,0.0,-0.0,0.0,0.0,-0.0,0.0,0.0,0.0,0.0,0.0,0.0,0.0,0.0,0.0,-0.0,manual,85.0,0.0,0.0,0.0,0.0,0.0,0.0,0,0
1761142382.4166393,6.655411958694458,0.0,0.0,-0.0,0.0,0.0,-0.0,0.0,0.0,0.0,0.0,0.0,0.0,0.0,0.0,0.0,-0.0,manual,85.0,0.0,0.0,0.0,0.0,0.0,0.0,0,0
1761142382.5186543,6.757426977157593,0.0,0.0,-0.0,0.0,0.0,-0.0,0.0,0.0,0.0,0.0,0.0,0.0,0.0,0.0,0.0,-0.0,manual,85.0,0.0,0.0,0.0,0.0,0.0,0.0,0,0
1761142382.6211374,6.859910011291504,0.0,0.0,-0.0,0.0,0.0,-0.0,0.0,0.0,0.0,0.0,0.0,0.0,0.0,0.0,0.0,-0.0,manual,85.0,0.0,0.0,0.0,0.0,0.0,0.0,0,0
1761142382.7265065,6.9652791023254395,0.0,0.0,-0.0,0.0,0.0,-0.0,0.0,0.0,0.0,0.0,0.0,0.0,0.0,0.0,0.0,-0.0,manual,85.0,0.0,0.0,0.0,0.0,0.0,0.0,0,0
1761142382.8298316,7.068604230880737,0.0,0.0,-0.0,0.0,0.0,-0.0,0.0,0.0,0.0,0.0,0.0,0.0,0.0,0.0,0.0,-0.0,manual,85.0,0.0,0.0,0.0,0.0,0.0,0.0,0,0
1761142382.932652,7.171424627304077,0.0,0.0,-0.0,0.0,0.0,-0.0,0.0,0.0,0.0,0.0,0.0,0.0,0.0,0.0,0.0,-0.0,manual,85.0,0.0,0.0,0.0,0.0,0.0,0.0,0,0
1761142383.0368774,7.2756500244140625,0.0,0.0,-0.0,0.0,0.0,-0.0,0.0,0.0,0.0,0.0,0.0,0.0,0.0,0.0,0.0,-0.0,manual,85.0,0.0,0.0,0.0,0.0,0.0,0.0,0,0
1761142383.1404116,7.379184246063232,0.0,0.0,-0.0,0.0,0.0,-0.0,0.0,0.0,0.0,0.0,0.0,0.0,0.0,0.0,0.0,-0.0,manual,85.0,0.0,0.0,0.0,0.0,0.0,0.0,0,0
1761142383.2426105,7.4813830852508545,0.0,0.0,-0.0,0.0,0.0,-0.0,0.0,0.0,0.0,0.0,0.0,0.0,0.0,0.0,0.0,-0.0,manual,85.0,0.0,0.0,0.0,0.0,0.0,0.0,0,0
1761142383.3462415,7.58501410484314,0.0,0.0,-0.0,0.0,0.0,-0.0,0.0,0.0,0.0,0.0,0.0,0.0,0.0,0.0,0.0,-0.0,manual,85.0,0.0,0.0,0.0,0.0,0.0,0.0,0,0
1761142383.4483228,7.687095403671265,0.0,0.0,-0.0,0.0,0.0,-0.0,0.0,0.0,0.0,0.0,0.0,0.0,0.0,0.0,0.0,-0.0,manual,85.0,0.0,0.0,0.0,0.0,0.0,0.0,0,0
1761142383.5503438,7.789116382598877,0.0,0.0,-0.0,0.0,0.0,-0.0,0.0,0.0,0.0,0.0,0.0,0.0,0.0,0.0,0.0,-0.0,manual,85.0,0.0,0.0,0.0,0.0,0.0,0.0,0,0
1761142383.652353,7.891125679016113,0.0,0.0,-0.0,0.0,0.0,-0.0,0.0,0.0,0.0,0.0,0.0,0.0,0.0,0.0,0.0,-0.0,manual,85.0,0.0,0.0,0.0,0.0,0.0,0.0,0,0
1761142383.756402,7.9951746463775635,0.0,0.0,-0.0,0.0,0.0,-0.0,0.0,0.0,0.0,0.0,0.0,0.0,0.0,0.0,0.0,-0.0,manual,85.0,0.0,0.0,0.0,0.0,0.0,0.0,0,0
1761142383.8627253,8.101497888565063,0.0,0.0,-0.0,0.0,0.0,-0.0,0.0,0.0,0.0,0.0,0.0,0.0,0.0,0.0,0.0,-0.0,manual,85.0,0.0,0.0,0.0,0.0,0.0,0.0,0,0
1761142383.9683084,8.207081079483032,0.0,0.0,-0.0,0.0,0.0,-0.0,0.0,0.0,0.0,0.0,0.0,0.0,0.0,0.0,0.0,-0.0,manual,85.0,0.0,0.0,0.0,0.0,0.0,0.0,0,0
1761142384.0743456,8.31311821937561,0.0,0.0,-0.0,0.0,0.0,-0.0,0.0,0.0,0.0,0.0,0.0,0.0,0.0,0.0,0.0,-0.0,manual,85.0,0.0,0.0,0.0,0.0,0.0,0.0,0,0
1761142384.1773183,8.416090965270996,0.0,0.0,-0.0,0.0,0.0,-0.0,0.0,0.0,0.0,0.0,0.0,0.0,0.0,0.0,0.0,-0.0,manual,85.0,0.0,0.0,0.0,0.0,0.0,0.0,0,0
1761142384.2817912,8.520563840866089,0.0,0.0,-0.0,0.0,0.0,-0.0,0.0,0.0,0.0,0.0,0.0,0.0,0.0,0.0,0.0,-0.0,manual,85.0,0.0,0.0,0.0,0.0,0.0,0.0,0,0
1761142384.3859875,8.624760150909424,0.0,0.0,-0.0,0.0,0.0,-0.0,0.0,0.0,0.0,0.0,0.0,0.0,0.0,0.0,0.0,-0.0,manual,85.0,0.0,0.0,0.0,0.0,0.0,0.0,0,0
1761142384.4880407,8.726813316345215,0.0,0.0,-0.0,0.0,0.0,-0.0,0.0,0.0,0.0,0.0,0.0,0.0,0.0,0.0,0.0,-0.0,manual,85.0,0.0,0.0,0.0,0.0,0.0,0.0,0,0
1761142384.5938752,8.832647800445557,0.0,0.0,-0.0,0.0,0.0,-0.0,0.0,0.0,0.0,0.0,0.0,0.0,0.0,0.0,0.0,-0.0,manual,85.0,0.0,0.0,0.0,0.0,0.0,0.0,0,0
1761142384.696169,8.934941530227661,0.0,0.0,-0.0,0.0,0.0,-0.0,0.0,0.0,0.0,0.0,0.0,0.0,0.0,0.0,0.0,-0.0,manual,85.0,0.0,0.0,0.0,0.0,0.0,0.0,0,0
1761142384.7984517,9.037224292755127,0.0,0.0,-0.0,0.0,0.0,-0.0,0.0,0.0,0.0,0.0,0.0,0.0,0.0,0.0,0.0,-0.0,manual,85.0,0.0,0.0,0.0,0.0,0.0,0.0,0,0
1761142384.90231,9.141082525253296,0.0,0.0,-0.0,0.0,0.0,-0.0,0.0,0.0,0.0,0.0,0.0,0.0,0.0,0.0,0.0,-0.0,manual,85.0,0.0,0.0,0.0,0.0,0.0,0.0,0,0
1761142385.0061119,9.244884490966797,0.0,0.0,-0.0,0.0,0.0,-0.0,0.0,0.0,0.0,0.0,0.0,0.0,0.0,0.0,0.0,-0.0,manual,85.0,0.0,0.0,0.0,0.0,0.0,0.0,0,0
1761142385.114394,9.353166580200195,0.0,0.0,-0.0,0.0,0.0,-0.0,0.0,0.0,0.0,0.0,0.0,0.0,0.0,0.0,0.0,-0.0,manual,85.0,0.0,0.0,0.0,0.0,0.0,0.0,0,0
1761142385.217734,9.456506729125977,0.0,0.0,-0.0,0.0,0.0,-0.0,0.0,0.0,0.0,0.0,0.0,0.0,0.0,0.0,0.0,-0.0,manual,85.0,0.0,0.0,0.0,0.0,0.0,0.0,0,0
1761142385.3205192,9.55929183959961,0.0,0.0,-0.0,0.0,0.0,-0.0,0.0,0.0,0.0,0.0,0.0,0.0,0.0,0.0,0.0,-0.0,manual,85.0,0.0,0.0,0.0,0.0,0.0,0.0,0,0
1761142385.430452,9.669224739074707,0.0,0.0,-0.0,0.0,0.0,-0.0,0.0,0.0,0.0,0.0,0.0,0.0,0.0,0.0,0.0,-0.0,manual,85.0,0.0,0.0,0.0,0.0,0.0,0.0,0,0
1761142385.534499,9.773271560668945,0.0,0.0,-0.0,0.0,0.0,-0.0,0.0,0.0,0.0,0.0,0.0,0.0,0.0,0.0,0.0,-0.0,manual,85.0,0.0,0.0,0.0,0.0,0.0,0.0,0,0
1761142385.6364753,9.875247955322266,0.0,0.0,-0.0,0.0,0.0,-0.0,0.0,0.0,0.0,0.0,0.0,0.0,0.0,0.0,0.0,-0.0,manual,85.0,0.0,0.0,0.0,0.0,0.0,0.0,0,0
1761142385.7377956,9.976568222045898,0.0,0.0,-0.0,0.0,0.0,-0.0,0.0,0.0,0.0,0.0,0.0,0.0,0.0,0.0,0.0,-0.0,manual,85.0,0.0,0.0,0.0,0.0,0.0,0.0,0,0
1761142385.8445532,10.083325862884521,0.0,0.0,-0.0,0.0,0.0,-0.0,0.0,0.0,0.0,0.0,0.0,0.0,0.0,0.0,0.0,-0.0,manual,85.0,0.0,0.0,0.0,0.0,0.0,0.0,0,0
1761142385.9466934,10.185466051101685,0.0,0.0,-0.0,0.0,0.0,-0.0,0.0,0.0,0.0,0.0,0.0,0.0,0.0,0.0,0.0,-0.0,manual,85.0,0.0,0.0,0.0,0.0,0.0,0.0,0,0
1761142386.0514553,10.290227890014648,0.0,0.0,-0.0,0.0,0.0,-0.0,0.0,0.0,0.0,0.0,0.0,0.0,0.0,0.0,0.0,-0.0,manual,85.0,0.0,0.0,0.0,0.0,0.0,0.0,0,0
1761142386.1555219,10.394294500350952,0.0,0.0,-0.0,0.0,0.0,-0.0,0.0,0.0,0.0,0.0,0.0,0.0,0.0,0.0,0.0,-0.0,manual,85.0,0.0,0.0,0.0,0.0,0.0,0.0,0,0
1761142386.2569447,10.495717287063599,0.0,0.0,-0.0,0.0,0.0,-0.0,0.0,0.0,0.0,0.0,0.0,0.0,0.0,0.0,0.0,-0.0,manual,85.0,0.0,0.0,0.0,0.0,0.0,0.0,0,0
1761142386.3590517,10.597824335098267,0.0,0.0,-0.0,0.0,0.0,-0.0,0.0,0.0,0.0,0.0,0.0,0.0,0.0,0.0,0.0,-0.0,manual,85.0,0.0,0.0,0.0,0.0,0.0,0.0,0,0
1761142386.4625309,10.701303482055664,0.0,0.0,-0.0,0.0,0.0,-0.0,0.0,0.0,0.0,0.0,0.0,0.0,0.0,0.0,0.0,-0.0,manual,85.0,0.0,0.0,0.0,0.0,0.0,0.0,0,0
1761142386.5659397,10.804712295532227,0.0,0.0,-0.0,0.0,0.0,-0.0,0.0,0.0,0.0,0.0,0.0,0.0,0.0,0.0,0.0,-0.0,manual,85.0,0.0,0.0,0.0,0.0,0.0,0.0,0,0
1761142386.6701405,10.908913135528564,0.0,0.0,-0.0,0.0,0.0,-0.0,0.0,0.0,0.0,0.0,0.0,0.0,0.0,0.0,0.0,-0.0,manual,85.0,0.0,0.0,0.0,0.0,0.0,0.0,0,0
1761142386.7730806,11.011853218078613,0.0,0.0,-0.0,0.0,0.0,-0.0,0.0,0.0,0.0,0.0,0.0,0.0,0.0,0.0,0.0,-0.0,manual,85.0,0.0,0.0,0.0,0.0,0.0,0.0,0,0
1761142386.876616,11.115388631820679,0.0,0.0,-0.0,0.0,0.0,-0.0,0.0,0.0,0.0,0.0,0.0,0.0,0.0,0.0,0.0,-0.0,manual,85.0,0.0,0.0,0.0,0.0,0.0,0.0,0,0
1761142386.9784992,11.21727180480957,0.0,0.0,-0.0,0.0,0.0,-0.0,0.0,0.0,0.0,0.0,0.0,0.0,0.0,0.0,0.0,-0.0,manual,85.0,0.0,0.0,0.0,0.0,0.0,0.0,0,0
1761142387.0815854,11.320358037948608,0.0,0.0,-0.0,0.0,0.0,-0.0,0.0,0.0,0.0,0.0,0.0,0.0,0.0,0.0,0.0,-0.0,manual,85.0,0.0,0.0,0.0,0.0,0.0,0.0,0,0
1761142387.184913,11.423685550689697,0.0,0.0,0.016342585518825215,0.0,0.0,0.3506400241249682,0.0,0.0,0.0,0.75,0.0,0.0,0.0,0.0,0.0,0.016342585518825215,stabilize,85.0,2.0,0.0,0.0,-2.0,1.9836574144811747,0.0,0,0
1761142387.287572,11.526344537734985,0.0,0.0,0.055489681835920214,0.0,0.0,0.38241990636936807,0.0,0.0,0.0,0.4207839716099844,0.0,0.0,0.0,0.0,0.0,0.055489681835920214,stabilize,85.0,2.0,0.0,0.0,-2.0,1.9445103181640797,0.0,0,0
1761142387.3897038,11.62847638130188,0.0,0.0,0.09727711603067161,0.0,0.0,0.4003286634441403,0.0,0.0,0.0,0.3718769526207997,0.0,0.0,0.0,0.0,0.0,0.09727711603067161,stabilize,85.0,2.0,0.0,0.0,-2.0,1.9027228839693284,0.0,0,0
1761142387.492577,11.73134970664978,0.0,0.0,0.14120531774873193,0.0,0.0,0.4152887510614838,0.0,0.0,0.0,0.35,0.0,0.0,0.0,0.0,0.0,0.14120531774873193,stabilize,85.0,2.0,0.0,0.0,-2.0,1.858794682251268,0.0,0,0
1761142387.5964932,11.835265874862671,0.0,0.0,0.18741621171111728,0.0,0.0,0.43212631461598433,0.0,0.0,0.0,0.3630951970097991,0.0,0.0,0.0,0.0,0.0,0.18741621171111728,stabilize,85.0,2.0,0.0,0.0,-2.0,1.8125837882888827,0.0,0,0
1761142387.7010753,11.939847946166992,0.0,0.0,0.23527636241105057,0.0,0.0,0.44281508732486435,0.0,0.0,0.0,0.35,0.0,0.0,0.0,0.0,0.0,0.23527636241105057,stabilize,85.0,2.0,0.0,0.0,-2.0,1.7647236375889495,0.0,0,0
1761142387.805755,12.044527530670166,0.0,0.0,0.2840434781157494,0.0,0.0,0.4522867016184422,0.0,0.0,0.0,0.35,0.0,0.0,0.0,0.0,0.0,0.2840434781157494,stabilize,85.0,2.0,0.0,0.0,-2.0,1.7159565218842505,0.0,0,0
1761142387.9117103,12.150482892990112,0.0,0.0,0.3352265388636804,0.0,0.0,0.4737420339795552,0.0,0.0,0.0,0.35,0.0,0.0,0.0,0.0,0.0,0.3352265388636804,stabilize,85.0,2.0,0.0,0.0,-2.0,1.6647734611363196,0.0,0,0
1761142388.0156631,12.254435777664185,0.0,0.0,0.3866345698301752,0.0,0.0,0.47689137448773006,0.0,0.0,0.0,0.35,0.0,0.0,0.0,0.0,0.0,0.3866345698301752,stabilize,85.0,2.0,0.0,0.0,-2.0,1.6133654301698248,0.0,0,0
1761142388.1197903,12.35856294631958,0.0,0.0,0.43913470510076696,0.0,0.0,0.49012935422538395,0.0,0.0,0.0,0.35,0.0,0.0,0.0,0.0,0.0,0.43913470510076696,stabilize,85.0,2.0,0.0,0.0,-2.0,1.560865294899233,0.0,0,0
1761142388.2256718,12.464444398880005,0.0,0.0,0.49389446625138594,0.0,0.0,0.503554605082698,0.0,0.0,0.0,0.35,0.0,0.0,0.0,0.0,0.0,0.49389446625138594,stabilize,85.0,2.0,0.0,0.0,-2.0,1.506105533748614,0.0,0,0
1761142388.3350217,12.5737943649292,0.0,0.0,0.5508084925756378,0.0,0.0,0.5024763685545419,0.0,0.0,0.0,0.35,0.0,0.0,0.0,0.0,0.0,0.5508084925756378,stabilize,85.0,2.0,0.0,0.0,-2.0,1.4491915074243622,0.0,0,0
1761142388.4386408,12.67741346359253,0.0,0.0,0.6051687259397884,0.0,0.0,0.5079139134554475,0.0,0.0,0.0,0.35,0.0,0.0,0.0,0.0,0.0,0.6051687259397884,stabilize,85.0,2.0,0.0,0.0,-2.0,1.3948312740602116,0.0,0,0
1761142388.5428145,12.78158712387085,0.0,0.0,0.6602211973272918,0.0,0.0,0.5112447492433857,0.0,0.0,0.0,0.35,0.0,0.0,0.0,0.0,0.0,0.6602211973272918,stabilize,85.0,2.0,0.0,0.0,-2.0,1.3397788026727082,0.0,0,0
1761142388.6471326,12.885905265808105,0.0,0.0,0.7149905550995961,0.0,0.0,0.5019000517813492,0.0,0.0,0.0,0.35,0.0,0.0,0.0,0.0,0.0,0.7149905550995961,stabilize,85.0,2.0,0.0,0.0,-2.0,1.285009444900404,0.0,0,0
1761142388.7499404,12.988713026046753,0.0,0.0,0.7687744544776803,0.0,0.0,0.5082247831113198,0.0,0.0,0.0,0.35,0.0,0.0,0.0,0.0,0.0,0.7687744544776803,stabilize,85.0,2.0,0.0,0.0,-2.0,1.2312255455223196,0.0,0,0
1761142388.8552744,13.09404706954956,0.0,0.0,0.8227268849168343,0.0,0.0,0.49630954465383786,0.0,0.0,0.0,0.35,0.0,0.0,0.0,0.0,0.0,0.8227268849168343,stabilize,85.0,2.0,0.0,0.0,-2.0,1.1772731150831657,0.0,0,0
1761142388.9591122,13.197884798049927,0.0,0.0,0.875352931024736,0.0,0.0,0.48544622112077895,0.0,0.0,0.0,0.35,0.0,0.0,0.0,0.0,0.0,0.875352931024736,stabilize,85.0,2.0,0.0,0.0,-2.0,1.1246470689752641,0.0,0,0
1761142389.0631728,13.301945447921753,0.0,0.0,0.9277551770508734,0.0,0.0,0.4857127723455211,0.0,0.0,0.0,0.35,0.0,0.0,0.0,0.0,0.0,0.9277551770508734,stabilize,85.0,2.0,0.0,0.0,-2.0,1.0722448229491266,0.0,0,0
1761142389.1683822,13.40715479850769,0.0,0.0,0.9785226419791636,0.0,0.0,0.45671389592639505,0.0,0.0,0.0,0.35,0.0,0.0,0.0,0.0,0.0,0.9785226419791636,stabilize,85.0,2.0,0.0,0.0,-2.0,1.0214773580208365,0.0,0,0
1761142389.2719357,13.510708332061768,0.0,0.0,1.0276640882107924,0.0,0.0,0.4491113988426805,0.0,0.0,0.0,0.35,0.0,0.0,0.0,0.0,0.0,1.0276640882107924,stabilize,85.0,2.0,0.0,0.0,-2.0,0.9723359117892076,0.0,0,0
1761142389.3790946,13.617867231369019,0.0,0.0,1.0770105687814173,0.0,0.0,0.44255024813403626,0.0,0.0,0.0,0.35,0.0,0.0,0.0,0.0,0.0,1.0770105687814173,stabilize,85.0,2.0,0.0,0.0,-2.0,0.9229894312185827,0.0,0,0
1761142389.4820793,13.72085189819336,0.0,0.0,1.1212868870095758,0.0,0.0,0.4385944684978429,0.0,0.0,0.0,0.75,0.0,0.0,0.0,0.0,0.0,1.1212868870095758,stabilize,85.0,2.0,0.0,0.0,-2.0,0.8787131129904242,0.0,0,0
1761142389.5858765,13.824649095535278,0.0,0.0,1.164401521623541,0.0,0.0,0.43275676310887967,0.0,0.0,0.0,0.75,0.0,0.0,0.0,0.0,0.0,1.164401521623541,stabilize,85.0,2.0,0.0,0.0,-2.0,0.835598478376459,0.0,0,0
1761142389.6885517,13.927324295043945,0.0,0.0,1.206446614606363,0.0,0.0,0.4247646237953149,0.0,0.0,0.0,0.75,0.0,0.0,0.0,0.0,0.0,1.206446614606363,stabilize,85.0,2.0,0.0,0.0,-2.0,0.793553385393637,0.0,0,0
1761142389.7912924,14.030065059661865,0.0,0.0,1.2474583938234058,0.0,0.0,0.4183006171153641,0.0,0.0,0.0,0.75,0.0,0.0,0.0,0.0,0.0,1.2474583938234058,stabilize,85.0,2.0,0.0,0.0,-2.0,0.7525416061765942,0.0,0,0
1761142389.8946834,14.133455991744995,0.0,0.0,1.2868877594202812,0.0,0.0,0.39848728074166107,0.0,0.0,0.0,0.75,0.0,0.0,0.0,0.0,0.0,1.2868877594202812,stabilize,85.0,2.0,0.0,0.0,-2.0,0.7131122405797188,0.0,0,0
1761142389.9976997,14.236472368240356,0.0,0.0,1.3246923599713296,0.0,0.0,0.37884037299986784,0.0,0.0,0.0,0.75,0.0,0.0,0.0,0.0,0.0,1.3246923599713296,stabilize,85.0,2.0,0.0,0.0,-2.0,0.6753076400286704,0.0,0,0
1761142390.1021385,14.340911149978638,0.0,0.0,1.3616203033420922,0.0,0.0,0.36297070797892406,0.0,0.0,0.0,0.75,0.0,0.0,0.0,0.0,0.0,1.3616203033420922,stabilize,85.0,2.0,0.0,0.0,-2.0,0.6383796966579078,0.0,0,0
1761142390.2067971,14.44556975364685,0.0,0.0,1.3967313019495096,0.0,0.0,0.35281703238948753,0.0,0.0,0.0,0.75,0.0,0.0,0.0,0.0,0.0,1.3967313019495096,stabilize,85.0,2.0,0.0,0.0,-2.0,0.6032686980504904,0.0,0,0
1761142390.3100433,14.548815965652466,0.0,0.0,1.4299702096452505,0.0,0.0,0.34344784746215934,0.0,0.0,0.0,0.75,0.0,0.0,0.0,0.0,0.0,1.4299702096452505,stabilize,85.0,2.0,0.0,0.0,-2.0,0.5700297903547495,0.0,0,0
1761142390.4149208,14.653693437576294,0.0,0.0,1.4622828366118266,0.0,0.0,0.3264980343356417,0.0,0.0,0.0,0.75,0.0,0.0,0.0,0.0,0.0,1.4622828366118266,stabilize,85.0,2.0,0.0,0.0,-2.0,0.5377171633881734,0.0,0,0
1761142390.517637,14.756409645080566,0.0,0.0,1.493421973618756,0.0,0.0,0.2966481463247455,0.0,0.0,0.0,0.6103754550302551,0.0,0.0,0.0,0.0,0.0,1.493421973618756,stabilize,85.0,2.0,0.0,0.0,-2.0,0.506578026381244,0.0,0,0
1761142390.6266596,14.865432262420654,0.0,0.0,1.5231614096625061,0.0,0.0,0.2751307863856174,0.0,0.0,0.0,0.75,0.0,0.0,0.0,0.0,0.0,1.5231614096625061,stabilize,85.0,2.0,0.0,0.0,-2.0,0.4768385903374939,0.0,0,0
1761142390.7309432,14.96971583366394,0.0,0.0,1.550419149187779,0.0,0.0,0.27283172424343294,0.0,0.0,0.0,0.6895312969779809,0.0,0.0,0.0,0.0,0.0,1.550419149187779,stabilize,85.0,2.0,0.0,0.0,-2.0,0.449580850812221,0.0,0,0
1761142390.8347223,15.073494911193848,0.0,0.0,1.5771304831629192,0.0,0.0,0.27901183276834574,0.0,0.0,0.0,0.75,0.0,0.0,0.0,0.0,0.0,1.5771304831629192,stabilize,85.0,2.0,0.0,0.0,-2.0,0.42286951683708085,0.0,0,0
1761142390.9429252,15.181697845458984,0.0,0.0,1.6040089862104183,0.0,0.0,0.26736594029051064,0.0,0.0,0.0,0.75,0.0,0.0,0.0,0.0,0.0,1.6040089862104183,stabilize,85.0,2.0,0.0,0.0,-2.0,0.3959910137895817,0.0,0,0
1761142391.0462,15.284972667694092,0.0,0.0,1.6293607921357034,0.0,0.0,0.26357631921230473,0.0,0.0,0.0,0.75,0.0,0.0,0.0,0.0,0.0,1.6293607921357034,stabilize,85.0,2.0,0.0,0.0,-2.0,0.3706392078642966,0.0,0,0
1761142391.1486964,15.387469053268433,0.0,0.0,1.6537552274878413,0.0,0.0,0.2443993546446146,0.0,0.0,0.0,0.75,0.0,0.0,0.0,0.0,0.0,1.6537552274878413,stabilize,85.0,2.0,0.0,0.0,-2.0,0.3462447725121587,0.0,0,0
1761142391.2516673,15.490439891815186,0.0,0.0,1.6771192381054196,0.0,0.0,0.24317201450811016,0.0,0.0,0.0,0.75,0.0,0.0,0.0,0.0,0.0,1.6771192381054196,stabilize,85.0,2.0,0.0,0.0,-2.0,0.32288076189458037,0.0,0,0
1761142391.3587668,15.59753942489624,0.0,0.0,1.7006588705809083,0.0,0.0,0.24193440306485806,0.0,0.0,0.0,0.75,0.0,0.0,0.0,0.0,0.0,1.7006588705809083,stabilize,85.0,2.0,0.0,0.0,-2.0,0.29934112941909174,0.0,0,0
1761142391.462059,15.700831651687622,0.0,0.0,1.7221985148862278,0.0,0.0,0.2106127438720854,0.0,0.0,0.0,0.75,0.0,0.0,0.0,0.0,0.0,1.7221985148862278,stabilize,85.0,2.0,0.0,0.0,-2.0,0.27780148511377223,0.0,0,0
1761142391.5662124,15.804985046386719,0.0,0.0,1.74251657056322,0.0,0.0,0.20900716633953154,0.0,0.0,0.0,0.6991050373149669,0.0,0.0,0.0,0.0,0.0,1.74251657056322,stabilize,85.0,2.0,0.0,0.0,-2.0,0.25748342943678004,0.0,0,0
1761142391.669445,15.908217668533325,0.0,0.0,1.7617415654542838,0.0,0.0,0.19696799877684903,0.0,0.0,0.0,0.75,0.0,0.0,0.0,0.0,0.0,1.7617415654542838,stabilize,85.0,2.0,0.0,0.0,-2.0,0.23825843454571616,0.0,0,0
1761142391.7718656,16.01063823699951,0.0,0.0,1.7802407615088478,0.0,0.0,0.1958385102626076,0.0,0.0,0.0,0.75,0.0,0.0,0.0,0.0,0.0,1.7802407615088478,stabilize,85.0,2.0,0.0,0.0,-2.0,0.2197592384911522,0.0,0,0
1761142391.8775826,16.116355180740356,0.0,0.0,1.7987299137428518,0.0,0.0,0.18008985071823957,0.0,0.0,0.0,0.75,0.0,0.0,0.0,0.0,0.0,1.7987299137428518,stabilize,85.0,2.0,0.0,0.0,-2.0,0.20127008625714815,0.0,0,0
1761142391.9808638,16.2196364402771,0.0,0.0,1.8153778139378929,0.0,0.0,0.17264884502569516,0.0,0.0,0.0,0.75,0.0,0.0,0.0,0.0,0.0,1.8153778139378929,stabilize,85.0,2.0,0.0,0.0,-2.0,0.18462218606210712,0.0,0,0
1761142392.086756,16.325528621673584,0.0,0.0,1.8319819983221055,0.0,0.0,0.14876089286592603,0.0,0.0,0.0,0.5872606974301834,0.0,0.0,0.0,0.0,0.0,1.8319819983221055,stabilize,85.0,2.0,0.0,0.0,-2.0,0.1680180016778945,0.0,0,0
1761142392.1902452,16.429017782211304,0.0,0.0,1.8463588292727684,0.0,0.0,0.16244457142485821,0.0,0.0,0.0,0.75,0.0,0.0,0.0,0.0,0.0,1.8463588292727684,stabilize,85.0,2.0,0.0,0.0,-2.0,0.1536411707272316,0.0,0,0
1761142392.294815,16.53358769416809,0.0,0.0,1.8612516657072269,0.0,0.0,0.1547293454339065,0.0,0.0,0.0,0.7129895746139717,0.0,0.0,0.0,0.0,0.0,1.8612516657072269,stabilize,85.0,2.0,0.0,0.0,-2.0,0.1387483342927731,0.0,0,0
1761142392.4005017,16.63927435874939,0.0,0.0,1.875494067348176,0.0,0.0,0.14423750798179402,0.0,0.0,0.0,0.75,0.0,0.0,0.0,0.0,0.0,1.875494067348176,stabilize,85.0,2.0,0.0,0.0,-2.0,0.12450593265182408,0.0,0,0
1761142392.506993,16.745765686035156,0.0,0.0,1.8884953885580638,0.0,0.0,0.13582800719768867,0.0,0.0,0.0,0.75,0.0,0.0,0.0,0.0,0.0,1.8884953885580638,stabilize,85.0,2.0,0.0,0.0,-2.0,0.11150461144193624,0.0,0,0
1761142392.6119883,16.85076093673706,0.0,0.0,1.9014190535934752,0.0,0.0,0.14442955116082382,0.0,0.0,0.0,0.75,0.0,0.0,0.0,0.0,0.0,1.9014190535934752,stabilize,85.0,2.0,0.0,0.0,-2.0,0.09858094640652482,0.0,0,0
1761142392.7167776,16.95555019378662,0.0,0.0,1.9143053644928936,0.0,0.0,0.1357400029122395,0.0,0.0,0.0,0.7005569995623324,0.0,0.0,0.0,0.0,0.0,1.9143053644928936,stabilize,85.0,2.0,0.0,0.0,-2.0,0.08569463550710643,0.0,0,0
1761142392.8176258,17.056398391723633,0.0,0.0,1.9258879770148056,0.0,0.0,0.09115741592733599,0.0,0.0,0.0,0.4037845935315794,0.0,0.0,0.0,0.0,0.0,1.9258879770148056,stabilize,85.0,2.0,0.0,0.0,-2.0,0.07411202298519437,0.0,0,0
1761142392.9217935,17.160566091537476,0.0,0.0,1.9377574812917608,0.0,0.0,0.10031532193044543,0.0,0.0,0.0,0.35,0.0,0.0,0.0,0.0,0.0,1.9377574812917608,stabilize,85.0,2.0,0.0,0.0,-2.0,0.06224251870823916,0.0,0,0
1761142393.02586,17.26463270187378,0.0,0.0,1.9498560728094738,0.0,0.0,0.09787997658012568,0.0,0.0,0.0,0.35,0.0,0.0,0.0,0.0,0.0,1.9498560728094738,stabilize,85.0,2.0,0.0,0.0,-2.0,0.05014392719052618,0.0,0,0
1761142393.130465,17.369237661361694,0.0,0.0,1.961100146863608,0.0,0.0,0.08500636043519685,0.0,0.0,0.0,0.35,0.0,0.0,0.0,0.0,0.0,1.961100146863608,stabilize,85.0,2.0,0.0,0.0,-2.0,0.03889985313639199,0.0,0,0
1761142393.234383,17.473155736923218,0.0,0.0,1.9715037252188135,0.0,0.0,0.08307366327497877,0.0,0.0,0.0,0.35,0.0,0.0,0.0,0.0,0.0,1.9715037252188135,stabilize,85.0,2.0,0.0,0.0,-2.0,0.028496274781186548,0.0,0,0
1761142393.3363662,17.575138807296753,0.0,0.0,1.9816108398803929,0.0,0.0,0.08283347791382634,0.0,0.0,0.0,0.35,0.0,0.0,0.0,0.0,0.0,1.9816108398803929,stabilize,85.0,2.0,0.0,0.0,-2.0,0.018389160119607117,0.0,0,0
1761142393.4386148,17.677387475967407,0.0,0.0,1.991509642036378,0.0,0.0,0.080100198559236,0.0,0.0,0.0,0.35,0.0,0.0,0.0,0.0,0.0,1.991509642036378,stabilize,85.0,2.0,0.0,0.0,-2.0,0.008490357963621964,0.0,0,0
1761142393.548346,17.787118673324585,0.0,0.0,1.9999186504190312,0.0,0.0,0.06099021047241807,0.0,0.0,0.0,0.35,0.0,0.0,0.0,0.0,0.0,1.9999186504190312,stabilize,85.0,2.0,0.0,0.0,-2.0,8.134958096883693e-05,0.0,0,0
1761142393.651732,17.890504598617554,0.0,0.0,2.0071633610414263,0.0,0.0,0.056143883753483656,0.0,0.0,0.0,0.35,0.0,0.0,0.0,0.0,0.0,2.0071633610414263,stabilize,85.0,2.0,0.0,0.0,-2.0,0.0071633610414263416,0.0,0,0
1761142393.7560554,17.99482798576355,0.0,0.0,2.0138233641770817,0.0,0.0,0.041571421000007255,0.0,0.0,0.0,0.35,0.0,0.0,0.0,0.0,0.0,2.0138233641770817,stabilize,85.0,2.0,0.0,0.0,-2.0,0.013823364177081743,0.0,0,0
1761142393.8604257,18.09919834136963,0.0,0.0,2.0173474818750563,0.0,0.0,0.06086640178080199,0.0,0.0,0.0,0.75,0.0,0.0,0.0,0.0,0.0,2.0173474818750563,stabilize,85.0,2.0,0.0,0.0,-2.0,0.017347481875056303,0.0,0,0
1761142393.964279,18.203051567077637,0.0,0.0,2.0216544835979673,0.0,0.0,0.06365114042301179,0.0,0.0,0.0,0.75,0.0,0.0,0.0,0.0,0.0,2.0216544835979673,stabilize,85.0,2.0,0.0,0.0,-2.0,0.02165448359796729,0.0,0,0
1761142394.0677736,18.306546211242676,0.0,0.0,2.025322204468051,0.0,0.0,0.05928749096924364,0.0,0.0,0.0,0.75,0.0,0.0,0.0,0.0,0.0,2.025322204468051,stabilize,85.0,2.0,0.0,0.0,-2.0,0.025322204468051,0.0,0,0
1761142394.1710274,18.409800052642822,0.0,0.0,2.029616388185075,0.0,0.0,0.06198878620132229,0.0,0.0,0.0,0.75,0.0,0.0,0.0,0.0,0.0,2.029616388185075,stabilize,85.0,2.0,0.0,0.0,-2.0,0.02961638818507506,0.0,0,0
1761142394.2777696,18.516542196273804,0.0,0.0,2.034413679076888,0.0,0.0,0.06720474663889558,0.0,0.0,0.0,0.75,0.0,0.0,0.0,0.0,0.0,2.034413679076888,stabilize,85.0,2.0,0.0,0.0,-2.0,0.03441367907688786,0.0,0,0
1761142394.3831615,18.621934175491333,0.0,0.0,2.0393383116757833,0.0,0.0,0.0637893580083521,0.0,0.0,0.0,0.75,0.0,0.0,0.0,0.0,0.0,2.0393383116757833,stabilize,85.0,2.0,0.0,0.0,-2.0,0.03933831167578328,0.0,0,0
1761142394.4875102,18.726282835006714,0.0,0.0,2.0441436202887355,0.0,0.0,0.0708488420457285,0.0,0.0,0.0,0.75,0.0,0.0,0.0,0.0,0.0,2.0441436202887355,stabilize,85.0,2.0,0.0,0.0,-2.0,0.04414362028873553,0.0,0,0
1761142394.595153,18.83392572402954,0.0,0.0,2.049672728852147,0.0,0.0,0.017050776609875928,0.0,0.0,0.0,0.47380844721101134,0.0,0.0,0.0,0.0,0.0,2.049672728852147,stabilize,85.0,2.0,0.0,0.0,-2.0,0.0496727288521468,0.0,0,0
1761142394.6996229,18.938395500183105,0.0,0.0,2.053732429735642,0.0,0.0,0.0046206718290936755,0.0,0.0,0.0,0.376272652163039,0.0,0.0,0.0,0.0,0.0,2.053732429735642,stabilize,85.0,2.0,0.0,0.0,-2.0,0.05373242973564185,0.0,0,0
1761142394.8050992,19.043871879577637,0.0,0.0,2.0568354719934145,0.0,0.0,0.01895144260803667,0.0,0.0,0.0,0.35,0.0,0.0,0.0,0.0,0.0,2.0568354719934145,stabilize,85.0,2.0,0.0,0.0,-2.0,0.056835471993414544,0.0,0,0
1761142394.9093924,19.148164987564087,0.0,0.0,2.0601018343679085,0.0,0.0,0.00776905237269776,0.0,0.0,0.0,0.35,0.0,0.0,0.0,0.0,0.0,2.0601018343679085,stabilize,85.0,2.0,0.0,0.0,-2.0,0.0601018343679085,0.0,0,0
1761142395.0144706,19.25324320793152,0.0,0.0,2.063246204755536,0.0,0.0,0.018411137325376775,0.0,0.0,0.0,0.35,0.0,0.0,0.0,0.0,0.0,2.063246204755536,stabilize,85.0,2.0,0.0,0.0,-2.0,0.063246204755536,0.0,0,0
1761142395.1175091,19.356281757354736,0.0,0.0,2.0666673451580366,0.0,0.0,0.009454406854651182,0.0,0.0,0.0,0.35,0.0,0.0,0.0,0.0,0.0,2.0666673451580366,stabilize,85.0,2.0,0.0,0.0,-2.0,0.06666734515803663,0.0,0,0
1761142395.221871,19.460643529891968,0.0,0.0,2.06959085696471,0.0,0.0,0.006949631986778622,0.0,0.0,0.0,0.35,0.0,0.0,0.0,0.0,0.0,2.06959085696471,stabilize,85.0,2.0,0.0,0.0,-2.0,0.06959085696471012,0.0,0,0
1761142395.3254924,19.56426501274109,0.0,0.0,2.0721202923377695,0.0,0.0,0.00563420576494781,0.0,0.0,0.0,0.35,0.0,0.0,0.0,0.0,0.0,2.0721202923377695,stabilize,85.0,2.0,0.0,0.0,-2.0,0.07212029233776951,0.0,0,0
1761142395.4305139,19.669286489486694,0.0,0.0,2.0750390442812505,0.0,0.0,0.011542549799205867,0.0,0.0,0.0,0.35,0.0,0.0,0.0,0.0,0.0,2.0750390442812505,stabilize,85.0,2.0,0.0,0.0,-2.0,0.07503904428125052,0.0,0,0
1761142395.5347173,19.773489952087402,0.0,0.0,2.0780944462771154,0.0,0.0,0.012171474007602011,0.0,0.0,0.0,0.35,0.0,0.0,0.0,0.0,0.0,2.0780944462771154,stabilize,85.0,2.0,0.0,0.0,-2.0,0.07809444627711537,0.0,0,0
1761142395.6373332,19.876105785369873,0.0,0.0,2.0818002602195587,0.0,0.0,0.020521619401251162,0.0,0.0,0.0,0.35,0.0,0.0,0.0,0.0,0.0,2.0818002602195587,stabilize,85.0,2.0,0.0,0.0,-2.0,0.08180026021955866,0.0,0,0
1761142395.7399619,19.978734493255615,0.0,0.0,2.085589405910747,0.0,0.0,0.020204908376631657,0.0,0.0,0.0,0.35,0.0,0.0,0.0,0.0,0.0,2.085589405910747,stabilize,85.0,2.0,0.0,0.0,-2.0,0.08558940591074693,0.0,0,0
1761142395.8446214,20.083394050598145,0.0,0.0,2.088901960912827,0.0,0.0,0.005892482908623785,0.0,0.0,0.0,0.35,0.0,0.0,0.0,0.0,0.0,2.088901960912827,stabilize,85.0,2.0,0.0,0.0,-2.0,0.08890196091282698,0.0,0,0
1761142395.947232,20.186004638671875,0.0,0.0,2.091883957709865,0.0,0.0,0.01623762232005775,0.0,0.0,0.0,0.35,0.0,0.0,0.0,0.0,0.0,2.091883957709865,stabilize,85.0,2.0,0.0,0.0,-2.0,0.0918839577098649,0.0,0,0
1761142396.0508137,20.289586305618286,0.0,0.0,2.0957675300024516,0.0,0.0,0.022534528013253716,0.0,0.0,0.0,0.35,0.0,0.0,0.0,0.0,0.0,2.0957675300024516,stabilize,85.0,2.0,0.0,0.0,-2.0,0.09576753000245164,0.0,0,0
1761142396.1516788,20.390451431274414,0.0,0.0,2.098106229520119,0.0,0.0,0.03893197361650284,0.0,0.0,0.0,0.75,0.0,0.0,0.0,0.0,0.0,2.098106229520119,stabilize,85.0,2.0,0.0,0.0,-2.0,0.09810622952011894,0.0,0,0
1761142396.257673,20.496445655822754,0.0,0.0,2.1003701905608954,0.0,0.0,0.04489729199858797,0.0,0.0,0.0,0.75,0.0,0.0,0.0,0.0,0.0,2.1003701905608954,stabilize,85.0,2.0,0.0,0.0,-2.0,0.10037019056089536,0.0,0,0
1761142396.3623354,20.601108074188232,0.0,0.0,2.1033123039985364,0.0,0.0,0.04511072552244861,0.0,0.0,0.0,0.75,0.0,0.0,0.0,0.0,0.0,2.1033123039985364,stabilize,85.0,2.0,0.0,0.0,-2.0,0.10331230399853641,0.0,0,0
1761142396.4668102,20.705582857131958,0.0,0.0,2.1062017195867537,0.0,0.0,0.04743414797419411,0.0,0.0,0.0,0.75,0.0,0.0,0.0,0.0,0.0,2.1062017195867537,stabilize,85.0,2.0,0.0,0.0,-2.0,0.10620171958675373,0.0,0,0
1761142396.5712357,20.81000828742981,0.0,0.0,2.10929106208757,0.0,0.0,0.05042713348429985,0.0,0.0,0.0,0.75,0.0,0.0,0.0,0.0,0.0,2.10929106208757,stabilize,85.0,2.0,0.0,0.0,-2.0,0.10929106208757,0.0,0,0
1761142396.6752489,20.914021492004395,0.0,0.0,2.112439324079734,0.0,0.0,0.03498406463145761,0.0,0.0,0.0,0.75,0.0,0.0,0.0,0.0,0.0,2.112439324079734,stabilize,85.0,2.0,0.0,0.0,-2.0,0.1124393240797339,0.0,0,0
1761142396.7788732,21.017645835876465,0.0,0.0,2.114596627010537,0.0,0.0,0.04423287935630438,0.0,0.0,0.0,0.75,0.0,0.0,0.0,0.0,0.0,2.114596627010537,stabilize,85.0,2.0,0.0,0.0,-2.0,0.11459662701053697,0.0,0,0
1761142396.8861995,21.124972105026245,0.0,0.0,2.117261310397293,0.0,0.0,0.0384349563998147,0.0,0.0,0.0,0.6922151537773665,0.0,0.0,0.0,0.0,0.0,2.117261310397293,stabilize,85.0,2.0,0.0,0.0,-2.0,0.11726131039729282,0.0,0,0
1761142396.9890747,21.22784733772278,0.0,0.0,2.119818957396579,0.0,0.0,0.03904642637851234,0.0,0.0,0.0,0.7007185268410939,0.0,0.0,0.0,0.0,0.0,2.119818957396579,stabilize,85.0,2.0,0.0,0.0,-2.0,0.11981895739657888,0.0,0,0
1761142397.0918415,21.33061408996582,0.0,0.0,2.122519336861168,0.0,0.0,0.04333694244233997,0.0,0.0,0.0,0.715560983816083,0.0,0.0,0.0,0.0,0.0,2.122519336861168,stabilize,85.0,2.0,0.0,0.0,-2.0,0.1225193368611679,0.0,0,0
1761142397.1959646,21.43473720550537,0.0,0.0,2.125608463258087,0.0,0.0,0.05214787004617356,0.0,0.0,0.0,0.75,0.0,0.0,0.0,0.0,0.0,2.125608463258087,stabilize,85.0,2.0,0.0,0.0,-2.0,0.12560846325808717,0.0,0,0
1761142397.3011477,21.539920330047607,0.0,0.0,2.128155859997901,0.0,0.0,0.03947785275504158,0.0,0.0,0.0,0.75,0.0,0.0,0.0,0.0,0.0,2.128155859997901,stabilize,85.0,2.0,0.0,0.0,-2.0,0.1281558599979009,0.0,0,0
1761142397.4055772,21.644349813461304,0.0,0.0,2.129642548400117,0.0,0.0,0.021944363631803285,0.0,0.0,0.0,0.75,0.0,0.0,0.0,0.0,0.0,2.129642548400117,stabilize,85.0,2.0,0.0,0.0,-2.0,0.1296425484001169,0.0,0,0
1761142397.5101297,21.748902320861816,0.0,0.0,2.130337065141551,0.0,0.0,0.0277466835103633,0.0,0.0,0.0,0.75,0.0,0.0,0.0,0.0,0.0,2.130337065141551,stabilize,85.0,2.0,0.0,0.0,-2.0,0.1303370651415512,0.0,0,0
1761142397.6117773,21.850549936294556,0.0,0.0,2.130488609906714,0.0,0.0,-0.0018399487527098884,0.0,0.0,0.0,0.75,0.0,0.0,0.0,0.0,0.0,2.130488609906714,stabilize,85.0,2.0,0.0,0.0,-2.0,0.13048860990671418,0.0,0,0
1761142397.71647,21.95524263381958,0.0,0.0,2.1291242380662014,0.0,0.0,0.012141686615725192,0.0,0.0,0.0,0.75,0.0,0.0,0.0,0.0,0.0,2.1291242380662014,stabilize,85.0,2.0,0.0,0.0,-2.0,0.12912423806620144,0.0,0,0
1761142397.8214154,22.060188055038452,0.0,0.0,2.1288961604864935,0.0,0.0,0.022244913447731864,0.0,0.0,0.0,0.75,0.0,0.0,0.0,0.0,0.0,2.1288961604864935,stabilize,85.0,2.0,0.0,0.0,-2.0,0.12889616048649355,0.0,0,0
1761142397.9276414,22.16641402244568,0.0,0.0,2.1294234601055613,0.0,0.0,0.026614688833029948,0.0,0.0,0.0,0.75,0.0,0.0,0.0,0.0,0.0,2.1294234601055613,stabilize,85.0,2.0,0.0,0.0,-2.0,0.12942346010556127,0.0,0,0
1761142398.031426,22.270198583602905,0.0,0.0,2.13071528914875,0.0,0.0,0.035338907837551295,0.0,0.0,0.0,0.75,0.0,0.0,0.0,0.0,0.0,2.13071528914875,stabilize,85.0,2.0,0.0,0.0,-2.0,0.1307152891487502,0.0,0,0
1761142398.1375566,22.37632918357849,0.0,0.0,2.132023477900821,0.0,0.0,0.02516060581140482,0.0,0.0,0.0,0.75,0.0,0.0,0.0,0.0,0.0,2.132023477900821,stabilize,85.0,2.0,0.0,0.0,-2.0,0.13202347790082092,0.0,0,0
1761142398.2421722,22.480944871902466,0.0,0.0,2.1329827371285957,0.0,0.0,0.02477632492196669,0.0,0.0,0.0,0.6965223402459577,0.0,0.0,0.0,0.0,0.0,2.1329827371285957,stabilize,85.0,2.0,0.0,0.0,-2.0,0.13298273712859565,0.0,0,0
1761142398.3478918,22.58666443824768,0.0,0.0,2.1340743872824177,0.0,0.0,0.008860430798909536,0.0,0.0,0.0,0.6167863189876335,0.0,0.0,0.0,0.0,0.0,2.1340743872824177,stabilize,85.0,2.0,0.0,0.0,-2.0,0.13407438728241772,0.0,0,0
1761142398.4510264,22.689799070358276,0.0,0.0,2.1336940061176013,0.0,0.0,0.02194594735832186,0.0,0.0,0.0,0.75,0.0,0.0,0.0,0.0,0.0,2.1336940061176013,stabilize,85.0,2.0,0.0,0.0,-2.0,0.1336940061176013,0.0,0,0
1761142398.557451,22.796223640441895,0.0,0.0,2.133088334744776,0.0,0.0,0.0026892441967244496,0.0,0.0,0.0,0.75,0.0,0.0,0.0,0.0,0.0,2.133088334744776,stabilize,85.0,2.0,0.0,0.0,-2.0,0.13308833474477622,0.0,0,0
1761142398.66199,22.9007625579834,0.0,0.0,2.1315956989390377,0.0,0.0,0.007831700414349746,0.0,0.0,0.0,0.75,0.0,0.0,0.0,0.0,0.0,2.1315956989390377,stabilize,85.0,2.0,0.0,0.0,-2.0,0.13159569893903766,0.0,0,0
1761142398.767728,23.006500720977783,0.0,0.0,2.1310987657123217,0.0,0.0,0.018977657615124904,0.0,0.0,0.0,0.7376607664937174,0.0,0.0,0.0,0.0,0.0,2.1310987657123217,stabilize,85.0,2.0,0.0,0.0,-2.0,0.1310987657123217,0.0,0,0
1761142398.8773124,23.116085052490234,0.0,0.0,2.1303876363659557,0.0,0.0,0.007704378012926026,0.0,0.0,0.0,0.75,0.0,0.0,0.0,0.0,0.0,2.1303876363659557,stabilize,85.0,2.0,0.0,0.0,-2.0,0.13038763636595574,0.0,0,0
1761142398.9808087,23.219581365585327,0.0,0.0,2.129829658799206,0.0,0.0,0.008447461143154818,0.0,0.0,0.0,0.6835261451569009,0.0,0.0,0.0,0.0,0.0,2.129829658799206,stabilize,85.0,2.0,0.0,0.0,-2.0,0.12982965879920583,0.0,0,0
1761142399.0859253,23.324697971343994,0.0,0.0,2.1289622618185433,0.0,0.0,0.0031246697705727133,0.0,0.0,0.0,0.75,0.0,0.0,0.0,0.0,0.0,2.1289622618185433,stabilize,85.0,2.0,0.0,0.0,-2.0,0.1289622618185433,0.0,0,0
1761142399.188293,23.42706561088562,0.0,0.0,2.128078788981397,0.0,0.0,0.014231201095382291,0.0,0.0,0.0,0.7371472613369983,0.0,0.0,0.0,0.0,0.0,2.128078788981397,stabilize,85.0,2.0,0.0,0.0,-2.0,0.12807878898139702,0.0,0,0
1761142399.2925084,23.531280994415283,0.0,0.0,2.1280165085627694,0.0,0.0,0.007211549945677319,0.0,0.0,0.0,0.6609707591150729,0.0,0.0,0.0,0.0,0.0,2.1280165085627694,stabilize,85.0,2.0,0.0,0.0,-2.0,0.12801650856276936,0.0,0,0
1761142399.396277,23.63504958152771,0.0,0.0,2.127441149176233,0.0,0.0,0.017816575480696373,0.0,0.0,0.0,0.75,0.0,0.0,0.0,0.0,0.0,2.127441149176233,stabilize,85.0,2.0,0.0,0.0,-2.0,0.12744114917623284,0.0,0,0
1761142399.4985542,23.737326860427856,0.0,0.0,2.1278825882727905,0.0,0.0,0.027131722265074626,0.0,0.0,0.0,0.75,0.0,0.0,0.0,0.0,0.0,2.1278825882727905,stabilize,85.0,2.0,0.0,0.0,-2.0,0.12788258827279053,0.0,0,0
1761142399.6011724,23.839945077896118,0.0,0.0,2.1290538434171955,0.0,0.0,0.03281598129107732,0.0,0.0,0.0,0.75,0.0,0.0,0.0,0.0,0.0,2.1290538434171955,stabilize,85.0,2.0,0.0,0.0,-2.0,0.1290538434171955,0.0,0,0
1761142399.7055907,23.944363355636597,0.0,0.0,2.1297442508608797,0.0,0.0,0.025004371182267542,0.0,0.0,0.0,0.75,0.0,0.0,0.0,0.0,0.0,2.1297442508608797,stabilize,85.0,2.0,0.0,0.0,-2.0,0.1297442508608797,0.0,0,0
1761142399.8081012,24.046873807907104,0.0,0.0,2.1303417560559685,0.0,0.0,0.02294976927559092,0.0,0.0,0.0,0.75,0.0,0.0,0.0,0.0,0.0,2.1303417560559685,stabilize,85.0,2.0,0.0,0.0,-2.0,0.13034175605596854,0.0,0,0
1761142399.9108984,24.14967107772827,0.0,0.0,2.1309367628675293,0.0,0.0,0.024572041975197946,0.0,0.0,0.0,0.75,0.0,0.0,0.0,0.0,0.0,2.1309367628675293,stabilize,85.0,2.0,0.0,0.0,-2.0,0.1309367628675293,0.0,0,0
1761142400.015332,24.254104614257812,0.0,0.0,2.1317991179759357,0.0,0.0,0.03058388508480471,0.0,0.0,0.0,0.7414422113937528,0.0,0.0,0.0,0.0,0.0,2.1317991179759357,stabilize,85.0,2.0,0.0,0.0,-2.0,0.1317991179759357,0.0,0,0
1761142400.1202,24.358972549438477,0.0,0.0,2.1329620887521914,0.0,0.0,0.02525735558666097,0.0,0.0,0.0,0.75,0.0,0.0,0.0,0.0,0.0,2.1329620887521914,stabilize,85.0,2.0,0.0,0.0,-2.0,0.1329620887521914,0.0,0,0
1761142400.2250357,24.463808298110962,0.0,0.0,2.134148617924424,0.0,0.0,0.03233106927158124,0.0,0.0,0.0,0.7379287728675981,0.0,0.0,0.0,0.0,0.0,2.134148617924424,stabilize,85.0,2.0,0.0,0.0,-2.0,0.13414861792442379,0.0,0,0
1761142400.32748,24.56625270843506,0.0,0.0,2.1352696348201237,0.0,0.0,0.03107349680368872,0.0,0.0,0.0,0.75,0.0,0.0,0.0,0.0,0.0,2.1352696348201237,stabilize,85.0,2.0,0.0,0.0,-2.0,0.13526963482012366,0.0,0,0
1761142400.434734,24.67350673675537,0.0,0.0,2.136266089326443,0.0,0.0,0.033332241106835546,0.0,0.0,0.0,0.7485245611226352,0.0,0.0,0.0,0.0,0.0,2.136266089326443,stabilize,85.0,2.0,0.0,0.0,-2.0,0.13626608932644313,0.0,0,0
1761142400.5371177,24.775890350341797,0.0,0.0,2.137479673434777,0.0,0.0,0.03430034560165168,0.0,0.0,0.0,0.7480125893031507,0.0,0.0,0.0,0.0,0.0,2.137479673434777,stabilize,85.0,2.0,0.0,0.0,-2.0,0.13747967343477718,0.0,0,0
1761142400.6396778,24.878450393676758,0.0,0.0,2.1393159062461318,0.0,0.0,0.03712486747471227,0.0,0.0,0.0,0.7366980165577334,0.0,0.0,0.0,0.0,0.0,2.1393159062461318,stabilize,85.0,2.0,0.0,0.0,-2.0,0.13931590624613177,0.0,0,0
1761142400.7448337,24.983606338500977,0.0,0.0,2.1414546890740915,0.0,0.0,0.04129006273866205,0.0,0.0,0.0,0.75,0.0,0.0,0.0,0.0,0.0,2.1414546890740915,stabilize,85.0,2.0,0.0,0.0,-2.0,0.14145468907409153,0.0,0,0
1761142400.8506927,25.089465379714966,0.0,0.0,2.1432617589354837,0.0,0.0,-0.011666140762743537,0.0,0.0,0.0,0.35,0.0,0.0,0.0,0.0,0.0,2.1432617589354837,stabilize,85.0,2.0,0.0,0.0,-2.0,0.14326175893548365,0.0,0,0
1761142400.9552019,25.193974494934082,0.0,0.0,2.1445753963482876,0.0,0.0,-0.0012861558938426498,0.0,0.0,0.0,0.35,0.0,0.0,0.0,0.0,0.0,2.1445753963482876,stabilize,85.0,2.0,0.0,0.0,-2.0,0.14457539634828764,0.0,0,0
1761142401.0589032,25.297675848007202,0.0,0.0,2.1455889957949985,0.0,0.0,-0.0057372113264834365,0.0,0.0,0.0,0.35,0.0,0.0,0.0,0.0,0.0,2.1455889957949985,stabilize,85.0,2.0,0.0,0.0,-2.0,0.1455889957949985,0.0,0,0
1761142401.163663,25.402435541152954,0.0,0.0,2.146717240351417,0.0,0.0,-0.01851487511757493,0.0,0.0,0.0,0.35,0.0,0.0,0.0,0.0,0.0,2.146717240351417,stabilize,85.0,2.0,0.0,0.0,-2.0,0.1467172403514172,0.0,0,0
1761142401.2684746,25.50724720954895,0.0,0.0,2.147127479217734,0.0,0.0,-0.012890059830361178,0.0,0.0,0.0,0.35,0.0,0.0,0.0,0.0,0.0,2.147127479217734,stabilize,85.0,2.0,0.0,0.0,-2.0,0.14712747921773417,0.0,0,0
1761142401.371587,25.61035966873169,0.0,0.0,2.1479519255636728,0.0,0.0,-0.005644569958128481,0.0,0.0,0.0,0.35,0.0,0.0,0.0,0.0,0.0,2.1479519255636728,stabilize,85.0,2.0,0.0,0.0,-2.0,0.14795192556367276,0.0,0,0
1761142401.4764154,25.715188026428223,0.0,0.0,2.1493845474659037,0.0,0.0,-0.011741756149643404,0.0,0.0,0.0,0.35,0.0,0.0,0.0,0.0,0.0,2.1493845474659037,stabilize,85.0,2.0,0.0,0.0,-2.0,0.14938454746590368,0.0,0,0
1761142401.5795436,25.818316221237183,0.0,0.0,2.150394205542664,0.0,0.0,-0.003555336400515488,0.0,0.0,0.0,0.35,0.0,0.0,0.0,0.0,0.0,2.150394205542664,stabilize,85.0,2.0,0.0,0.0,-2.0,0.15039420554266414,0.0,0,0
1761142401.6871145,25.92588710784912,0.0,0.0,2.1509734434559733,0.0,0.0,-0.009060692100080078,0.0,0.0,0.0,0.35,0.0,0.0,0.0,0.0,0.0,2.1509734434559733,stabilize,85.0,2.0,0.0,0.0,-2.0,0.1509734434559733,0.0,0,0
1761142401.7901096,26.028882265090942,0.0,0.0,2.1521042899465903,0.0,0.0,-0.0029286209792002277,0.0,0.0,0.0,0.35,0.0,0.0,0.0,0.0,0.0,2.1521042899465903,stabilize,85.0,2.0,0.0,0.0,-2.0,0.1521042899465903,0.0,0,0
1761142401.8965507,26.13532328605652,0.0,0.0,2.151919837984223,0.0,0.0,0.001978868567910755,0.0,0.0,0.0,0.75,0.0,0.0,0.0,0.0,0.0,2.151919837984223,stabilize,85.0,2.0,0.0,0.0,-2.0,0.15191983798422282,0.0,0,0
1761142402.0006588,26.239431381225586,0.0,0.0,2.150723466386921,0.0,0.0,0.012637870776233871,0.0,0.0,0.0,0.75,0.0,0.0,0.0,0.0,0.0,2.150723466386921,stabilize,85.0,2.0,0.0,0.0,-2.0,0.1507234663869208,0.0,0,0
1761142402.1048093,26.343581914901733,0.0,0.0,2.1495604592456297,0.0,0.0,-5.4709960484330966e-05,0.0,0.0,0.0,0.75,0.0,0.0,0.0,0.0,0.0,2.1495604592456297,stabilize,85.0,2.0,0.0,0.0,-2.0,0.14956045924562966,0.0,0,0
1761142402.2071354,26.445908069610596,0.0,0.0,2.1480294646623164,0.0,0.0,0.009226930045954193,0.0,0.0,0.0,0.75,0.0,0.0,0.0,0.0,0.0,2.1480294646623164,stabilize,85.0,2.0,0.0,0.0,-2.0,0.14802946466231637,0.0,0,0
1761142402.3101506,26.54892325401306,0.0,0.0,2.1473295649666264,0.0,0.0,0.01238186863046379,0.0,0.0,0.0,0.75,0.0,0.0,0.0,0.0,0.0,2.1473295649666264,stabilize,85.0,2.0,0.0,0.0,-2.0,0.14732956496662641,0.0,0,0
1761142402.4156382,26.65441083908081,0.0,0.0,2.1465238741663386,0.0,0.0,0.011249241283398818,0.0,0.0,0.0,0.75,0.0,0.0,0.0,0.0,0.0,2.1465238741663386,stabilize,85.0,2.0,0.0,0.0,-2.0,0.1465238741663386,0.0,0,0
1761142402.5183306,26.757103204727173,0.0,0.0,2.1459105943617773,0.0,0.0,0.01369752998178755,0.0,0.0,0.0,0.75,0.0,0.0,0.0,0.0,0.0,2.1459105943617773,stabilize,85.0,2.0,0.0,0.0,-2.0,0.14591059436177733,0.0,0,0
1761142402.6210377,26.85981035232544,0.0,0.0,2.1455996508132804,0.0,0.0,0.019108361811324335,0.0,0.0,0.0,0.75,0.0,0.0,0.0,0.0,0.0,2.1455996508132804,stabilize,85.0,2.0,0.0,0.0,-2.0,0.1455996508132804,0.0,0,0
1761142402.7263,26.965072631835938,0.0,0.0,2.1450861530803387,0.0,0.0,0.011445004728004474,0.0,0.0,0.0,0.75,0.0,0.0,0.0,0.0,0.0,2.1450861530803387,stabilize,85.0,2.0,0.0,0.0,-2.0,0.14508615308033868,0.0,0,0
1761142402.830417,27.06918954849243,0.0,0.0,2.1448591631151066,0.0,0.0,0.019923838945390317,0.0,0.0,0.0,0.75,0.0,0.0,0.0,0.0,0.0,2.1448591631151066,stabilize,85.0,2.0,0.0,0.0,-2.0,0.1448591631151066,0.0,0,0
1761142402.9360807,27.174853324890137,0.0,0.0,2.1449820860555873,0.0,0.0,0.014674583277552559,0.0,0.0,0.0,0.75,0.0,0.0,0.0,0.0,0.0,2.1449820860555873,stabilize,85.0,2.0,0.0,0.0,-2.0,0.14498208605558727,0.0,0,0
1761142403.0401237,27.27889633178711,0.0,0.0,2.145003467185008,0.0,0.0,0.014957071563941386,0.0,0.0,0.0,0.7073211698262554,0.0,0.0,0.0,0.0,0.0,2.145003467185008,stabilize,85.0,2.0,0.0,0.0,-2.0,0.145003467185008,0.0,0,0
1761142403.1470969,27.38586950302124,0.0,0.0,2.1444411723102696,0.0,0.0,0.0164174201724014,0.0,0.0,0.0,0.75,0.0,0.0,0.0,0.0,0.0,2.1444411723102696,stabilize,85.0,2.0,0.0,0.0,-2.0,0.14444117231026965,0.0,0,0
1761142403.2514806,27.49025321006775,0.0,0.0,2.1432668974448936,0.0,0.0,0.009734715235755816,0.0,0.0,0.0,0.75,0.0,0.0,0.0,0.0,0.0,2.1432668974448936,stabilize,85.0,2.0,0.0,0.0,-2.0,0.14326689744489363,0.0,0,0
1761142403.3584394,27.597212076187134,0.0,0.0,2.142593367760205,0.0,0.0,0.01574034596124252,0.0,0.0,0.0,0.75,0.0,0.0,0.0,0.0,0.0,2.142593367760205,stabilize,85.0,2.0,0.0,0.0,-2.0,0.14259336776020515,0.0,0,0
1761142403.4650233,27.703795909881592,0.0,0.0,2.142208045215256,0.0,0.0,0.012048130656303786,0.0,0.0,0.0,0.75,0.0,0.0,0.0,0.0,0.0,2.142208045215256,stabilize,85.0,2.0,0.0,0.0,-2.0,0.1422080452152561,0.0,0,0
1761142403.5703313,27.809103965759277,0.0,0.0,2.141784637262268,0.0,0.0,0.01407017140292064,0.0,0.0,0.0,0.7169029477276196,0.0,0.0,0.0,0.0,0.0,2.141784637262268,stabilize,85.0,2.0,0.0,0.0,-2.0,0.1417846372622682,0.0,0,0
1761142403.6746693,27.9134418964386,0.0,0.0,2.1416580242240415,0.0,0.0,-0.003993284481986548,0.0,0.0,0.0,0.6089090932604936,0.0,0.0,0.0,0.0,0.0,2.1416580242240415,stabilize,85.0,2.0,0.0,0.0,-2.0,0.1416580242240415,0.0,0,0
1761142403.7797134,28.01848602294922,0.0,0.0,2.1396661311049945,0.0,0.0,0.005759787243605818,0.0,0.0,0.0,0.75,0.0,0.0,0.0,0.0,0.0,2.1396661311049945,stabilize,85.0,2.0,0.0,0.0,-2.0,0.13966613110499448,0.0,0,0
1761142403.8862076,28.124980211257935,0.0,0.0,2.1380666104154193,0.0,0.0,-0.011259071249461346,0.0,0.0,0.0,0.6311670621425716,0.0,0.0,0.0,0.0,0.0,2.1380666104154193,stabilize,85.0,2.0,0.0,0.0,-2.0,0.13806661041541934,0.0,0,0
1761142403.9927337,28.23150634765625,0.0,0.0,2.135118381487423,0.0,0.0,-0.0039375937133888095,0.0,0.0,0.0,0.75,0.0,0.0,0.0,0.0,0.0,2.135118381487423,stabilize,85.0,2.0,0.0,0.0,-2.0,0.13511838148742283,0.0,0,0
1761142404.098497,28.33726954460144,0.0,0.0,2.1333878239537127,0.0,0.0,-0.006128204259961165,0.0,0.0,0.0,0.6746789195022985,0.0,0.0,0.0,0.0,0.0,2.1333878239537127,stabilize,85.0,2.0,0.0,0.0,-2.0,0.13338782395371274,0.0,0,0
1761142404.2024598,28.441232442855835,0.0,0.0,2.1314898256031594,0.0,0.0,0.007834515923796442,0.0,0.0,0.0,0.75,0.0,0.0,0.0,0.0,0.0,2.1314898256031594,stabilize,85.0,2.0,0.0,0.0,-2.0,0.13148982560315936,0.0,0,0
1761142404.308469,28.547241687774658,0.0,0.0,2.130304435482211,0.0,0.0,0.00617557958816807,0.0,0.0,0.0,0.75,0.0,0.0,0.0,0.0,0.0,2.130304435482211,stabilize,85.0,2.0,0.0,0.0,-2.0,0.13030443548221093,0.0,0,0
1761142404.4117827,28.65055537223816,0.0,0.0,2.128489770504481,0.0,0.0,-0.007135607321186517,0.0,0.0,0.0,0.75,0.0,0.0,0.0,0.0,0.0,2.128489770504481,stabilize,85.0,2.0,0.0,0.0,-2.0,0.12848977050448118,0.0,0,0
1761142404.5162292,28.75500178337097,0.0,0.0,2.126296820588772,0.0,0.0,0.002220418587449098,0.0,0.0,0.0,0.75,0.0,0.0,0.0,0.0,0.0,2.126296820588772,stabilize,85.0,2.0,0.0,0.0,-2.0,0.126296820588772,0.0,0,0
1761142404.6266298,28.865402460098267,0.0,0.0,2.124161986592632,0.0,0.0,-0.007832571376119181,0.0,0.0,0.0,0.622899429026942,0.0,0.0,0.0,0.0,0.0,2.124161986592632,stabilize,85.0,2.0,0.0,0.0,-2.0,0.124161986592632,0.0,0,0
1761142404.731292,28.970064640045166,0.0,0.0,2.1220179365479517,0.0,0.0,0.0032522085067392265,0.0,0.0,0.0,0.75,0.0,0.0,0.0,0.0,0.0,2.1220179365479517,stabilize,85.0,2.0,0.0,0.0,-2.0,0.12201793654795168,0.0,0,0
1761142404.837132,29.075904607772827,0.0,0.0,2.1204680090099903,0.0,0.0,0.00506629086207732,0.0,0.0,0.0,0.75,0.0,0.0,0.0,0.0,0.0,2.1204680090099903,stabilize,85.0,2.0,0.0,0.0,-2.0,0.12046800900999033,0.0,0,0
1761142404.943734,29.182506561279297,0.0,0.0,2.1182099726086188,0.0,0.0,-0.04282703561364917,0.0,0.0,0.0,0.35,0.0,0.0,0.0,0.0,0.0,2.1182099726086188,stabilize,85.0,2.0,0.0,0.0,-2.0,0.11820997260861876,0.0,0,0
1761142405.046777,29.285549640655518,0.0,0.0,2.1162923487963257,0.0,0.0,-0.03337365987983976,0.0,0.0,0.0,0.35,0.0,0.0,0.0,0.0,0.0,2.1162923487963257,stabilize,85.0,2.0,0.0,0.0,-2.0,0.11629234879632566,0.0,0,0
1761142405.149503,29.388275623321533,0.0,0.0,2.115252862690546,0.0,0.0,-0.02346254238398078,0.0,0.0,0.0,0.35,0.0,0.0,0.0,0.0,0.0,2.115252862690546,auto,85.0,2.1092045188337587,0.0,0.0,0.0,2.115252862690546,0.0,0,0
1761142405.2525496,29.49132227897644,0.0,0.0,2.115585620720683,0.0,0.0,-0.00999202893852142,0.0,0.0,0.0,0.35,0.0,0.0,0.0,0.0,0.0,2.115585620720683,auto,85.0,2.109100610281636,0.0,0.0,0.0,2.115585620720683,0.0,0,0
1761142405.357204,29.59597659111023,0.0,0.0,2.1171043306543207,0.0,0.0,0.0008072374467748,0.0,0.0,0.0,0.35,0.0,0.0,0.0,0.0,0.0,2.1171043306543207,auto,85.0,2.1105359435902216,0.0,0.0,0.0,2.1171043306543207,0.0,0,0
1761142405.4631772,29.70194983482361,0.0,0.0,2.1196171873263085,0.0,0.0,0.009714202002621894,0.0,0.0,0.0,0.35,0.0,0.0,0.0,0.0,0.0,2.1196171873263085,auto,85.0,2.113104707285106,0.0,0.0,0.0,2.1196171873263085,0.0,0,0
1761142405.5658972,29.804669857025146,0.0,0.0,2.1234081734089187,0.0,0.0,0.022657578479270947,0.0,0.0,0.0,0.35,0.0,0.0,0.0,0.0,0.0,2.1234081734089187,auto,85.0,2.11652058703225,0.0,0.0,0.0,2.1234081734089187,0.0,0,0
1761142405.6701384,29.908910989761353,0.0,0.0,2.1283208164151106,0.0,0.0,0.03415389397949589,0.0,0.0,0.0,0.35,0.0,0.0,0.0,0.0,0.0,2.1283208164151106,auto,85.0,2.121716959948579,0.0,0.0,0.0,2.1283208164151106,0.0,0,0
1761142405.7755606,30.014333248138428,0.0,0.0,2.1334356669271504,0.0,0.0,0.02812741968040082,0.0,0.0,0.0,0.35,0.0,0.0,0.0,0.0,0.0,2.1334356669271504,auto,85.0,2.126892847785169,0.0,0.0,0.0,2.1334356669271504,0.0,0,0
1761142405.878598,30.11737060546875,0.0,0.0,2.138811305319976,0.0,0.0,0.03958859199005355,0.0,0.0,0.0,0.35,0.0,0.0,0.0,0.0,0.0,2.138811305319976,auto,85.0,2.132116654127671,0.0,0.0,0.0,2.138811305319976,0.0,0,0
1761142405.981376,30.22014856338501,0.0,0.0,2.1448293261987277,0.0,0.0,0.04521825539838414,0.0,0.0,0.0,0.35,0.0,0.0,0.0,0.0,0.0,2.1448293261987277,auto,85.0,2.1380018185425156,0.0,0.0,0.0,2.1448293261987277,0.0,0,0
1761142406.0874844,30.32625699043274,0.0,0.0,2.1516088526033785,0.0,0.0,0.04712010394323778,0.0,0.0,0.0,0.35,0.0,0.0,0.0,0.0,0.0,2.1516088526033785,auto,85.0,2.1448881609015586,0.0,0.0,0.0,2.1516088526033785,0.0,0,0
1761142406.1920528,30.43082547187805,0.0,0.0,2.158301430936942,0.0,0.0,0.04844586006306326,0.0,0.0,0.0,0.35,0.0,0.0,0.0,0.0,0.0,2.158301430936942,auto,85.0,2.151127188079569,0.0,0.0,0.0,2.158301430936942,0.0,0,0
1761142406.295774,30.534546613693237,0.0,0.0,2.16507389564343,0.0,0.0,0.046071042879201635,0.0,0.0,0.0,0.35,0.0,0.0,0.0,0.0,0.0,2.16507389564343,auto,85.0,2.1582795813130136,0.0,0.0,0.0,2.16507389564343,0.0,0,0
1761142406.39945,30.638222694396973,0.0,0.0,2.17219740729847,0.0,0.0,0.04791152345860514,0.0,0.0,0.0,0.35,0.0,0.0,0.0,0.0,0.0,2.17219740729847,auto,85.0,2.165313627752028,0.0,0.0,0.0,2.17219740729847,0.0,0,0
1761142406.5037255,30.74249815940857,0.0,0.0,2.179585065315598,0.0,0.0,0.051642296862152146,0.0,0.0,0.0,0.35,0.0,0.0,0.0,0.0,0.0,2.179585065315598,auto,85.0,2.17236643303322,0.0,0.0,0.0,2.179585065315598,0.0,0,0
1761142406.6091187,30.847891330718994,0.0,0.0,2.187066387185362,0.0,0.0,0.04708341187100481,0.0,0.0,0.0,0.35,0.0,0.0,0.0,0.0,0.0,2.187066387185362,auto,85.0,2.179573674582341,0.0,0.0,0.0,2.187066387185362,0.0,0,0
1761142406.710533,30.949305534362793,0.0,0.0,2.1942278497999474,0.0,0.0,0.056735301546967855,0.0,0.0,0.0,0.35,0.0,0.0,0.0,0.0,0.0,2.1942278497999474,auto,85.0,2.1873138613263006,0.0,0.0,0.0,2.1942278497999474,0.0,0,0
1761142406.8143582,31.053130865097046,0.0,0.0,2.202207665017485,0.0,0.0,0.053213006430409215,0.0,0.0,0.0,0.35,0.0,0.0,0.0,0.0,0.0,2.202207665017485,auto,85.0,2.195325491862031,0.0,0.0,0.0,2.202207665017485,0.0,0,0
1761142406.9184575,31.157230138778687,0.0,0.0,2.210018881630698,0.0,0.0,0.059549975188697306,0.0,0.0,0.0,0.35,0.0,0.0,0.0,0.0,0.0,2.210018881630698,auto,85.0,2.203039390869449,0.0,0.0,0.0,2.210018881630698,0.0,0,0
1761142407.0210931,31.259865760803223,0.0,0.0,2.217794838949903,0.0,0.0,0.056315111987759174,0.0,0.0,0.0,0.35,0.0,0.0,0.0,0.0,0.0,2.217794838949903,auto,85.0,2.2108970427086034,0.0,0.0,0.0,2.217794838949903,0.0,0,0
1761142407.1266935,31.365466117858887,0.0,0.0,2.226084001743204,0.0,0.0,0.06106777306744859,0.0,0.0,0.0,0.35,0.0,0.0,0.0,0.0,0.0,2.226084001743204,auto,85.0,2.218800910728078,0.0,0.0,0.0,2.226084001743204,0.0,0,0
1761142407.2298076,31.46858024597168,0.0,0.0,2.2346109109820977,0.0,0.0,0.06439073993200481,0.0,0.0,0.0,0.35,0.0,0.0,0.0,0.0,0.0,2.2346109109820977,auto,85.0,2.227664411681274,0.0,0.0,0.0,2.2346109109820977,0.0,0,0
1761142407.3370752,31.575847864151,0.0,0.0,2.2428383872139377,0.0,0.0,0.05406123227990876,0.0,0.0,0.0,0.35,0.0,0.0,0.0,0.0,0.0,2.2428383872139377,auto,85.0,2.2359448848265027,0.0,0.0,0.0,2.2428383872139377,0.0,0,0
1761142407.4427023,31.681474924087524,0.0,0.0,2.251090394493324,0.0,0.0,0.06464074810616072,0.0,0.0,0.0,0.35,0.0,0.0,0.0,0.0,0.0,2.251090394493324,auto,85.0,2.2437831008758926,0.0,0.0,0.0,2.251090394493324,0.0,0,0
1761142407.546479,31.78525161743164,0.0,0.0,2.2599013369722045,0.0,0.0,0.056760331278707735,0.0,0.0,0.0,0.35,0.0,0.0,0.0,0.0,0.0,2.2599013369722045,auto,85.0,2.2530676911431526,0.0,0.0,0.0,2.2599013369722045,0.0,0,0
1761142407.6515546,31.890327215194702,0.0,0.0,2.268022942821414,0.0,0.0,0.05580393684152273,0.0,0.0,0.0,0.35,0.0,0.0,0.0,0.0,0.0,2.268022942821414,auto,85.0,2.2611798567658616,0.0,0.0,0.0,2.268022942821414,0.0,0,0
1761142407.7548892,31.993661880493164,0.0,0.0,2.275660642983666,0.0,0.0,0.04955400360231264,0.0,0.0,0.0,0.35,0.0,0.0,0.0,0.0,0.0,2.275660642983666,auto,85.0,2.268852273648047,0.0,0.0,0.0,2.275660642983666,0.0,0,0
1761142407.8603542,32.0991268157959,0.0,0.0,2.283373695081398,0.0,0.0,0.06152332405879916,0.0,0.0,0.0,0.35,0.0,0.0,0.0,0.0,0.0,2.283373695081398,auto,85.0,2.2764658652450733,0.0,0.0,0.0,2.283373695081398,0.0,0,0
1761142407.9664752,32.20524787902832,0.0,0.0,2.2904104007356865,0.0,0.0,0.031401120289794957,0.0,0.0,0.0,0.387667267319441,0.0,0.0,0.0,0.0,0.0,2.2904104007356865,auto,85.0,2.283349873476665,0.0,0.0,0.0,2.2904104007356865,0.0,0,0
1761142408.0716107,32.310383319854736,0.0,0.0,2.296131677334717,0.0,0.0,0.03861630634498243,0.0,0.0,0.0,0.35,0.0,0.0,0.0,0.0,0.0,2.296131677334717,auto,85.0,2.289071161099092,0.0,0.0,0.0,2.296131677334717,0.0,0,0
1761142408.1812775,32.42005014419556,0.0,0.0,2.3025519635789875,0.0,0.0,0.04514968306910318,0.0,0.0,0.0,0.35,0.0,0.0,0.0,0.0,0.0,2.3025519635789875,auto,85.0,2.295750019017971,0.0,0.0,0.0,2.3025519635789875,0.0,0,0
1761142408.2856863,32.52445888519287,0.0,0.0,2.3075794417084774,0.0,0.0,0.03481607905723506,0.0,0.0,0.0,0.35,0.0,0.0,0.0,0.0,0.0,2.3075794417084774,auto,85.0,2.300926983066349,0.0,0.0,0.0,2.3075794417084774,0.0,0,0
1761142408.3872533,32.626025915145874,0.0,0.0,2.3128047119150943,0.0,0.0,0.0767450965178457,0.0,0.0,0.0,0.75,0.0,0.0,0.0,0.0,0.0,2.3128047119150943,auto,85.0,2.3059757025889365,0.0,0.0,0.0,2.3128047119150943,0.0,0,0
1761142408.4920943,32.7308669090271,0.0,0.0,2.319333679593245,0.0,0.0,0.06647348118680266,0.0,0.0,0.0,0.6414767653810989,0.0,0.0,0.0,0.0,0.0,2.319333679593245,auto,85.0,2.312188552866207,0.0,0.0,0.0,2.319333679593245,0.0,0,0
1761142408.598322,32.83709454536438,0.0,0.0,2.324318645959362,0.0,0.0,0.06740988364953798,0.0,0.0,0.0,0.75,0.0,0.0,0.0,0.0,0.0,2.324318645959362,auto,85.0,2.317385807368265,0.0,0.0,0.0,2.324318645959362,0.0,0,0
1761142408.7020826,32.940855264663696,0.0,0.0,2.3295275334356367,0.0,0.0,0.07310706229921878,0.0,0.0,0.0,0.75,0.0,0.0,0.0,0.0,0.0,2.3295275334356367,auto,85.0,2.322815866519233,0.0,0.0,0.0,2.3295275334356367,0.0,0,0
