timestamp,simulation_time,position_x,position_y,position_z,velocity_x,velocity_y,velocity_z,attitude_roll,attitude_pitch,attitude_yaw,control_throttle,control_roll,control_pitch,control_yaw,estimated_position_x,estimated_position_y,estimated_position_z,flight_mode,battery_level,setpoint_altitude,setpoint_position_x,setpoint_position_y,setpoint_position_z,position_error,attitude_error,waypoint_index,mission_complete
1761122135.3557076,0.10202217102050781,0.0,0.0,-0.0,0.0,0.0,-0.0,0.0,0.0,0.0,0.0,0.0,0.0,0.0,0.0,0.0,-0.0,manual,85.0,0.0,0.0,0.0,0.0,0.0,0.0,0,0
1761122135.4593747,0.2056891918182373,0.0,0.0,-0.0,0.0,0.0,-0.0,0.0,0.0,0.0,0.0,0.0,0.0,0.0,0.0,0.0,-0.0,manual,85.0,0.0,0.0,0.0,0.0,0.0,0.0,0,0
1761122135.5618136,0.30812811851501465,0.0,0.0,-0.0,0.0,0.0,-0.0,0.0,0.0,0.0,0.0,0.0,0.0,0.0,0.0,0.0,-0.0,manual,85.0,0.0,0.0,0.0,0.0,0.0,0.0,0,0
1761122135.6648383,0.41115283966064453,0.0,0.0,-0.0,0.0,0.0,-0.0,0.0,0.0,0.0,0.0,0.0,0.0,0.0,0.0,0.0,-0.0,manual,85.0,0.0,0.0,0.0,0.0,0.0,0.0,0,0
1761122135.8214788,0.5677933692932129,0.0,0.0,-0.0,0.0,0.0,-0.0,0.0,0.0,0.0,0.0,0.0,0.0,0.0,0.0,0.0,-0.0,manual,85.0,0.0,0.0,0.0,0.0,0.0,0.0,0,0
1761122135.9276683,0.6739828586578369,0.0,0.0,-0.0,0.0,0.0,-0.0,0.0,0.0,0.0,0.0,0.0,0.0,0.0,0.0,0.0,-0.0,manual,85.0,0.0,0.0,0.0,0.0,0.0,0.0,0,0
1761122136.0308506,0.7771651744842529,0.0,0.0,-0.0,0.0,0.0,-0.0,0.0,0.0,0.0,0.0,0.0,0.0,0.0,0.0,0.0,-0.0,manual,85.0,0.0,0.0,0.0,0.0,0.0,0.0,0,0
1761122136.1331623,0.87947678565979,0.0,0.0,-0.0,0.0,0.0,-0.0,0.0,0.0,0.0,0.0,0.0,0.0,0.0,0.0,0.0,-0.0,manual,85.0,0.0,0.0,0.0,0.0,0.0,0.0,0,0
1761122136.2391758,0.9854903221130371,0.0,0.0,-0.0,0.0,0.0,-0.0,0.0,0.0,0.0,0.0,0.0,0.0,0.0,0.0,0.0,-0.0,manual,85.0,0.0,0.0,0.0,0.0,0.0,0.0,0,0
1761122136.3404546,1.0867691040039062,0.0,0.0,-0.0,0.0,0.0,-0.0,0.0,0.0,0.0,0.0,0.0,0.0,0.0,0.0,0.0,-0.0,manual,85.0,0.0,0.0,0.0,0.0,0.0,0.0,0,0
1761122136.4429376,1.1892521381378174,0.0,0.0,-0.0,0.0,0.0,-0.0,0.0,0.0,0.0,0.0,0.0,0.0,0.0,0.0,0.0,-0.0,manual,85.0,0.0,0.0,0.0,0.0,0.0,0.0,0,0
1761122136.5451803,1.2914948463439941,0.0,0.0,-0.0,0.0,0.0,-0.0,0.0,0.0,0.0,0.0,0.0,0.0,0.0,0.0,0.0,-0.0,manual,85.0,0.0,0.0,0.0,0.0,0.0,0.0,0,0
1761122136.6487753,1.395089864730835,0.0,0.0,-0.0,0.0,0.0,-0.0,0.0,0.0,0.0,0.0,0.0,0.0,0.0,0.0,0.0,-0.0,manual,85.0,0.0,0.0,0.0,0.0,0.0,0.0,0,0
1761122136.7504318,1.496746301651001,0.0,0.0,-0.0,0.0,0.0,-0.0,0.0,0.0,0.0,0.0,0.0,0.0,0.0,0.0,0.0,-0.0,manual,85.0,0.0,0.0,0.0,0.0,0.0,0.0,0,0
1761122136.852624,1.5989384651184082,0.0,0.0,-0.0,0.0,0.0,-0.0,0.0,0.0,0.0,0.0,0.0,0.0,0.0,0.0,0.0,-0.0,manual,85.0,0.0,0.0,0.0,0.0,0.0,0.0,0,0
1761122136.9557061,1.7020206451416016,0.0,0.0,-0.0,0.0,0.0,-0.0,0.0,0.0,0.0,0.0,0.0,0.0,0.0,0.0,0.0,-0.0,manual,85.0,0.0,0.0,0.0,0.0,0.0,0.0,0,0
1761122137.0606608,1.8069753646850586,0.0,0.0,-0.0,0.0,0.0,-0.0,0.0,0.0,0.0,0.0,0.0,0.0,0.0,0.0,0.0,-0.0,manual,85.0,0.0,0.0,0.0,0.0,0.0,0.0,0,0
1761122137.1637177,1.9100322723388672,0.0,0.0,-0.0,0.0,0.0,-0.0,0.0,0.0,0.0,0.0,0.0,0.0,0.0,0.0,0.0,-0.0,manual,85.0,0.0,0.0,0.0,0.0,0.0,0.0,0,0
1761122137.2682567,2.014571189880371,0.0,0.0,-0.0,0.0,0.0,-0.0,0.0,0.0,0.0,0.0,0.0,0.0,0.0,0.0,0.0,-0.0,manual,85.0,0.0,0.0,0.0,0.0,0.0,0.0,0,0
1761122137.3711362,2.117450714111328,0.0,0.0,-0.0,0.0,0.0,-0.0,0.0,0.0,0.0,0.0,0.0,0.0,0.0,0.0,0.0,-0.0,manual,85.0,0.0,0.0,0.0,0.0,0.0,0.0,0,0
1761122137.4740224,2.2203369140625,0.0,0.0,-0.0,0.0,0.0,-0.0,0.0,0.0,0.0,0.0,0.0,0.0,0.0,0.0,0.0,-0.0,manual,85.0,0.0,0.0,0.0,0.0,0.0,0.0,0,0
1761122137.5781105,2.324424982070923,0.0,0.0,-0.0,0.0,0.0,-0.0,0.0,0.0,0.0,0.0,0.0,0.0,0.0,0.0,0.0,-0.0,manual,85.0,0.0,0.0,0.0,0.0,0.0,0.0,0,0
1761122137.68201,2.4283244609832764,0.0,0.0,-0.0,0.0,0.0,-0.0,0.0,0.0,0.0,0.0,0.0,0.0,0.0,0.0,0.0,-0.0,manual,85.0,0.0,0.0,0.0,0.0,0.0,0.0,0,0
1761122137.7851593,2.5314738750457764,0.0,0.0,-0.0,0.0,0.0,-0.0,0.0,0.0,0.0,0.0,0.0,0.0,0.0,0.0,0.0,-0.0,manual,85.0,0.0,0.0,0.0,0.0,0.0,0.0,0,0
1761122137.8911037,2.637418270111084,0.0,0.0,-0.0,0.0,0.0,-0.0,0.0,0.0,0.0,0.0,0.0,0.0,0.0,0.0,0.0,-0.0,manual,85.0,0.0,0.0,0.0,0.0,0.0,0.0,0,0
1761122137.9937797,2.7400941848754883,0.0,0.0,-0.0,0.0,0.0,-0.0,0.0,0.0,0.0,0.0,0.0,0.0,0.0,0.0,0.0,-0.0,manual,85.0,0.0,0.0,0.0,0.0,0.0,0.0,0,0
1761122138.0986352,2.844949722290039,0.0,0.0,-0.0,0.0,0.0,-0.0,0.0,0.0,0.0,0.0,0.0,0.0,0.0,0.0,0.0,-0.0,manual,85.0,0.0,0.0,0.0,0.0,0.0,0.0,0,0
1761122138.2035213,2.949835777282715,0.0,0.0,-0.0,0.0,0.0,-0.0,0.0,0.0,0.0,0.0,0.0,0.0,0.0,0.0,0.0,-0.0,manual,85.0,0.0,0.0,0.0,0.0,0.0,0.0,0,0
1761122138.306518,3.05283260345459,0.0,0.0,-0.0,0.0,0.0,-0.0,0.0,0.0,0.0,0.0,0.0,0.0,0.0,0.0,0.0,-0.0,manual,85.0,0.0,0.0,0.0,0.0,0.0,0.0,0,0
1761122138.409226,3.1555404663085938,0.0,0.0,-0.0,0.0,0.0,-0.0,0.0,0.0,0.0,0.0,0.0,0.0,0.0,0.0,0.0,-0.0,manual,85.0,0.0,0.0,0.0,0.0,0.0,0.0,0,0
1761122138.5111303,3.2574448585510254,0.0,0.0,-0.0,0.0,0.0,-0.0,0.0,0.0,0.0,0.0,0.0,0.0,0.0,0.0,0.0,-0.0,manual,85.0,0.0,0.0,0.0,0.0,0.0,0.0,0,0
1761122138.615197,3.361511468887329,0.0,0.0,-0.0,0.0,0.0,-0.0,0.0,0.0,0.0,0.0,0.0,0.0,0.0,0.0,0.0,-0.0,manual,85.0,0.0,0.0,0.0,0.0,0.0,0.0,0,0
1761122138.7189698,3.4652843475341797,0.0,0.0,-0.0,0.0,0.0,-0.0,0.0,0.0,0.0,0.0,0.0,0.0,0.0,0.0,0.0,-0.0,manual,85.0,0.0,0.0,0.0,0.0,0.0,0.0,0,0
1761122138.8217137,3.568028211593628,0.0,0.0,-0.0,0.0,0.0,-0.0,0.0,0.0,0.0,0.0,0.0,0.0,0.0,0.0,0.0,-0.0,manual,85.0,0.0,0.0,0.0,0.0,0.0,0.0,0,0
1761122138.929475,3.6757895946502686,0.0,0.0,-0.0,0.0,0.0,-0.0,0.0,0.0,0.0,0.0,0.0,0.0,0.0,0.0,0.0,-0.0,manual,85.0,0.0,0.0,0.0,0.0,0.0,0.0,0,0
1761122139.0312507,3.7775652408599854,0.0,0.0,-0.0,0.0,0.0,-0.0,0.0,0.0,0.0,0.0,0.0,0.0,0.0,0.0,0.0,-0.0,manual,85.0,0.0,0.0,0.0,0.0,0.0,0.0,0,0
1761122139.1332862,3.879600763320923,0.0,0.0,-0.0,0.0,0.0,-0.0,0.0,0.0,0.0,0.0,0.0,0.0,0.0,0.0,0.0,-0.0,manual,85.0,0.0,0.0,0.0,0.0,0.0,0.0,0,0
1761122139.2361047,3.98241925239563,0.0,0.0,-0.0,0.0,0.0,-0.0,0.0,0.0,0.0,0.0,0.0,0.0,0.0,0.0,0.0,-0.0,manual,85.0,0.0,0.0,0.0,0.0,0.0,0.0,0,0
1761122139.3420265,4.088340997695923,0.0,0.0,-0.0,0.0,0.0,-0.0,0.0,0.0,0.0,0.0,0.0,0.0,0.0,0.0,0.0,-0.0,manual,85.0,0.0,0.0,0.0,0.0,0.0,0.0,0,0
1761122139.4443955,4.190710067749023,0.0,0.0,-0.0,0.0,0.0,-0.0,0.0,0.0,0.0,0.0,0.0,0.0,0.0,0.0,0.0,-0.0,manual,85.0,0.0,0.0,0.0,0.0,0.0,0.0,0,0
1761122139.5481048,4.294419288635254,0.0,0.0,-0.0,0.0,0.0,-0.0,0.0,0.0,0.0,0.0,0.0,0.0,0.0,0.0,0.0,-0.0,manual,85.0,0.0,0.0,0.0,0.0,0.0,0.0,0,0
1761122139.650729,4.397043466567993,0.0,0.0,-0.0,0.0,0.0,-0.0,0.0,0.0,0.0,0.0,0.0,0.0,0.0,0.0,0.0,-0.0,manual,85.0,0.0,0.0,0.0,0.0,0.0,0.0,0,0
1761122139.7529929,4.49930739402771,0.0,0.0,-0.0,0.0,0.0,-0.0,0.0,0.0,0.0,0.0,0.0,0.0,0.0,0.0,0.0,-0.0,manual,85.0,0.0,0.0,0.0,0.0,0.0,0.0,0,0
1761122139.8544574,4.600771903991699,0.0,0.0,-0.0,0.0,0.0,-0.0,0.0,0.0,0.0,0.0,0.0,0.0,0.0,0.0,0.0,-0.0,manual,85.0,0.0,0.0,0.0,0.0,0.0,0.0,0,0
1761122139.9586966,4.7050111293792725,0.0,0.0,-0.0,0.0,0.0,-0.0,0.0,0.0,0.0,0.0,0.0,0.0,0.0,0.0,0.0,-0.0,manual,85.0,0.0,0.0,0.0,0.0,0.0,0.0,0,0
1761122140.0613673,4.8076817989349365,0.0,0.0,-0.0,0.0,0.0,-0.0,0.0,0.0,0.0,0.0,0.0,0.0,0.0,0.0,0.0,-0.0,manual,85.0,0.0,0.0,0.0,0.0,0.0,0.0,0,0
1761122140.1696153,4.915929794311523,0.0,0.0,-0.0,0.0,0.0,-0.0,0.0,0.0,0.0,0.0,0.0,0.0,0.0,0.0,0.0,-0.0,manual,85.0,0.0,0.0,0.0,0.0,0.0,0.0,0,0
1761122140.2714095,5.01772403717041,0.0,0.0,-0.0,0.0,0.0,-0.0,0.0,0.0,0.0,0.0,0.0,0.0,0.0,0.0,0.0,-0.0,manual,85.0,0.0,0.0,0.0,0.0,0.0,0.0,0,0
1761122140.373618,5.119932413101196,0.0,0.0,0.002911510857772237,0.0,0.0,0.18725235147219485,0.0,0.0,0.0,0.85,0.0,0.0,0.0,0.0,0.0,0.002911510857772237,stabilize,85.0,2.0,0.0,0.0,-2.0,1.9970884891422278,0.0,0,0
1761122140.476044,5.222358465194702,0.0,0.0,0.053644104544520226,0.0,0.0,0.8029501465397597,0.0,0.0,0.0,0.85,0.0,0.0,0.0,0.0,0.0,0.053644104544520226,stabilize,85.0,2.0,0.0,0.0,-2.0,1.9463558954554798,0.0,0,0
1761122140.5801942,5.3265087604522705,0.0,0.0,0.16970767780577944,0.0,0.0,1.4248584185986513,0.0,0.0,0.0,0.85,0.0,0.0,0.0,0.0,0.0,0.16970767780577944,stabilize,85.0,2.0,0.0,0.0,-2.0,1.8302923221942207,0.0,0,0
1761122140.6846428,5.430957317352295,0.0,0.0,0.3507967358159873,0.0,0.0,2.04117987399631,0.0,0.0,0.0,0.85,0.0,0.0,0.0,0.0,0.0,0.3507967358159873,stabilize,85.0,2.0,0.0,0.0,-2.0,1.6492032641840126,0.0,0,0
1761122140.7951982,5.541512727737427,0.0,0.0,0.610963866651468,0.0,0.0,2.6154833667707758,0.0,0.0,0.0,0.7733506238699903,0.0,0.0,0.0,0.0,0.0,0.610963866651468,stabilize,85.0,2.0,0.0,0.0,-2.0,1.3890361333485322,0.0,0,0
1761122140.9007068,5.647021293640137,0.0,0.0,0.8514817306175563,0.0,0.0,1.9458743764031556,0.0,0.0,0.0,0.15000000000000002,0.0,0.0,0.0,0.0,0.0,0.8514817306175563,stabilize,85.0,2.0,0.0,0.0,-2.0,1.1485182693824436,0.0,0,0
1761122141.0044563,5.750770807266235,0.0,0.0,1.0196865755398927,0.0,0.0,1.2980967758609916,0.0,0.0,0.0,0.15000000000000002,0.0,0.0,0.0,0.0,0.0,1.0196865755398927,stabilize,85.0,2.0,0.0,0.0,-2.0,0.9803134244601073,0.0,0,0
1761122141.1093721,5.855686664581299,0.0,0.0,1.141909142987871,0.0,0.0,1.2041657303111069,0.0,0.0,0.0,0.7042930159205729,0.0,0.0,0.0,0.0,0.0,1.141909142987871,stabilize,85.0,2.0,0.0,0.0,-2.0,0.8580908570121291,0.0,0,0
1761122141.2128186,5.959133148193359,0.0,0.0,1.2694313018201218,0.0,0.0,1.1674513526149521,0.0,0.0,0.0,0.42196354891505927,0.0,0.0,0.0,0.0,0.0,1.2694313018201218,stabilize,85.0,2.0,0.0,0.0,-2.0,0.7305686981798782,0.0,0,0
1761122141.3156662,6.061980724334717,0.0,0.0,1.3746393339220566,0.0,0.0,0.9074007824119446,0.0,0.0,0.0,0.48361437060732704,0.0,0.0,0.0,0.0,0.0,1.3746393339220566,stabilize,85.0,2.0,0.0,0.0,-2.0,0.6253606660779434,0.0,0,0
1761122141.4188342,6.165148735046387,0.0,0.0,1.4654320310401625,0.0,0.0,0.855388202525806,0.0,0.0,0.0,0.5286797267221386,0.0,0.0,0.0,0.0,0.0,1.4654320310401625,stabilize,85.0,2.0,0.0,0.0,-2.0,0.5345679689598375,0.0,0,0
1761122141.5207205,6.267035007476807,0.0,0.0,1.5472821555037837,0.0,0.0,0.7402553821705324,0.0,0.0,0.0,0.4914736726580149,0.0,0.0,0.0,0.0,0.0,1.5472821555037837,stabilize,85.0,2.0,0.0,0.0,-2.0,0.4527178444962163,0.0,0,0
1761122141.6299515,6.376266002655029,0.0,0.0,1.6222854209195194,0.0,0.0,0.6272274020103358,0.0,0.0,0.0,0.4708823932856563,0.0,0.0,0.0,0.0,0.0,1.6222854209195194,stabilize,85.0,2.0,0.0,0.0,-2.0,0.37771457908048056,0.0,0,0
1761122141.7334282,6.479742765426636,0.0,0.0,1.6822849938738393,0.0,0.0,0.5558747742801139,0.0,0.0,0.0,0.549679783927117,0.0,0.0,0.0,0.0,0.0,1.6822849938738393,stabilize,85.0,2.0,0.0,0.0,-2.0,0.31771500612616066,0.0,0,0
1761122141.8379118,6.584226369857788,0.0,0.0,1.7383180948691763,0.0,0.0,0.5045977924460509,0.0,0.0,0.0,0.5088661121359859,0.0,0.0,0.0,0.0,0.0,1.7383180948691763,stabilize,85.0,2.0,0.0,0.0,-2.0,0.2616819051308237,0.0,0,0
1761122141.9443214,6.690635919570923,0.0,0.0,1.7869143069160909,0.0,0.0,0.4123893682828501,0.0,0.0,0.0,0.5288452247127816,0.0,0.0,0.0,0.0,0.0,1.7869143069160909,stabilize,85.0,2.0,0.0,0.0,-2.0,0.21308569308390912,0.0,0,0
1761122142.049008,6.795322418212891,0.0,0.0,1.828278317907207,0.0,0.0,0.37733482279377334,0.0,0.0,0.0,0.5428577611557964,0.0,0.0,0.0,0.0,0.0,1.828278317907207,stabilize,85.0,2.0,0.0,0.0,-2.0,0.17172168209279293,0.0,0,0
1761122142.1520402,6.898354768753052,0.0,0.0,1.8645787882008769,0.0,0.0,0.32480606661497036,0.0,0.0,0.0,0.5356294645543438,0.0,0.0,0.0,0.0,0.0,1.8645787882008769,stabilize,85.0,2.0,0.0,0.0,-2.0,0.13542121179912314,0.0,0,0
1761122142.256366,7.002680540084839,0.0,0.0,1.8962217571126125,0.0,0.0,0.28255479257236377,0.0,0.0,0.0,0.5403174461774202,0.0,0.0,0.0,0.0,0.0,1.8962217571126125,stabilize,85.0,2.0,0.0,0.0,-2.0,0.10377824288738746,0.0,0,0
1761122142.3605309,7.106845378875732,0.0,0.0,1.9237617579135557,0.0,0.0,0.2452883499182767,0.0,0.0,0.0,0.5432536271940764,0.0,0.0,0.0,0.0,0.0,1.9237617579135557,stabilize,85.0,2.0,0.0,0.0,-2.0,0.07623824208644425,0.0,0,0
1761122142.4643273,7.210641860961914,0.0,0.0,1.9475989939630807,0.0,0.0,0.21393417650644522,0.0,0.0,0.0,0.5461867804298381,0.0,0.0,0.0,0.0,0.0,1.9475989939630807,stabilize,85.0,2.0,0.0,0.0,-2.0,0.05240100603691933,0.0,0,0
1761122142.5690038,7.31531834602356,0.0,0.0,1.9685437652630626,0.0,0.0,0.18623925931230112,0.0,0.0,0.0,0.548623888049671,0.0,0.0,0.0,0.0,0.0,1.9685437652630626,stabilize,85.0,2.0,0.0,0.0,-2.0,0.03145623473693737,0.0,0,0
1761122142.672103,7.418417453765869,0.0,0.0,1.9862671386354394,0.0,0.0,0.15940894383075116,0.0,0.0,0.0,0.5528014386585608,0.0,0.0,0.0,0.0,0.0,1.9862671386354394,stabilize,85.0,2.0,0.0,0.0,-2.0,0.013732861364560645,0.0,0,0
1761122142.7744222,7.5207366943359375,0.0,0.0,2.0015848740907307,0.0,0.0,0.13966962270541736,0.0,0.0,0.0,0.5519407233698852,0.0,0.0,0.0,0.0,0.0,2.0015848740907307,stabilize,85.0,2.0,0.0,0.0,-2.0,0.0015848740907307146,0.0,0,0
1761122142.878805,7.62511944770813,0.0,0.0,2.0151265632901807,0.0,0.0,0.11888259276303215,0.0,0.0,0.0,0.5513728372949357,0.0,0.0,0.0,0.0,0.0,2.0151265632901807,stabilize,85.0,2.0,0.0,0.0,-2.0,0.015126563290180695,0.0,0,0
1761122142.9824734,7.728787899017334,0.0,0.0,2.0265477562484167,0.0,0.0,0.10218619640921427,0.0,0.0,0.0,0.5548562475605798,0.0,0.0,0.0,0.0,0.0,2.0265477562484167,stabilize,85.0,2.0,0.0,0.0,-2.0,0.026547756248416654,0.0,0,0
1761122143.0869389,7.833253383636475,0.0,0.0,2.036510702732005,0.0,0.0,0.08823102026690818,0.0,0.0,0.0,0.5559479624310077,0.0,0.0,0.0,0.0,0.0,2.036510702732005,stabilize,85.0,2.0,0.0,0.0,-2.0,0.03651070273200485,0.0,0,0
1761122143.189131,7.935445547103882,0.0,0.0,2.044686257335788,0.0,0.0,0.07012925624361563,0.0,0.0,0.0,0.5550379140479098,0.0,0.0,0.0,0.0,0.0,2.044686257335788,stabilize,85.0,2.0,0.0,0.0,-2.0,0.04468625733578779,0.0,0,0
1761122143.2920332,8.038347721099854,0.0,0.0,2.0516349249810486,0.0,0.0,0.06624823901934793,0.0,0.0,0.0,0.5607943390131638,0.0,0.0,0.0,0.0,0.0,2.0516349249810486,stabilize,85.0,2.0,0.0,0.0,-2.0,0.0516349249810486,0.0,0,0
1761122143.399167,8.145481586456299,0.0,0.0,2.058126276128555,0.0,0.0,0.05271912598866851,0.0,0.0,0.0,0.5517920882978595,0.0,0.0,0.0,0.0,0.0,2.058126276128555,stabilize,85.0,2.0,0.0,0.0,-2.0,0.05812627612855481,0.0,0,0
1761122143.5042887,8.250603199005127,0.0,0.0,2.0630342870131515,0.0,0.0,0.043722403370428396,0.0,0.0,0.0,0.5618549248911678,0.0,0.0,0.0,0.0,0.0,2.0630342870131515,stabilize,85.0,2.0,0.0,0.0,-2.0,0.0630342870131515,0.0,0,0
1761122143.6097121,8.356026649475098,0.0,0.0,2.0674327734364017,0.0,0.0,0.038547415169236536,0.0,0.0,0.0,0.5578486977183219,0.0,0.0,0.0,0.0,0.0,2.0674327734364017,stabilize,85.0,2.0,0.0,0.0,-2.0,0.06743277343640175,0.0,0,0
1761122143.7134092,8.459723711013794,0.0,0.0,2.0709072445334664,0.0,0.0,0.02938729401702611,0.0,0.0,0.0,0.5591385948710521,0.0,0.0,0.0,0.0,0.0,2.0709072445334664,stabilize,85.0,2.0,0.0,0.0,-2.0,0.07090724453346642,0.0,0,0
1761122143.8215137,8.567828178405762,0.0,0.0,2.073834136069944,0.0,0.0,0.024398910451834493,0.0,0.0,0.0,0.5585360979900346,0.0,0.0,0.0,0.0,0.0,2.073834136069944,stabilize,85.0,2.0,0.0,0.0,-2.0,0.07383413606994393,0.0,0,0
1761122143.9268172,8.673131704330444,0.0,0.0,2.0760818594204653,0.0,0.0,0.01889959020176703,0.0,0.0,0.0,0.5609203576205578,0.0,0.0,0.0,0.0,0.0,2.0760818594204653,stabilize,85.0,2.0,0.0,0.0,-2.0,0.0760818594204653,0.0,0,0
1761122144.0310414,8.777355909347534,0.0,0.0,2.07786086764963,0.0,0.0,0.015061020709455721,0.0,0.0,0.0,0.5602998862205868,0.0,0.0,0.0,0.0,0.0,2.07786086764963,stabilize,85.0,2.0,0.0,0.0,-2.0,0.07786086764963018,0.0,0,0
1761122144.1358342,8.882148742675781,0.0,0.0,2.079217545941948,0.0,0.0,0.010906929604971971,0.0,0.0,0.0,0.5604496495180662,0.0,0.0,0.0,0.0,0.0,2.079217545941948,stabilize,85.0,2.0,0.0,0.0,-2.0,0.07921754594194796,0.0,0,0
1761122144.2398703,8.98618483543396,0.0,0.0,2.080173001422863,0.0,0.0,0.007602145705291843,0.0,0.0,0.0,0.5610838949244833,0.0,0.0,0.0,0.0,0.0,2.080173001422863,stabilize,85.0,2.0,0.0,0.0,-2.0,0.08017300142286299,0.0,0,0
1761122144.343911,9.090225458145142,0.0,0.0,2.080820355530085,0.0,0.0,0.004817133252627379,0.0,0.0,0.0,0.5611371627117476,0.0,0.0,0.0,0.0,0.0,2.080820355530085,stabilize,85.0,2.0,0.0,0.0,-2.0,0.08082035553008504,0.0,0,0
1761122144.4503675,9.19668197631836,0.0,0.0,2.0811875982051258,0.0,0.0,0.002138196650872638,0.0,0.0,0.0,0.561388542298203,0.0,0.0,0.0,0.0,0.0,2.0811875982051258,stabilize,85.0,2.0,0.0,0.0,-2.0,0.08118759820512578,0.0,0,0
1761122144.554507,9.300821542739868,0.0,0.0,2.081300154205303,0.0,0.0,9.808664398415983e-05,0.0,0.0,0.0,0.5616152595037261,0.0,0.0,0.0,0.0,0.0,2.081300154205303,stabilize,85.0,2.0,0.0,0.0,-2.0,0.0813001542053029,0.0,0,0
1761122144.6589553,9.405269861221313,0.0,0.0,2.081210615279465,0.0,0.0,-0.0018075043476166962,0.0,0.0,0.0,0.5616623852434739,0.0,0.0,0.0,0.0,0.0,2.081210615279465,stabilize,85.0,2.0,0.0,0.0,-2.0,0.08121061527946516,0.0,0,0
1761122144.762319,9.508633613586426,0.0,0.0,2.0809386729945056,0.0,0.0,-0.0033723095278617794,0.0,0.0,0.0,0.561892418894445,0.0,0.0,0.0,0.0,0.0,2.0809386729945056,stabilize,85.0,2.0,0.0,0.0,-2.0,0.08093867299450563,0.0,0,0
1761122144.8670912,9.613405704498291,0.0,0.0,2.0805111898154456,0.0,0.0,-0.0047825397694617735,0.0,0.0,0.0,0.5618354409719976,0.0,0.0,0.0,0.0,0.0,2.0805111898154456,stabilize,85.0,2.0,0.0,0.0,-2.0,0.08051118981544558,0.0,0,0
1761122144.9707284,9.717042922973633,0.0,0.0,2.0799530081932214,0.0,0.0,-0.005898462953858937,0.0,0.0,0.0,0.5621180063068623,0.0,0.0,0.0,0.0,0.0,2.0799530081932214,stabilize,85.0,2.0,0.0,0.0,-2.0,0.07995300819322138,0.0,0,0
1761122145.0737734,9.820087909698486,0.0,0.0,2.079292144065078,0.0,0.0,-0.006885836781488324,0.0,0.0,0.0,0.5621223010666111,0.0,0.0,0.0,0.0,0.0,2.079292144065078,stabilize,85.0,2.0,0.0,0.0,-2.0,0.07929214406507779,0.0,0,0
1761122145.177843,9.924157619476318,0.0,0.0,2.0785263375014784,0.0,0.0,-0.007844521074186782,0.0,0.0,0.0,0.5619490061325292,0.0,0.0,0.0,0.0,0.0,2.0785263375014784,stabilize,85.0,2.0,0.0,0.0,-2.0,0.07852633750147842,0.0,0,0
1761122145.2802906,10.026605129241943,0.0,0.0,2.0776932110618724,0.0,0.0,-0.00839823114764758,0.0,0.0,0.0,0.5622985027926877,0.0,0.0,0.0,0.0,0.0,2.0776932110618724,stabilize,85.0,2.0,0.0,0.0,-2.0,0.07769321106187244,0.0,0,0
1761122145.3905761,10.136890649795532,0.0,0.0,2.0767235022125554,0.0,0.0,-0.009042064764555685,0.0,0.0,0.0,0.5622571004199499,0.0,0.0,0.0,0.0,0.0,2.0767235022125554,stabilize,85.0,2.0,0.0,0.0,-2.0,0.07672350221255542,0.0,0,0
1761122145.494077,10.240391492843628,0.0,0.0,2.0757635293079812,0.0,0.0,-0.00958413225492847,0.0,0.0,0.0,0.5621605374548845,0.0,0.0,0.0,0.0,0.0,2.0757635293079812,stabilize,85.0,2.0,0.0,0.0,-2.0,0.07576352930798125,0.0,0,0
1761122145.599354,10.34566855430603,0.0,0.0,2.0747265724971293,0.0,0.0,-0.010025050150111679,0.0,0.0,0.0,0.5624496618758044,0.0,0.0,0.0,0.0,0.0,2.0747265724971293,stabilize,85.0,2.0,0.0,0.0,-2.0,0.07472657249712933,0.0,0,0
1761122145.7034855,10.44980001449585,0.0,0.0,2.073674107348909,0.0,0.0,-0.010220287784388089,0.0,0.0,0.0,0.5625051438945903,0.0,0.0,0.0,0.0,0.0,2.073674107348909,stabilize,85.0,2.0,0.0,0.0,-2.0,0.07367410734890889,0.0,0,0
1761122145.8066998,10.553014278411865,0.0,0.0,2.0726007676947584,0.0,0.0,-0.01057903173319172,0.0,0.0,0.0,0.562287938051271,0.0,0.0,0.0,0.0,0.0,2.0726007676947584,stabilize,85.0,2.0,0.0,0.0,-2.0,0.07260076769475843,0.0,0,0
1761122145.9112146,10.65752911567688,0.0,0.0,2.071483938534328,0.0,0.0,-0.010653058218469794,0.0,0.0,0.0,0.5626374674911527,0.0,0.0,0.0,0.0,0.0,2.071483938534328,stabilize,85.0,2.0,0.0,0.0,-2.0,0.07148393853432822,0.0,0,0
1761122146.0148945,10.76120901107788,0.0,0.0,2.070368808647042,0.0,0.0,-0.010866274462772168,0.0,0.0,0.0,0.5625270267104666,0.0,0.0,0.0,0.0,0.0,2.070368808647042,stabilize,85.0,2.0,0.0,0.0,-2.0,0.07036880864704198,0.0,0,0
1761122146.119904,10.866218566894531,0.0,0.0,2.0692177747687497,0.0,0.0,-0.011027347779966359,0.0,0.0,0.0,0.5625511945127228,0.0,0.0,0.0,0.0,0.0,2.0692177747687497,stabilize,85.0,2.0,0.0,0.0,-2.0,0.06921777476874968,0.0,0,0
1761122146.2223816,10.968696117401123,0.0,0.0,2.0680966281183837,0.0,0.0,-0.01092042680610265,0.0,0.0,0.0,0.5625258034967425,0.0,0.0,0.0,0.0,0.0,2.0680966281183837,stabilize,85.0,2.0,0.0,0.0,-2.0,0.06809662811838368,0.0,0,0
1761122146.325394,11.07170844078064,0.0,0.0,2.0669600188474577,0.0,0.0,-0.011119273706291632,0.0,0.0,0.0,0.5626039375762375,0.0,0.0,0.0,0.0,0.0,2.0669600188474577,stabilize,85.0,2.0,0.0,0.0,-2.0,0.06696001884745773,0.0,0,0
1761122146.4339314,11.180245876312256,0.0,0.0,2.065756552260408,0.0,0.0,-0.010759332057046675,0.0,0.0,0.0,0.5628661781000238,0.0,0.0,0.0,0.0,0.0,2.065756552260408,stabilize,85.0,2.0,0.0,0.0,-2.0,0.065756552260408,0.0,0,0
1761122146.5386834,11.284997940063477,0.0,0.0,2.064623636053858,0.0,0.0,-0.011045266338176403,0.0,0.0,0.0,0.5624623766639667,0.0,0.0,0.0,0.0,0.0,2.064623636053858,stabilize,85.0,2.0,0.0,0.0,-2.0,0.06462363605385812,0.0,0,0
1761122146.6425753,11.388889789581299,0.0,0.0,2.0634714221570922,0.0,0.0,-0.010958244780471117,0.0,0.0,0.0,0.5628624663172208,0.0,0.0,0.0,0.0,0.0,2.0634714221570922,stabilize,85.0,2.0,0.0,0.0,-2.0,0.06347142215709223,0.0,0,0
1761122146.7453334,11.491647958755493,0.0,0.0,2.0623567457946366,0.0,0.0,-0.010816975081135742,0.0,0.0,0.0,0.5626177064155945,0.0,0.0,0.0,0.0,0.0,2.0623567457946366,stabilize,85.0,2.0,0.0,0.0,-2.0,0.06235674579463657,0.0,0,0
1761122146.8500602,11.596374750137329,0.0,0.0,2.0612184419121404,0.0,0.0,-0.01084262523061664,0.0,0.0,0.0,0.5626250623197053,0.0,0.0,0.0,0.0,0.0,2.0612184419121404,stabilize,85.0,2.0,0.0,0.0,-2.0,0.06121844191214043,0.0,0,0
1761122146.9529004,11.699214935302734,0.0,0.0,2.0601184761146074,0.0,0.0,-0.010602434976986265,0.0,0.0,0.0,0.5626090291631526,0.0,0.0,0.0,0.0,0.0,2.0601184761146074,stabilize,85.0,2.0,0.0,0.0,-2.0,0.06011847611460741,0.0,0,0
1761122147.05636,11.802674531936646,0.0,0.0,2.059018734903373,0.0,0.0,-0.010642018178014663,0.0,0.0,0.0,0.562530179546023,0.0,0.0,0.0,0.0,0.0,2.059018734903373,stabilize,85.0,2.0,0.0,0.0,-2.0,0.05901873490337284,0.0,0,0
1761122147.160073,11.906387567520142,0.0,0.0,2.0579268218159776,0.0,0.0,-0.010367604884882711,0.0,0.0,0.0,0.5627198525351788,0.0,0.0,0.0,0.0,0.0,2.0579268218159776,stabilize,85.0,2.0,0.0,0.0,-2.0,0.057926821815977636,0.0,0,0
1761122147.2639842,12.010298728942871,0.0,0.0,2.0568511635256015,0.0,0.0,-0.010300651062341952,0.0,0.0,0.0,0.5626916628337452,0.0,0.0,0.0,0.0,0.0,2.0568511635256015,stabilize,85.0,2.0,0.0,0.0,-2.0,0.05685116352560149,0.0,0,0
1761122147.3693142,12.115628719329834,0.0,0.0,2.0557678525047707,0.0,0.0,-0.01017152502266175,0.0,0.0,0.0,0.5628626087473858,0.0,0.0,0.0,0.0,0.0,2.0557678525047707,stabilize,85.0,2.0,0.0,0.0,-2.0,0.055767852504770676,0.0,0,0
1761122147.4712977,12.217612266540527,0.0,0.0,2.0547443519530235,0.0,0.0,-0.009975856700241632,0.0,0.0,0.0,0.5626087704888179,0.0,0.0,0.0,0.0,0.0,2.0547443519530235,stabilize,85.0,2.0,0.0,0.0,-2.0,0.05474435195302352,0.0,0,0
1761122147.5735757,12.319890260696411,0.0,0.0,2.053723491414639,0.0,0.0,-0.009919377847403496,0.0,0.0,0.0,0.5626933361749173,0.0,0.0,0.0,0.0,0.0,2.053723491414639,stabilize,85.0,2.0,0.0,0.0,-2.0,0.053723491414638946,0.0,0,0
1761122147.6825194,12.428833961486816,0.0,0.0,2.0526586844725356,0.0,0.0,-0.009340347311484802,0.0,0.0,0.0,0.5627250976675378,0.0,0.0,0.0,0.0,0.0,2.0526586844725356,stabilize,85.0,2.0,0.0,0.0,-2.0,0.05265868447253563,0.0,0,0
1761122147.783981,12.530295610427856,0.0,0.0,2.051694728589782,0.0,0.0,-0.009740301493559127,0.0,0.0,0.0,0.5624008803907917,0.0,0.0,0.0,0.0,0.0,2.051694728589782,stabilize,85.0,2.0,0.0,0.0,-2.0,0.05169472858978219,0.0,0,0
1761122147.8929126,12.639227151870728,0.0,0.0,2.050634905179929,0.0,0.0,-0.00938193566098776,0.0,0.0,0.0,0.5634472370743326,0.0,0.0,0.0,0.0,0.0,2.050634905179929,stabilize,85.0,2.0,0.0,0.0,-2.0,0.05063490517992886,0.0,0,0
1761122147.9965224,12.742836952209473,0.0,0.0,2.049699868503089,0.0,0.0,-0.009101589289878502,0.0,0.0,0.0,0.5620901108522052,0.0,0.0,0.0,0.0,0.0,2.049699868503089,stabilize,85.0,2.0,0.0,0.0,-2.0,0.04969986850308894,0.0,0,0
1761122148.1010559,12.847370386123657,0.0,0.0,2.0487228819134646,0.0,0.0,-0.009314221645975186,0.0,0.0,0.0,0.5627078872009307,0.0,0.0,0.0,0.0,0.0,2.0487228819134646,stabilize,85.0,2.0,0.0,0.0,-2.0,0.04872288191346463,0.0,0,0
1761122148.2033796,12.949694156646729,0.0,0.0,2.0477990872219767,0.0,0.0,-0.008849462673124694,0.0,0.0,0.0,0.5626569005358696,0.0,0.0,0.0,0.0,0.0,2.0477990872219767,stabilize,85.0,2.0,0.0,0.0,-2.0,0.04779908722197668,0.0,0,0
1761122148.3068824,13.053196907043457,0.0,0.0,2.046879973645695,0.0,0.0,-0.00894979132549251,0.0,0.0,0.0,0.5628011292018832,0.0,0.0,0.0,0.0,0.0,2.046879973645695,stabilize,85.0,2.0,0.0,0.0,-2.0,0.04687997364569485,0.0,0,0
1761122148.4105833,13.156897783279419,0.0,0.0,2.045971406574334,0.0,0.0,-0.008574000330842177,0.0,0.0,0.0,0.5627683949105842,0.0,0.0,0.0,0.0,0.0,2.045971406574334,stabilize,85.0,2.0,0.0,0.0,-2.0,0.04597140657433396,0.0,0,0
1761122148.5129,13.259214639663696,0.0,0.0,2.0450981327645197,0.0,0.0,-0.008559650477839041,0.0,0.0,0.0,0.5626177038511241,0.0,0.0,0.0,0.0,0.0,2.0450981327645197,stabilize,85.0,2.0,0.0,0.0,-2.0,0.04509813276451968,0.0,0,0
1761122148.614681,13.360995531082153,0.0,0.0,2.0442357218555216,0.0,0.0,-0.00836025146427641,0.0,0.0,0.0,0.562704742642644,0.0,0.0,0.0,0.0,0.0,2.0442357218555216,stabilize,85.0,2.0,0.0,0.0,-2.0,0.044235721855521604,0.0,0,0
1761122148.7195132,13.465827703475952,0.0,0.0,2.0433644997150537,0.0,0.0,-0.008236125135157316,0.0,0.0,0.0,0.562849342720044,0.0,0.0,0.0,0.0,0.0,2.0433644997150537,stabilize,85.0,2.0,0.0,0.0,-2.0,0.04336449971505374,0.0,0,0
1761122148.8244882,13.570802688598633,0.0,0.0,2.0425134145549766,0.0,0.0,-0.00804586669297563,0.0,0.0,0.0,0.5626057287596115,0.0,0.0,0.0,0.0,0.0,2.0425134145549766,stabilize,85.0,2.0,0.0,0.0,-2.0,0.04251341455497659,0.0,0,0
1761122148.9287732,13.675087690353394,0.0,0.0,2.041683073922467,0.0,0.0,-0.007972353250788544,0.0,0.0,0.0,0.5624207445920955,0.0,0.0,0.0,0.0,0.0,2.041683073922467,stabilize,85.0,2.0,0.0,0.0,-2.0,0.04168307392246717,0.0,0,0
1761122149.0337276,13.780042171478271,0.0,0.0,2.04085878313391,0.0,0.0,-0.007709863466493394,0.0,0.0,0.0,0.5627693488510437,0.0,0.0,0.0,0.0,0.0,2.04085878313391,stabilize,85.0,2.0,0.0,0.0,-2.0,0.04085878313390978,0.0,0,0
1761122149.1428976,13.889212131500244,0.0,0.0,2.0400216104178295,0.0,0.0,-0.007473417316256846,0.0,0.0,0.0,0.5630792895423312,0.0,0.0,0.0,0.0,0.0,2.0400216104178295,stabilize,85.0,2.0,0.0,0.0,-2.0,0.04002161041782948,0.0,0,0
1761122149.2448168,13.99113130569458,0.0,0.0,2.0392738748458736,0.0,0.0,-0.00741090454627418,0.0,0.0,0.0,0.5624121617299748,0.0,0.0,0.0,0.0,0.0,2.0392738748458736,stabilize,85.0,2.0,0.0,0.0,-2.0,0.039273874845873635,0.0,0,0
1761122149.3485818,14.09489631652832,0.0,0.0,2.0384946965311372,0.0,0.0,-0.007459133064463161,0.0,0.0,0.0,0.5628912821942423,0.0,0.0,0.0,0.0,0.0,2.0384946965311372,stabilize,85.0,2.0,0.0,0.0,-2.0,0.03849469653113724,0.0,0,0
1761122149.4550977,14.201412200927734,0.0,0.0,2.0377256792944025,0.0,0.0,-0.006973542391945071,0.0,0.0,0.0,0.5627017273355392,0.0,0.0,0.0,0.0,0.0,2.0377256792944025,stabilize,85.0,2.0,0.0,0.0,-2.0,0.037725679294402514,0.0,0,0
1761122149.5593245,14.305639028549194,0.0,0.0,2.0369889900369027,0.0,0.0,-0.007112507571116043,0.0,0.0,0.0,0.5626467438472146,0.0,0.0,0.0,0.0,0.0,2.0369889900369027,stabilize,85.0,2.0,0.0,0.0,-2.0,0.0369889900369027,0.0,0,0
1761122149.6615508,14.407865285873413,0.0,0.0,2.0362722549183117,0.0,0.0,-0.006880695329875387,0.0,0.0,0.0,0.5627334315686813,0.0,0.0,0.0,0.0,0.0,2.0362722549183117,stabilize,85.0,2.0,0.0,0.0,-2.0,0.03627225491831165,0.0,0,0
1761122149.765339,14.511653423309326,0.0,0.0,2.0355627358899464,0.0,0.0,-0.00677426239507877,0.0,0.0,0.0,0.5626823844408742,0.0,0.0,0.0,0.0,0.0,2.0355627358899464,stabilize,85.0,2.0,0.0,0.0,-2.0,0.035562735889946406,0.0,0,0
1761122149.8697643,14.616078853607178,0.0,0.0,2.034860962929264,0.0,0.0,-0.006603530031517109,0.0,0.0,0.0,0.5627444126878158,0.0,0.0,0.0,0.0,0.0,2.034860962929264,stabilize,85.0,2.0,0.0,0.0,-2.0,0.034860962929263994,0.0,0,0
1761122149.9726381,14.718952655792236,0.0,0.0,2.034186572602564,0.0,0.0,-0.006508080461572259,0.0,0.0,0.0,0.5626231233485087,0.0,0.0,0.0,0.0,0.0,2.034186572602564,stabilize,85.0,2.0,0.0,0.0,-2.0,0.03418657260256408,0.0,0,0
1761122150.0766323,14.822946786880493,0.0,0.0,2.0335123146521354,0.0,0.0,-0.0063907208776758226,0.0,0.0,0.0,0.5627329996446543,0.0,0.0,0.0,0.0,0.0,2.0335123146521354,stabilize,85.0,2.0,0.0,0.0,-2.0,0.033512314652135444,0.0,0,0
1761122150.1800022,14.926316738128662,0.0,0.0,2.0328597126360757,0.0,0.0,-0.00623021064083302,0.0,0.0,0.0,0.562658509504876,0.0,0.0,0.0,0.0,0.0,2.0328597126360757,stabilize,85.0,2.0,0.0,0.0,-2.0,0.03285971263607568,0.0,0,0
1761122150.2838137,15.030128240585327,0.0,0.0,2.032214389504829,0.0,0.0,-0.006152687083162704,0.0,0.0,0.0,0.5627202618568432,0.0,0.0,0.0,0.0,0.0,2.032214389504829,stabilize,85.0,2.0,0.0,0.0,-2.0,0.03221438950482902,0.0,0,0
1761122150.3885603,15.134874820709229,0.0,0.0,2.031577485419569,0.0,0.0,-0.006042050741386926,0.0,0.0,0.0,0.5624930673999329,0.0,0.0,0.0,0.0,0.0,2.031577485419569,stabilize,85.0,2.0,0.0,0.0,-2.0,0.03157748541956895,0.0,0,0
1761122150.490885,15.237199544906616,0.0,0.0,2.0309675025536635,0.0,0.0,-0.005875627982741159,0.0,0.0,0.0,0.5626300862741193,0.0,0.0,0.0,0.0,0.0,2.0309675025536635,stabilize,85.0,2.0,0.0,0.0,-2.0,0.03096750255366354,0.0,0,0
1761122150.595476,15.341790437698364,0.0,0.0,2.0303547032814193,0.0,0.0,-0.005860079614536405,0.0,0.0,0.0,0.5624190467247925,0.0,0.0,0.0,0.0,0.0,2.0303547032814193,stabilize,85.0,2.0,0.0,0.0,-2.0,0.030354703281419315,0.0,0,0
1761122150.7014754,15.447789907455444,0.0,0.0,2.0297439573852665,0.0,0.0,-0.005617689294113654,0.0,0.0,0.0,0.5626637103095526,0.0,0.0,0.0,0.0,0.0,2.0297439573852665,stabilize,85.0,2.0,0.0,0.0,-2.0,0.029743957385266473,0.0,0,0
1761122150.804516,15.550830602645874,0.0,0.0,2.0291703441964586,0.0,0.0,-0.005584041241273426,0.0,0.0,0.0,0.5624685490606605,0.0,0.0,0.0,0.0,0.0,2.0291703441964586,stabilize,85.0,2.0,0.0,0.0,-2.0,0.029170344196458586,0.0,0,0
1761122150.9046373,15.650951862335205,0.0,0.0,2.0286082526950397,0.0,0.0,-0.005462680827811717,0.0,0.0,0.0,0.5628798349378807,0.0,0.0,0.0,0.0,0.0,2.0286082526950397,stabilize,85.0,2.0,0.0,0.0,-2.0,0.02860825269503975,0.0,0,0
1761122151.0098834,15.756197929382324,0.0,0.0,2.02804979328852,0.0,0.0,-0.0052568840968494545,0.0,0.0,0.0,0.562586528784292,0.0,0.0,0.0,0.0,0.0,2.02804979328852,stabilize,85.0,2.0,0.0,0.0,-2.0,0.028049793288519975,0.0,0,0
1761122151.1120515,15.858366012573242,0.0,0.0,2.0275077324242265,0.0,0.0,-0.005316597144385365,0.0,0.0,0.0,0.5626317115452992,0.0,0.0,0.0,0.0,0.0,2.0275077324242265,stabilize,85.0,2.0,0.0,0.0,-2.0,0.02750773242422655,0.0,0,0
1761122151.2151046,15.961419105529785,0.0,0.0,2.0269684017819523,0.0,0.0,-0.0051353163840198975,0.0,0.0,0.0,0.5627023662904219,0.0,0.0,0.0,0.0,0.0,2.0269684017819523,stabilize,85.0,2.0,0.0,0.0,-2.0,0.026968401781952256,0.0,0,0
1761122151.315617,16.061931610107422,0.0,0.0,2.026452364256441,0.0,0.0,-0.00511022492690004,0.0,0.0,0.0,0.5630399785286494,0.0,0.0,0.0,0.0,0.0,2.026452364256441,stabilize,85.0,2.0,0.0,0.0,-2.0,0.02645236425644093,0.0,0,0
1761122151.4205241,16.16683864593506,0.0,0.0,2.025942266252663,0.0,0.0,-0.004816843236884731,0.0,0.0,0.0,0.5625212673325107,0.0,0.0,0.0,0.0,0.0,2.025942266252663,stabilize,85.0,2.0,0.0,0.0,-2.0,0.02594226625266316,0.0,0,0
1761122151.5246487,16.270963191986084,0.0,0.0,2.0254283288536215,0.0,0.0,-0.005002775578290153,0.0,0.0,0.0,0.562636236923892,0.0,0.0,0.0,0.0,0.0,2.0254283288536215,stabilize,85.0,2.0,0.0,0.0,-2.0,0.02542832885362145,0.0,0,0
1761122151.6311197,16.377434253692627,0.0,0.0,2.0249102810898783,0.0,0.0,-0.004696257586737531,0.0,0.0,0.0,0.5627144192365124,0.0,0.0,0.0,0.0,0.0,2.0249102810898783,stabilize,85.0,2.0,0.0,0.0,-2.0,0.02491028108987825,0.0,0,0
1761122151.7351813,16.48149585723877,0.0,0.0,2.0244261083610646,0.0,0.0,-0.004656485911924992,0.0,0.0,0.0,0.562584780933447,0.0,0.0,0.0,0.0,0.0,2.0244261083610646,stabilize,85.0,2.0,0.0,0.0,-2.0,0.024426108361064625,0.0,0,0
1761122151.8393676,16.585682153701782,0.0,0.0,2.0239405801887975,0.0,0.0,-0.004619088979428438,0.0,0.0,0.0,0.5627175956608476,0.0,0.0,0.0,0.0,0.0,2.0239405801887975,stabilize,85.0,2.0,0.0,0.0,-2.0,0.023940580188797522,0.0,0,0
1761122151.9432628,16.689577341079712,0.0,0.0,2.023470852241967,0.0,0.0,-0.004433915730509061,0.0,0.0,0.0,0.5626622386427718,0.0,0.0,0.0,0.0,0.0,2.023470852241967,stabilize,85.0,2.0,0.0,0.0,-2.0,0.023470852241966877,0.0,0,0
1761122152.0470903,16.793404817581177,0.0,0.0,2.0230104291871376,0.0,0.0,-0.004439447718065451,0.0,0.0,0.0,0.5625819774763514,0.0,0.0,0.0,0.0,0.0,2.0230104291871376,stabilize,85.0,2.0,0.0,0.0,-2.0,0.023010429187137582,0.0,0,0
1761122152.1561093,16.902423858642578,0.0,0.0,2.0225337987130856,0.0,0.0,-0.004145887858539661,0.0,0.0,0.0,0.5628652582487959,0.0,0.0,0.0,0.0,0.0,2.0225337987130856,stabilize,85.0,2.0,0.0,0.0,-2.0,0.022533798713085584,0.0,0,0
1761122152.2601018,17.00641632080078,0.0,0.0,2.0221022366724175,0.0,0.0,-0.0042353388207587465,0.0,0.0,0.0,0.5625079316247269,0.0,0.0,0.0,0.0,0.0,2.0221022366724175,stabilize,85.0,2.0,0.0,0.0,-2.0,0.022102236672417508,0.0,0,0
1761122152.364622,17.110936641693115,0.0,0.0,2.021657353878921,0.0,0.0,-0.004175251105240618,0.0,0.0,0.0,0.5627608710125839,0.0,0.0,0.0,0.0,0.0,2.021657353878921,stabilize,85.0,2.0,0.0,0.0,-2.0,0.021657353878921093,0.0,0,0
1761122152.4696558,17.215970277786255,0.0,0.0,2.0212287984145565,0.0,0.0,-0.004062166664332517,0.0,0.0,0.0,0.5625935486027072,0.0,0.0,0.0,0.0,0.0,2.0212287984145565,stabilize,85.0,2.0,0.0,0.0,-2.0,0.021228798414556493,0.0,0,0
1761122152.5738037,17.320118188858032,0.0,0.0,2.0208096867421594,0.0,0.0,-0.003958680315588844,0.0,0.0,0.0,0.562681014434955,0.0,0.0,0.0,0.0,0.0,2.0208096867421594,stabilize,85.0,2.0,0.0,0.0,-2.0,0.02080968674215944,0.0,0,0
1761122152.6759615,17.42227602005005,0.0,0.0,2.020408495871143,0.0,0.0,-0.003900369334787329,0.0,0.0,0.0,0.5626235583307995,0.0,0.0,0.0,0.0,0.0,2.020408495871143,stabilize,85.0,2.0,0.0,0.0,-2.0,0.020408495871143018,0.0,0,0
1761122152.7803502,17.52666473388672,0.0,0.0,2.0200021219536377,0.0,0.0,-0.003819234880558592,0.0,0.0,0.0,0.5627005629598424,0.0,0.0,0.0,0.0,0.0,2.0200021219536377,stabilize,85.0,2.0,0.0,0.0,-2.0,0.020002121953637708,0.0,0,0
1761122152.8806195,17.626934051513672,0.0,0.0,2.019625283815961,0.0,0.0,-0.0036014966546484297,0.0,0.0,0.0,0.5626951684029506,0.0,0.0,0.0,0.0,0.0,2.019625283815961,stabilize,85.0,2.0,0.0,0.0,-2.0,0.01962528381596096,0.0,0,0
1761122152.9843636,17.73067808151245,0.0,0.0,2.0192473559685737,0.0,0.0,-0.0037528753305124825,0.0,0.0,0.0,0.5624660508496738,0.0,0.0,0.0,0.0,0.0,2.0192473559685737,stabilize,85.0,2.0,0.0,0.0,-2.0,0.019247355968573743,0.0,0,0
1761122153.0862122,17.832526683807373,0.0,0.0,2.0188683864609174,0.0,0.0,-0.003605679213466959,0.0,0.0,0.0,0.562695050884378,0.0,0.0,0.0,0.0,0.0,2.0188683864609174,stabilize,85.0,2.0,0.0,0.0,-2.0,0.018868386460917375,0.0,0,0
1761122153.190607,17.9369215965271,0.0,0.0,2.0184970836454337,0.0,0.0,-0.0035022860187125062,0.0,0.0,0.0,0.5626252760879965,0.0,0.0,0.0,0.0,0.0,2.0184970836454337,stabilize,85.0,2.0,0.0,0.0,-2.0,0.018497083645433676,0.0,0,0
1761122153.2932916,18.03960609436035,0.0,0.0,2.0181375747165466,0.0,0.0,-0.0034840943461736194,0.0,0.0,0.0,0.5626184048935349,0.0,0.0,0.0,0.0,0.0,2.0181375747165466,stabilize,85.0,2.0,0.0,0.0,-2.0,0.018137574716546645,0.0,0,0
1761122153.3959002,18.14221477508545,0.0,0.0,2.0177838467758704,0.0,0.0,-0.003399633879343793,0.0,0.0,0.0,0.5626413819304988,0.0,0.0,0.0,0.0,0.0,2.0177838467758704,stabilize,85.0,2.0,0.0,0.0,-2.0,0.017783846775870416,0.0,0,0
1761122153.5013416,18.247656106948853,0.0,0.0,2.0174280938634386,0.0,0.0,-0.003320137920127692,0.0,0.0,0.0,0.5626224033595955,0.0,0.0,0.0,0.0,0.0,2.0174280938634386,stabilize,85.0,2.0,0.0,0.0,-2.0,0.017428093863438576,0.0,0,0
1761122153.6064284,18.352742910385132,0.0,0.0,2.017082288920056,0.0,0.0,-0.0032964439200619446,0.0,0.0,0.0,0.5626366251715271,0.0,0.0,0.0,0.0,0.0,2.017082288920056,stabilize,85.0,2.0,0.0,0.0,-2.0,0.017082288920056143,0.0,0,0
1761122153.7119184,18.458232879638672,0.0,0.0,2.0167401878832814,0.0,0.0,-0.0031705104241916437,0.0,0.0,0.0,0.5626933947658949,0.0,0.0,0.0,0.0,0.0,2.0167401878832814,stabilize,85.0,2.0,0.0,0.0,-2.0,0.016740187883281354,0.0,0,0
1761122153.8156292,18.561943769454956,0.0,0.0,2.016413781053188,0.0,0.0,-0.00314388028287287,0.0,0.0,0.0,0.5626141744237666,0.0,0.0,0.0,0.0,0.0,2.016413781053188,stabilize,85.0,2.0,0.0,0.0,-2.0,0.016413781053187915,0.0,0,0
1761122153.9206607,18.666975259780884,0.0,0.0,2.0160855004849703,0.0,0.0,-0.003066647457054413,0.0,0.0,0.0,0.5626773797160594,0.0,0.0,0.0,0.0,0.0,2.0160855004849703,stabilize,85.0,2.0,0.0,0.0,-2.0,0.01608550048497026,0.0,0,0
1761122154.0239377,18.770252227783203,0.0,0.0,2.015773164783401,0.0,0.0,-0.003003510217998453,0.0,0.0,0.0,0.5626158843171497,0.0,0.0,0.0,0.0,0.0,2.015773164783401,stabilize,85.0,2.0,0.0,0.0,-2.0,0.01577316478340096,0.0,0,0
1761122154.1263237,18.87263822555542,0.0,0.0,2.0154666800599035,0.0,0.0,-0.0029697919372577,0.0,0.0,0.0,0.5626433108041616,0.0,0.0,0.0,0.0,0.0,2.0154666800599035,stabilize,85.0,2.0,0.0,0.0,-2.0,0.015466680059903481,0.0,0,0
1761122154.2308347,18.97714924812317,0.0,0.0,2.0151596726809,0.0,0.0,-0.002878871631201811,0.0,0.0,0.0,0.5626633152790894,0.0,0.0,0.0,0.0,0.0,2.0151596726809,stabilize,85.0,2.0,0.0,0.0,-2.0,0.015159672680900016,0.0,0,0
1761122154.3372061,19.083520650863647,0.0,0.0,2.014854960316561,0.0,0.0,-0.0028163904453104046,0.0,0.0,0.0,0.5627207545226297,0.0,0.0,0.0,0.0,0.0,2.014854960316561,stabilize,85.0,2.0,0.0,0.0,-2.0,0.014854960316561083,0.0,0,0
1761122154.4400377,19.186352252960205,0.0,0.0,2.0145699812113005,0.0,0.0,-0.0027632402306009595,0.0,0.0,0.0,0.5625648790882286,0.0,0.0,0.0,0.0,0.0,2.0145699812113005,stabilize,85.0,2.0,0.0,0.0,-2.0,0.014569981211300487,0.0,0,0
1761122154.5423698,19.288684368133545,0.0,0.0,2.014285805695384,0.0,0.0,-0.002766152170867365,0.0,0.0,0.0,0.5626622555819493,0.0,0.0,0.0,0.0,0.0,2.014285805695384,stabilize,85.0,2.0,0.0,0.0,-2.0,0.014285805695383846,0.0,0,0
1761122154.6449893,19.391303777694702,0.0,0.0,2.014007535598989,0.0,0.0,-0.00266161162333644,0.0,0.0,0.0,0.5626498337907921,0.0,0.0,0.0,0.0,0.0,2.014007535598989,stabilize,85.0,2.0,0.0,0.0,-2.0,0.01400753559898904,0.0,0,0
1761122154.7491004,19.495414972305298,0.0,0.0,2.013731797344513,0.0,0.0,-0.00265149949052425,0.0,0.0,0.0,0.5626331779806053,0.0,0.0,0.0,0.0,0.0,2.013731797344513,stabilize,85.0,2.0,0.0,0.0,-2.0,0.01373179734451302,0.0,0,0
1761122154.8540614,19.60037589073181,0.0,0.0,2.0134580224131855,0.0,0.0,-0.0025655853731647213,0.0,0.0,0.0,0.5625955974224944,0.0,0.0,0.0,0.0,0.0,2.0134580224131855,stabilize,85.0,2.0,0.0,0.0,-2.0,0.0134580224131855,0.0,0,0
1761122154.959581,19.70589542388916,0.0,0.0,2.01318978739683,0.0,0.0,-0.002522284650070718,0.0,0.0,0.0,0.5626476078230789,0.0,0.0,0.0,0.0,0.0,2.01318978739683,stabilize,85.0,2.0,0.0,0.0,-2.0,0.013189787396830077,0.0,0,0
1761122155.063178,19.809492588043213,0.0,0.0,2.01293163895989,0.0,0.0,-0.0024652470135394047,0.0,0.0,0.0,0.5626359904932092,0.0,0.0,0.0,0.0,0.0,2.01293163895989,stabilize,85.0,2.0,0.0,0.0,-2.0,0.012931638959889913,0.0,0,0
1761122155.170601,19.91691541671753,0.0,0.0,2.0126681709287495,0.0,0.0,-0.002411079983543717,0.0,0.0,0.0,0.5626393783046025,0.0,0.0,0.0,0.0,0.0,2.0126681709287495,stabilize,85.0,2.0,0.0,0.0,-2.0,0.0126681709287495,0.0,0,0
1761122155.2741458,20.02046036720276,0.0,0.0,2.0124221130991935,0.0,0.0,-0.002379508853442806,0.0,0.0,0.0,0.5625614416077239,0.0,0.0,0.0,0.0,0.0,2.0124221130991935,stabilize,85.0,2.0,0.0,0.0,-2.0,0.0124221130991935,0.0,0,0
1761122155.3770757,20.123390197753906,0.0,0.0,2.012178785685663,0.0,0.0,-0.0023345052807449123,0.0,0.0,0.0,0.5626518715095233,0.0,0.0,0.0,0.0,0.0,2.012178785685663,stabilize,85.0,2.0,0.0,0.0,-2.0,0.012178785685663218,0.0,0,0
1761122155.4813788,20.22769331932068,0.0,0.0,2.011938381164923,0.0,0.0,-0.00227253068308285,0.0,0.0,0.0,0.5625891915893493,0.0,0.0,0.0,0.0,0.0,2.011938381164923,stabilize,85.0,2.0,0.0,0.0,-2.0,0.011938381164922962,0.0,0,0
1761122155.584766,20.331080436706543,0.0,0.0,2.0117050874172198,0.0,0.0,-0.002231074845872808,0.0,0.0,0.0,0.5626226583399057,0.0,0.0,0.0,0.0,0.0,2.0117050874172198,stabilize,85.0,2.0,0.0,0.0,-2.0,0.011705087417219762,0.0,0,0
1761122155.6868987,20.433213233947754,0.0,0.0,2.0114788256235,0.0,0.0,-0.002199619107324703,0.0,0.0,0.0,0.5626173501345072,0.0,0.0,0.0,0.0,0.0,2.0114788256235,stabilize,85.0,2.0,0.0,0.0,-2.0,0.01147882562350011,0.0,0,0
1761122155.7947352,20.54104971885681,0.0,0.0,2.0112435318201394,0.0,0.0,-0.0021931716707676713,0.0,0.0,0.0,0.5624312687572738,0.0,0.0,0.0,0.0,0.0,2.0112435318201394,stabilize,85.0,2.0,0.0,0.0,-2.0,0.011243531820139374,0.0,0,0
1761122155.9000242,20.64633870124817,0.0,0.0,2.0110217200892313,0.0,0.0,-0.002055289354773798,0.0,0.0,0.0,0.5626212316545047,0.0,0.0,0.0,0.0,0.0,2.0110217200892313,stabilize,85.0,2.0,0.0,0.0,-2.0,0.011021720089231302,0.0,0,0
1761122156.0025501,20.74886465072632,0.0,0.0,2.0108089539047347,0.0,0.0,-0.0020943414811645166,0.0,0.0,0.0,0.5626031776065515,0.0,0.0,0.0,0.0,0.0,2.0108089539047347,stabilize,85.0,2.0,0.0,0.0,-2.0,0.010808953904734686,0.0,0,0
1761122156.1068473,20.853161811828613,0.0,0.0,2.0105932207391626,0.0,0.0,-0.002020957223713319,0.0,0.0,0.0,0.5626554549029429,0.0,0.0,0.0,0.0,0.0,2.0105932207391626,stabilize,85.0,2.0,0.0,0.0,-2.0,0.010593220739162579,0.0,0,0
1761122156.210656,20.95697045326233,0.0,0.0,2.0103864604312522,0.0,0.0,-0.0019752823857554155,0.0,0.0,0.0,0.5626168554853237,0.0,0.0,0.0,0.0,0.0,2.0103864604312522,stabilize,85.0,2.0,0.0,0.0,-2.0,0.010386460431252242,0.0,0,0
1761122156.312893,21.059207439422607,0.0,0.0,2.010185278225994,0.0,0.0,-0.001954471678360683,0.0,0.0,0.0,0.5626199919008497,0.0,0.0,0.0,0.0,0.0,2.010185278225994,stabilize,85.0,2.0,0.0,0.0,-2.0,0.010185278225994132,0.0,0,0
1761122156.415314,21.161628484725952,0.0,0.0,2.0099875034773804,0.0,0.0,-0.0019139101413874703,0.0,0.0,0.0,0.5625815503211878,0.0,0.0,0.0,0.0,0.0,2.0099875034773804,stabilize,85.0,2.0,0.0,0.0,-2.0,0.009987503477380422,0.0,0,0
1761122156.517574,21.263888597488403,0.0,0.0,2.009794147237381,0.0,0.0,-0.0018741117228421864,0.0,0.0,0.0,0.5626180715974495,0.0,0.0,0.0,0.0,0.0,2.009794147237381,stabilize,85.0,2.0,0.0,0.0,-2.0,0.009794147237380812,0.0,0,0
1761122156.6231608,21.36947536468506,0.0,0.0,2.009597562585018,0.0,0.0,-0.0018425726721385725,0.0,0.0,0.0,0.5626554974640434,0.0,0.0,0.0,0.0,0.0,2.009597562585018,stabilize,85.0,2.0,0.0,0.0,-2.0,0.009597562585017982,0.0,0,0
1761122156.7266774,21.472991943359375,0.0,0.0,2.009410402231143,0.0,0.0,-0.0017859517818774842,0.0,0.0,0.0,0.5626208359733499,0.0,0.0,0.0,0.0,0.0,2.009410402231143,stabilize,85.0,2.0,0.0,0.0,-2.0,0.009410402231142978,0.0,0,0
1761122156.8307438,21.5770583152771,0.0,0.0,2.0092249502581123,0.0,0.0,-0.0017589334171634633,0.0,0.0,0.0,0.5626294032368786,0.0,0.0,0.0,0.0,0.0,2.0092249502581123,stabilize,85.0,2.0,0.0,0.0,-2.0,0.009224950258112319,0.0,0,0
1761122156.9352314,21.681545972824097,0.0,0.0,2.0090426683754634,0.0,0.0,-0.0017150475566732005,0.0,0.0,0.0,0.5626263974039702,0.0,0.0,0.0,0.0,0.0,2.0090426683754634,stabilize,85.0,2.0,0.0,0.0,-2.0,0.009042668375463414,0.0,0,0
1761122157.0397806,21.786095142364502,0.0,0.0,2.0088639893878724,0.0,0.0,-0.0016893663226087447,0.0,0.0,0.0,0.5626226707790788,0.0,0.0,0.0,0.0,0.0,2.0088639893878724,stabilize,85.0,2.0,0.0,0.0,-2.0,0.008863989387872362,0.0,0,0
1761122157.1435351,21.88984966278076,0.0,0.0,2.008689998298424,0.0,0.0,-0.0016682306584645077,0.0,0.0,0.0,0.5626251787460707,0.0,0.0,0.0,0.0,0.0,2.008689998298424,stabilize,85.0,2.0,0.0,0.0,-2.0,0.008689998298423873,0.0,0,0
1761122157.2454977,21.991812229156494,0.0,0.0,2.008522438193162,0.0,0.0,-0.001623186382092294,0.0,0.0,0.0,0.562619186677977,0.0,0.0,0.0,0.0,0.0,2.008522438193162,stabilize,85.0,2.0,0.0,0.0,-2.0,0.008522438193161896,0.0,0,0
1761122157.3517375,22.09805202484131,0.0,0.0,2.00835016882335,0.0,0.0,-0.0016022524348306916,0.0,0.0,0.0,0.5626297725946845,0.0,0.0,0.0,0.0,0.0,2.00835016882335,stabilize,85.0,2.0,0.0,0.0,-2.0,0.008350168823350046,0.0,0,0
1761122157.4562747,22.20258927345276,0.0,0.0,2.008186006031692,0.0,0.0,-0.0015476358572201197,0.0,0.0,0.0,0.5626144932396844,0.0,0.0,0.0,0.0,0.0,2.008186006031692,stabilize,85.0,2.0,0.0,0.0,-2.0,0.00818600603169184,0.0,0,0
1761122157.5593367,22.30565118789673,0.0,0.0,2.008026627129602,0.0,0.0,-0.0015399513338483696,0.0,0.0,0.0,0.5626200941750409,0.0,0.0,0.0,0.0,0.0,2.008026627129602,stabilize,85.0,2.0,0.0,0.0,-2.0,0.008026627129602115,0.0,0,0
1761122157.6617017,22.408016204833984,0.0,0.0,2.007870863221795,0.0,0.0,-0.0015021205399902862,0.0,0.0,0.0,0.5626238922781333,0.0,0.0,0.0,0.0,0.0,2.007870863221795,stabilize,85.0,2.0,0.0,0.0,-2.0,0.007870863221794977,0.0,0,0
1761122157.765549,22.511863470077515,0.0,0.0,2.0077160396094382,0.0,0.0,-0.001471293280248777,0.0,0.0,0.0,0.5626259417521201,0.0,0.0,0.0,0.0,0.0,2.0077160396094382,stabilize,85.0,2.0,0.0,0.0,-2.0,0.00771603960943823,0.0,0,0
1761122157.870294,22.61660861968994,0.0,0.0,2.0075629700943742,0.0,0.0,-0.0014497767176667098,0.0,0.0,0.0,0.562637033953289,0.0,0.0,0.0,0.0,0.0,2.0075629700943742,stabilize,85.0,2.0,0.0,0.0,-2.0,0.007562970094374233,0.0,0,0
1761122157.9752638,22.721578359603882,0.0,0.0,2.0074127646801285,0.0,0.0,-0.0014125000101005403,0.0,0.0,0.0,0.5626227124140464,0.0,0.0,0.0,0.0,0.0,2.0074127646801285,stabilize,85.0,2.0,0.0,0.0,-2.0,0.007412764680128525,0.0,0,0
1761122158.0799773,22.826291799545288,0.0,0.0,2.0072659881662753,0.0,0.0,-0.0013857309844960304,0.0,0.0,0.0,0.5626290335220262,0.0,0.0,0.0,0.0,0.0,2.0072659881662753,stabilize,85.0,2.0,0.0,0.0,-2.0,0.007265988166275328,0.0,0,0
1761122158.1815877,22.927902221679688,0.0,0.0,2.0071292957645097,0.0,0.0,-0.0012725047239282897,0.0,0.0,0.0,0.5626129454650227,0.0,0.0,0.0,0.0,0.0,2.0071292957645097,stabilize,85.0,2.0,0.0,0.0,-2.0,0.007129295764509713,0.0,0,0
1761122158.2839458,23.03026032447815,0.0,0.0,2.0069936476716297,0.0,0.0,-0.0013770421283421537,0.0,0.0,0.0,0.5625689681955274,0.0,0.0,0.0,0.0,0.0,2.0069936476716297,stabilize,85.0,2.0,0.0,0.0,-2.0,0.006993647671629688,0.0,0,0
1761122158.3904753,23.136789798736572,0.0,0.0,2.0068486415536033,0.0,0.0,-0.0013058586436626451,0.0,0.0,0.0,0.5626604037993711,0.0,0.0,0.0,0.0,0.0,2.0068486415536033,stabilize,85.0,2.0,0.0,0.0,-2.0,0.0068486415536033185,0.0,0,0
1761122158.4934134,23.23972797393799,0.0,0.0,2.0067181372573275,0.0,0.0,-0.001272626086823467,0.0,0.0,0.0,0.562576791349974,0.0,0.0,0.0,0.0,0.0,2.0067181372573275,stabilize,85.0,2.0,0.0,0.0,-2.0,0.0067181372573275056,0.0,0,0
1761122158.597951,23.344265460968018,0.0,0.0,2.0065849575651082,0.0,0.0,-0.0012766974701621586,0.0,0.0,0.0,0.5626298803799358,0.0,0.0,0.0,0.0,0.0,2.0065849575651082,stabilize,85.0,2.0,0.0,0.0,-2.0,0.00658495756510824,0.0,0,0
1761122158.7031827,23.44949722290039,0.0,0.0,2.0064520010972866,0.0,0.0,-0.0012218971967152977,0.0,0.0,0.0,0.5626198994115941,0.0,0.0,0.0,0.0,0.0,2.0064520010972866,stabilize,85.0,2.0,0.0,0.0,-2.0,0.006452001097286608,0.0,0,0
1761122158.807028,23.553342580795288,0.0,0.0,2.006325924753132,0.0,0.0,-0.0012141747294502768,0.0,0.0,0.0,0.5626088329785557,0.0,0.0,0.0,0.0,0.0,2.006325924753132,stabilize,85.0,2.0,0.0,0.0,-2.0,0.006325924753132206,0.0,0,0
1761122158.9113321,23.657646656036377,0.0,0.0,2.0062001232013587,0.0,0.0,-0.0011811664316540844,0.0,0.0,0.0,0.5626252403832918,0.0,0.0,0.0,0.0,0.0,2.0062001232013587,stabilize,85.0,2.0,0.0,0.0,-2.0,0.006200123201358654,0.0,0,0
1761122159.0161645,23.762479066848755,0.0,0.0,2.0060773268518663,0.0,0.0,-0.0011609649810792547,0.0,0.0,0.0,0.562614719810743,0.0,0.0,0.0,0.0,0.0,2.0060773268518663,stabilize,85.0,2.0,0.0,0.0,-2.0,0.006077326851866349,0.0,0,0
1761122159.1222022,23.86851668357849,0.0,0.0,2.0059548644918395,0.0,0.0,-0.001144262606698494,0.0,0.0,0.0,0.5626529889956638,0.0,0.0,0.0,0.0,0.0,2.0059548644918395,stabilize,85.0,2.0,0.0,0.0,-2.0,0.005954864491839462,0.0,0,0
1761122159.2261565,23.972470998764038,0.0,0.0,2.005838711533703,0.0,0.0,-0.0011092299019847297,0.0,0.0,0.0,0.5625818346369902,0.0,0.0,0.0,0.0,0.0,2.005838711533703,stabilize,85.0,2.0,0.0,0.0,-2.0,0.005838711533702856,0.0,0,0
1761122159.3305497,24.07686424255371,0.0,0.0,2.0057228391711237,0.0,0.0,-0.0011038426973835982,0.0,0.0,0.0,0.5626242319054874,0.0,0.0,0.0,0.0,0.0,2.0057228391711237,stabilize,85.0,2.0,0.0,0.0,-2.0,0.005722839171123706,0.0,0,0
1761122159.4401343,24.18644881248474,0.0,0.0,2.0056040594353837,0.0,0.0,-0.001046902250718171,0.0,0.0,0.0,0.5626164796417393,0.0,0.0,0.0,0.0,0.0,2.0056040594353837,stabilize,85.0,2.0,0.0,0.0,-2.0,0.005604059435383668,0.0,0,0
1761122159.5449212,24.29123568534851,0.0,0.0,2.0054944431286352,0.0,0.0,-0.0010540847032510263,0.0,0.0,0.0,0.5625961735612346,0.0,0.0,0.0,0.0,0.0,2.0054944431286352,stabilize,85.0,2.0,0.0,0.0,-2.0,0.005494443128635229,0.0,0,0
1761122159.6503332,24.396647691726685,0.0,0.0,2.0053835825015978,0.0,0.0,-0.0010356364098440018,0.0,0.0,0.0,0.5626354737282695,0.0,0.0,0.0,0.0,0.0,2.0053835825015978,stabilize,85.0,2.0,0.0,0.0,-2.0,0.005383582501597761,0.0,0,0
1761122159.7545712,24.500885725021362,0.0,0.0,2.0052778984071478,0.0,0.0,-0.0009966629575482448,0.0,0.0,0.0,0.562608826821284,0.0,0.0,0.0,0.0,0.0,2.0052778984071478,stabilize,85.0,2.0,0.0,0.0,-2.0,0.005277898407147763,0.0,0,0
1761122159.857094,24.603408575057983,0.0,0.0,2.00517536772812,0.0,0.0,-0.0009565093836674522,0.0,0.0,0.0,0.5626383340855624,0.0,0.0,0.0,0.0,0.0,2.00517536772812,stabilize,85.0,2.0,0.0,0.0,-2.0,0.005175367728119884,0.0,0,0
1761122159.9627974,24.70911192893982,0.0,0.0,2.0050741827974496,0.0,0.0,-0.0009717689585350924,0.0,0.0,0.0,0.5625825178922629,0.0,0.0,0.0,0.0,0.0,2.0050741827974496,stabilize,85.0,2.0,0.0,0.0,-2.0,0.0050741827974496445,0.0,0,0
1761122160.0661228,24.812437295913696,0.0,0.0,2.0049735211247706,0.0,0.0,-0.0009609396659553169,0.0,0.0,0.0,0.5626285115497938,0.0,0.0,0.0,0.0,0.0,2.0049735211247706,stabilize,85.0,2.0,0.0,0.0,-2.0,0.0049735211247705635,0.0,0,0
1761122160.1704633,24.916777849197388,0.0,0.0,2.0048751957916573,0.0,0.0,-0.0009238234666134225,0.0,0.0,0.0,0.5626151639791062,0.0,0.0,0.0,0.0,0.0,2.0048751957916573,stabilize,85.0,2.0,0.0,0.0,-2.0,0.004875195791657294,0.0,0,0
1761122160.2737112,25.020025730133057,0.0,0.0,2.004780083577724,0.0,0.0,-0.0009216629194806196,0.0,0.0,0.0,0.562606769792749,0.0,0.0,0.0,0.0,0.0,2.004780083577724,stabilize,85.0,2.0,0.0,0.0,-2.0,0.004780083577724081,0.0,0,0
1761122160.3767464,25.123060941696167,0.0,0.0,2.0046863652132916,0.0,0.0,-0.000891998269334943,0.0,0.0,0.0,0.5626145705585888,0.0,0.0,0.0,0.0,0.0,2.0046863652132916,stabilize,85.0,2.0,0.0,0.0,-2.0,0.004686365213291577,0.0,0,0
1761122160.481944,25.22825860977173,0.0,0.0,2.004592911839505,0.0,0.0,-0.0008820852298746362,0.0,0.0,0.0,0.5626022640988332,0.0,0.0,0.0,0.0,0.0,2.004592911839505,stabilize,85.0,2.0,0.0,0.0,-2.0,0.004592911839504943,0.0,0,0
1761122160.5847778,25.331092357635498,0.0,0.0,2.004503614933843,0.0,0.0,-0.0008593558991972094,0.0,0.0,0.0,0.5626063104498304,0.0,0.0,0.0,0.0,0.0,2.004503614933843,stabilize,85.0,2.0,0.0,0.0,-2.0,0.004503614933843103,0.0,0,0
1761122160.6928658,25.439180374145508,0.0,0.0,2.0044112184096874,0.0,0.0,-0.0008266251616145228,0.0,0.0,0.0,0.5626242782282791,0.0,0.0,0.0,0.0,0.0,2.0044112184096874,stabilize,85.0,2.0,0.0,0.0,-2.0,0.00441121840968739,0.0,0,0
1761122160.7948387,25.54115319252014,0.0,0.0,2.004327059948633,0.0,0.0,-0.0008306745766135534,0.0,0.0,0.0,0.5625914756009321,0.0,0.0,0.0,0.0,0.0,2.004327059948633,stabilize,85.0,2.0,0.0,0.0,-2.0,0.0043270599486331385,0.0,0,0
1761122160.8995025,25.645817041397095,0.0,0.0,2.0042401267512213,0.0,0.0,-0.0008190877872411885,0.0,0.0,0.0,0.5626340330452562,0.0,0.0,0.0,0.0,0.0,2.0042401267512213,stabilize,85.0,2.0,0.0,0.0,-2.0,0.004240126751221318,0.0,0,0
1761122161.0017693,25.74808382987976,0.0,0.0,2.0041586259091773,0.0,0.0,-0.000787916491305881,0.0,0.0,0.0,0.5626009337208397,0.0,0.0,0.0,0.0,0.0,2.0041586259091773,stabilize,85.0,2.0,0.0,0.0,-2.0,0.00415862590917726,0.0,0,0
1761122161.1042469,25.850561380386353,-6.985695876151814e-07,0.0,2.004271989060215,-0.00024977065985704435,0.0,0.033913271038139466,0.0,0.005188781589647347,0.0,0.85,0.0,-0.5,0.0,-6.985695876151814e-07,0.0,2.004271989060215,auto,85.0,5,10.0,0.0,-5.0,10.439080433013316,0.005188781589647347,0,0
1761122161.2097356,25.956050157546997,-0.008169510549567395,0.0,2.0241771478174533,-0.2768581464328798,0.0,0.31364261487413764,0.0,0.5643875276096264,0.0,0.85,0.0,-0.5,0.0,-0.008169510549567395,0.0,2.0241771478174533,auto,85.0,5,10.0,0.0,-5.0,10.441215379421394,0.5643875276096264,0,0
1761122161.3144433,26.060757875442505,-0.09252359229986015,0.0,2.04099621382018,-1.4311309362117277,0.0,-0.2893186841604513,0.0,2.0319142356094706,0.0,0.85,0.0,-0.5,0.0,-0.09252359229986015,0.0,2.04099621382018,auto,85.0,5,10.0,0.0,-5.0,10.517354033584484,2.0319142356094706,0,0
1761122161.4171922,26.163506746292114,-0.2635712241614675,0.0,1.9058403500257342,-1.461064963149089,0.0,-2.3500504996224585,0.0,-2.0687560575648276,0.0,0.85,0.0,0.5,0.0,-0.2635712241614675,0.0,1.9058403500257342,auto,85.0,5,10.0,0.0,-5.0,10.719828273482937,2.0687560575648276,0,0
1761122161.5220668,26.268381357192993,-0.3509262911958138,0.0,1.6156937085776433,-0.32681018403257533,0.0,-2.8455003901782194,0.0,-0.37270581236174427,0.0,0.85,0.0,-0.5,0.0,-0.3509262911958138,0.0,1.6156937085776433,auto,85.0,5,10.0,0.0,-5.0,10.89014252248012,0.37270581236174427,0,0
1761122161.6247134,26.371027946472168,-0.39729559234013095,0.0,1.3334492230581116,-0.9089139707681656,0.0,-2.8771198998180716,0.0,1.6428688795388762,0.0,0.85,0.0,-0.5,0.0,-0.39729559234013095,0.0,1.3334492230581116,auto,85.0,5,10.0,0.0,-5.0,11.02485148355245,1.6428688795388762,0,0
1761122161.730879,26.477193593978882,-0.526065247141547,0.0,0.9286796260980954,-0.9806602124968604,0.0,-4.781349830773041,0.0,-1.7822509957957424,0.0,0.85,0.0,0.5,0.0,-0.526065247141547,0.0,0.9286796260980954,auto,85.0,5,10.0,0.0,-5.0,11.28599571034961,1.7822509957957424,0,0
1761122161.8341033,26.58041787147522,-0.5780764863800292,0.0,0.42088031717999164,-0.4148212756868297,0.0,-4.814426157202037,0.0,0.6552955992007878,0.0,0.85,0.0,-0.5,0.0,-0.5780764863800292,0.0,0.42088031717999164,auto,85.0,5,10.0,0.0,-5.0,11.526666440098616,0.6552955992007878,0,0
1761122161.9413683,26.68768286705017,-0.6777732098570881,0.0,-0.1478641110067894,-1.0966399264347961,0.0,-6.231071431098973,0.0,-2.423790223794009,0.0,0.85,0.0,0.5,0.0,-0.6777732098570881,0.0,-0.1478641110067894,auto,85.0,5,10.0,0.0,-5.0,11.85391688964173,2.423790223794009,0,0
1761122162.0440066,26.790321111679077,-0.7354486761055539,0.0,-0.8229273628536424,-0.31039473721692123,0.0,-6.49663698265733,0.0,0.42946586307434775,0.0,0.85,0.0,-0.5,0.0,-0.7354486761055539,0.0,-0.8229273628536424,auto,85.0,5,10.0,0.0,-5.0,12.212957927970036,0.42946586307434775,0,0
1761122162.1470175,26.89333200454712,-0.8166971205056567,0.0,-1.5266926625866997,-1.0086745520094116,0.0,-7.646119693089752,0.0,-2.529130333724693,0.0,0.85,0.0,0.5,0.0,-0.8166971205056567,0.0,-1.5266926625866997,auto,85.0,5,10.0,0.0,-5.0,12.6332360742851,2.529130333724693,0,0
1761122162.2525947,26.99890923500061,-0.8704430355505864,0.0,-2.3665921029403965,-0.38402491341776096,0.0,-7.843532100934274,0.0,0.7794798114268209,0.0,0.85,0.0,-0.5,0.0,-0.8704430355505864,0.0,-2.3665921029403965,auto,85.0,5,10.0,0.0,-5.0,13.131382676635925,0.7794798114268209,0,0
1761122162.3615835,27.107897996902466,-0.9587951515639461,0.0,-3.2806573152234324,-0.6900732069101531,0.0,-9.191315255861877,0.0,-1.6730509533647668,0.0,0.85,0.0,0.5,0.0,-0.9587951515639461,0.0,-3.2806573152234324,auto,85.0,5,10.0,0.0,-5.0,13.735518801490711,1.6730509533647668,0,0
1761122162.4647012,27.211015701293945,-1.0024537244031897,0.0,-4.2214427212276835,-0.7136991607009526,0.0,-9.097910079486661,0.0,1.8353855567538575,0.0,0.85,0.0,-0.5,0.0,-1.0024537244031897,0.0,-4.2214427212276835,auto,85.0,5,10.0,0.0,-5.0,14.355800006217578,1.8353855567538575,0,0
1761122162.569309,27.31562352180481,-1.078247232857425,0.0,-5.249902405029015,-0.2874062508744022,0.0,-10.16633775402915,0.0,-0.45768572499193666,0.0,0.85,0.0,0.5,0.0,-1.078247232857425,0.0,-5.249902405029015,auto,85.0,5,10.0,0.0,-5.0,15.092649239445432,0.45768572499193666,0,0
1761122162.6729321,27.419246673583984,-1.1360551411003548,0.0,-6.299020178076563,-0.8870348951381849,0.0,-10.652691178484337,0.0,-2.8146570373291784,0.0,0.85,0.0,-0.5,0.0,-1.1360551411003548,0.0,-6.299020178076563,auto,85.0,5,10.0,0.0,-5.0,15.864412409232465,2.8146570373291784,0,0
1761122162.7764525,27.522767066955566,-1.1836200490327877,0.0,-7.42671490797473,-0.45102431601019205,0.0,-10.732175898792168,0.0,1.244256828001049,0.0,0.85,0.0,-0.5,0.0,-1.1836200490327877,0.0,-7.42671490797473,auto,85.0,5,10.0,0.0,-5.0,16.718151835810367,1.244256828001049,0,0
1761122162.8799827,27.62629723548889,-1.2500973445898165,0.0,-8.596142896463938,-0.2797213710750122,0.0,-11.662081510463981,0.0,-0.6211634443914598,0.0,0.85,0.0,0.5,0.0,-1.2500973445898165,0.0,-8.596142896463938,auto,85.0,5,10.0,0.0,-5.0,17.647090182911562,0.6211634443914598,0,0
1761122162.9837942,27.730108737945557,-1.3025989062304801,0.0,-9.799379340365205,-0.7221730126525463,0.0,-12.092039170716966,0.0,-2.4181699413670157,0.0,0.85,0.0,0.5,0.0,-1.3025989062304801,0.0,-9.799379340365205,auto,85.0,5,10.0,0.0,-5.0,18.621771422051957,2.4181699413670157,0,0
1761122163.087544,27.833858489990234,-1.3431356444082194,0.0,-11.055071257034768,-0.6302525162979156,0.0,-12.032202663685378,0.0,2.110628134612277,0.0,0.85,0.0,-0.5,0.0,-1.3431356444082194,0.0,-11.055071257034768,auto,85.0,5,10.0,0.0,-5.0,19.65787474056919,2.110628134612277,0,0
1761122163.1958232,27.942137718200684,-1.3940707687758944,0.0,-12.41140552718692,-0.24601642883900146,0.0,-12.42981098076464,0.0,0.7357677889671348,0.0,0.85,0.0,-0.5,0.0,-1.3940707687758944,0.0,-12.41140552718692,auto,85.0,5,10.0,0.0,-5.0,20.80821691342217,0.7357677889671348,0,0
1761122163.3028007,28.04911518096924,-1.4480552587817213,0.0,-13.780069432076715,-0.18963900931619976,0.0,-13.088925671469129,0.0,-0.562484233777465,0.0,0.85,0.0,0.5,0.0,-1.4480552587817213,0.0,-13.780069432076715,auto,85.0,5,10.0,0.0,-5.0,21.994294193761757,0.562484233777465,0,0
1761122163.4101095,28.156424045562744,-1.4934603059160592,0.0,-15.179212261382313,-0.4233755196569994,0.0,-13.490780068860191,0.0,-1.6518136195049036,0.0,0.85,0.0,0.5,0.0,-1.4934603059160592,0.0,-15.179212261382313,auto,85.0,5,10.0,0.0,-5.0,23.222838700158736,1.6518136195049036,0,0
1761122163.513047,28.259361505508423,-1.5293815664744934,0.0,-16.549777165753397,-0.6210875867203489,0.0,-13.559584872791412,0.0,-2.82708095212558,0.0,0.85,0.0,-0.5,0.0,-1.5293815664744934,0.0,-16.549777165753397,auto,85.0,5,10.0,0.0,-5.0,24.44012142357293,2.82708095212558,0,0
1761122163.6167245,28.363039016723633,-1.5629276893249289,0.0,-17.959878975480567,-0.5548167077117016,0.0,-13.550593585482906,0.0,2.4572703991525637,0.0,0.85,0.0,-0.5,0.0,-1.5629276893249289,0.0,-17.959878975480567,auto,85.0,5,10.0,0.0,-5.0,25.707145685923045,2.4572703991525637,0,0
1761122163.7212117,28.46752619743347,-1.597947783966116,0.0,-19.40532526386601,-0.37524059034693735,0.0,-13.663258782421304,0.0,1.6707682361925593,0.0,0.85,0.0,-0.5,0.0,-1.597947783966116,0.0,-19.40532526386601,auto,85.0,5,10.0,0.0,-5.0,27.020960272253483,1.6707682361925593,0,0
1761122163.8266635,28.572978019714355,-1.633881312569918,0.0,-20.88422469806462,-0.20593453305047935,0.0,-13.878572009335723,0.0,1.0196225879852396,0.0,0.85,0.0,-0.5,0.0,-1.633881312569918,0.0,-20.88422469806462,auto,85.0,5,10.0,0.0,-5.0,28.37851797777435,1.0196225879852396,0,0
1761122163.931828,28.678142547607422,-1.6690528538082345,0.0,-22.37607742047533,-0.0963415105918406,0.0,-14.142538654147021,0.0,0.4405110584101133,0.0,0.85,0.0,-0.5,0.0,-1.6690528538082345,0.0,-22.37607742047533,auto,85.0,5,10.0,0.0,-5.0,29.759307946201123,0.4405110584101133,0,0
1761122164.0339508,28.78026533126831,-1.702307144401033,0.0,-23.838869858205666,-0.0625661003000102,0.0,-14.437076515609727,0.0,-0.21808626235616901,0.0,0.85,0.0,0.5,0.0,-1.702307144401033,0.0,-23.838869858205666,auto,85.0,5,10.0,0.0,-5.0,31.122731358292167,0.21808626235616901,0,0
