timestamp,simulation_time,position_x,position_y,position_z,velocity_x,velocity_y,velocity_z,attitude_roll,attitude_pitch,attitude_yaw,control_throttle,control_roll,control_pitch,control_yaw,flight_mode
1761305982.7550123,0.10977697372436523,0.0,0.0,-0.0,0.0,0.0,-0.0,0.0,0.0,0.0,0.0,0.0,0.0,0.0,manual
1761305982.8606765,0.21544122695922852,0.0,0.0,-0.0,0.0,0.0,-0.0,0.0,0.0,0.0,0.0,0.0,0.0,0.0,manual
1761305982.964686,0.31945061683654785,0.0,0.0,-0.0,0.0,0.0,-0.0,0.0,0.0,0.0,0.0,0.0,0.0,0.0,manual
1761305983.0680456,0.42281031608581543,0.0,0.0,-0.0,0.0,0.0,-0.0,0.0,0.0,0.0,0.0,0.0,0.0,0.0,manual
1761305983.223297,0.5780618190765381,0.0,0.0,-0.0,0.0,0.0,-0.0,0.0,0.0,0.0,0.0,0.0,0.0,0.0,manual
1761305983.3266432,0.6814079284667969,0.0,0.0,-0.0,0.0,0.0,-0.0,0.0,0.0,0.0,0.0,0.0,0.0,0.0,manual
1761305983.4333699,0.7881345748901367,0.0,0.0,-0.0,0.0,0.0,-0.0,0.0,0.0,0.0,0.0,0.0,0.0,0.0,manual
1761305983.5383806,0.8931453227996826,0.0,0.0,-0.0,0.0,0.0,-0.0,0.0,0.0,0.0,0.0,0.0,0.0,0.0,manual
1761305983.642666,0.9974308013916016,0.0,0.0,-0.0,0.0,0.0,-0.0,0.0,0.0,0.0,0.0,0.0,0.0,0.0,manual
1761305983.7469237,1.1016883850097656,0.0,0.0,-0.0,0.0,0.0,-0.0,0.0,0.0,0.0,0.0,0.0,0.0,0.0,manual
1761305983.8490527,1.203817367553711,0.0,0.0,-0.0,0.0,0.0,-0.0,0.0,0.0,0.0,0.0,0.0,0.0,0.0,manual
1761305983.9560616,1.310826301574707,0.0,0.0,-0.0,0.0,0.0,-0.0,0.0,0.0,0.0,0.0,0.0,0.0,0.0,manual
1761305984.0596385,1.4144032001495361,0.0,0.0,-0.0,0.0,0.0,-0.0,0.0,0.0,0.0,0.0,0.0,0.0,0.0,manual
1761305984.1638865,1.5186512470245361,0.0,0.0,-0.0,0.0,0.0,-0.0,0.0,0.0,0.0,0.0,0.0,0.0,0.0,manual
1761305984.2700787,1.6248433589935303,0.0,0.0,-0.0,0.0,0.0,-0.0,0.0,0.0,0.0,0.0,0.0,0.0,0.0,manual
1761305984.3828344,1.7375991344451904,0.0,0.0,0.06600239889440966,0.0,0.0,0.8896598401510305,0.0,0.0,0.0,0.4,0.0,0.0,0.0,stabilize
1761305984.487129,1.8418936729431152,0.0,0.0,0.16349715840099457,0.0,0.0,0.9342204913273241,0.0,0.0,0.0,0.4,0.0,0.0,0.0,stabilize
1761305984.5988805,1.9536452293395996,0.0,0.0,0.26927729669438555,0.0,0.0,0.9599847726604355,0.0,0.0,0.0,0.4413641352445572,0.0,0.0,0.0,stabilize
1761305984.7021523,2.0569169521331787,0.0,0.0,0.3696322501559026,0.0,0.0,0.9614577695132236,0.0,0.0,0.0,0.44096068814165335,0.0,0.0,0.0,stabilize
1761305984.8073783,2.1621429920196533,0.0,0.0,0.47047739421479273,0.0,0.0,0.9602834958671647,0.0,0.0,0.0,0.4921415278956325,0.0,0.0,0.0,stabilize
1761305984.9135885,2.268353223800659,0.0,0.0,0.5707300961005568,0.0,0.0,0.932500621564986,0.0,0.0,0.0,0.4309363960410046,0.0,0.0,0.0,stabilize
1761305985.0214138,2.376178503036499,0.0,0.0,0.6699190916044546,0.0,0.0,0.901756287756022,0.0,0.0,0.0,0.4,0.0,0.0,0.0,stabilize
1761305985.126294,2.4810585975646973,0.0,0.0,0.7633060153863587,0.0,0.0,0.8796307865933078,0.0,0.0,0.0,0.4695497185484008,0.0,0.0,0.0,stabilize
1761305985.2337933,2.5885579586029053,0.0,0.0,0.8553562120605109,0.0,0.0,0.8407206580493327,0.0,0.0,0.0,0.4497069794987894,0.0,0.0,0.0,stabilize
1761305985.3394773,2.694242000579834,0.0,0.0,0.9419382161817802,0.0,0.0,0.7986080415718376,0.0,0.0,0.0,0.4227107123771182,0.0,0.0,0.0,stabilize
1761305985.44323,2.797994613647461,0.0,0.0,1.0228294453908944,0.0,0.0,0.7577572542907623,0.0,0.0,0.0,0.4,0.0,0.0,0.0,stabilize
1761305985.547926,2.9026906490325928,0.0,0.0,1.1003069725981116,0.0,0.0,0.716076429618066,0.0,0.0,0.0,0.4,0.0,0.0,0.0,stabilize
1761305985.652763,3.0075275897979736,0.0,0.0,1.173741065519653,0.0,0.0,0.6774264054496426,0.0,0.0,0.0,0.4,0.0,0.0,0.0,stabilize
1761305985.7564125,3.1111772060394287,0.0,0.0,1.2421473930366753,0.0,0.0,0.6394213405096633,0.0,0.0,0.0,0.4,0.0,0.0,0.0,stabilize
1761305985.862294,3.2170586585998535,0.0,0.0,1.3077406770367064,0.0,0.0,0.6009833826989741,0.0,0.0,0.0,0.43726303160790614,0.0,0.0,0.0,stabilize
1761305985.9677567,3.322521448135376,0.0,0.0,1.3689597702526393,0.0,0.0,0.5581144904321245,0.0,0.0,0.0,0.4,0.0,0.0,0.0,stabilize
1761305986.0731747,3.4279394149780273,0.0,0.0,1.4261820371188072,0.0,0.0,0.5235288613170759,0.0,0.0,0.0,0.4,0.0,0.0,0.0,stabilize
1761305986.1775873,3.5323519706726074,0.0,0.0,1.4790816803112952,0.0,0.0,0.48900343380388583,0.0,0.0,0.0,0.4,0.0,0.0,0.0,stabilize
1761305986.2835636,3.6383283138275146,0.0,0.0,1.5290479189138761,0.0,0.0,0.45183907574260357,0.0,0.0,0.0,0.4,0.0,0.0,0.0,stabilize
1761305986.3848577,3.7396223545074463,0.0,0.0,1.573479280713436,0.0,0.0,0.41603497523977695,0.0,0.0,0.0,0.40554167691250487,0.0,0.0,0.0,stabilize
1761305986.4910119,3.8457765579223633,0.0,0.0,1.6168251044774093,0.0,0.0,0.3920490329976104,0.0,0.0,0.0,0.4313410531219707,0.0,0.0,0.0,stabilize
1761305986.5953758,3.9501404762268066,0.0,0.0,1.65622953822792,0.0,0.0,0.36014974131937877,0.0,0.0,0.0,0.4,0.0,0.0,0.0,stabilize
1761305986.7005174,4.055282115936279,0.0,0.0,1.693033872569119,0.0,0.0,0.33562735669594496,0.0,0.0,0.0,0.4,0.0,0.0,0.0,stabilize
1761305986.8053935,4.160158157348633,0.0,0.0,1.7270540627419115,0.0,0.0,0.3088544080606377,0.0,0.0,0.0,0.4,0.0,0.0,0.0,stabilize
1761305986.910218,4.2649827003479,0.0,0.0,1.7585266333990783,0.0,0.0,0.28759560346665214,0.0,0.0,0.0,0.4329598602984361,0.0,0.0,0.0,stabilize
1761305987.014205,4.368969678878784,0.0,0.0,1.7872706647291414,0.0,0.0,0.2698577741688573,0.0,0.0,0.0,0.46820622015978064,0.0,0.0,0.0,stabilize
1761305987.1223598,4.477124452590942,0.0,0.0,1.815127121106851,0.0,0.0,0.24537903782320977,0.0,0.0,0.0,0.4,0.0,0.0,0.0,stabilize
1761305987.2272146,4.581979274749756,0.0,0.0,1.8400299565766198,0.0,0.0,0.2236733692590657,0.0,0.0,0.0,0.4,0.0,0.0,0.0,stabilize
1761305987.3313541,4.686118841171265,0.0,0.0,1.8627966551292454,0.0,0.0,0.20810185188562585,0.0,0.0,0.0,0.4,0.0,0.0,0.0,stabilize
1761305987.4364345,4.791199207305908,0.0,0.0,1.8839086517578545,0.0,0.0,0.1871940622169552,0.0,0.0,0.0,0.4,0.0,0.0,0.0,stabilize
1761305987.542206,4.896970748901367,0.0,0.0,1.9035996798839976,0.0,0.0,0.1795588784384719,0.0,0.0,0.0,0.45545001273618935,0.0,0.0,0.0,stabilize
1761305987.6478257,5.0025904178619385,0.0,0.0,1.9216165051801057,0.0,0.0,0.1603235765920776,0.0,0.0,0.0,0.4,0.0,0.0,0.0,stabilize
1761305987.7543051,5.10906982421875,0.0,0.0,1.938294294249063,0.0,0.0,0.1496044881475404,0.0,0.0,0.0,0.44097196615684275,0.0,0.0,0.0,stabilize
1761305987.8589976,5.213762283325195,0.0,0.0,1.953267474658521,0.0,0.0,0.13571494554023833,0.0,0.0,0.0,0.4,0.0,0.0,0.0,stabilize
1761305987.969755,5.324519634246826,0.0,0.0,1.9675649851331138,0.0,0.0,0.13155621306447485,0.0,0.0,0.0,0.4982555352174458,0.0,0.0,0.0,stabilize
1761305988.0737655,5.428530216217041,0.0,0.0,1.9798343866448544,0.0,0.0,0.10824691037273247,0.0,0.0,0.0,0.4156384450573943,0.0,0.0,0.0,stabilize
1761305988.1796172,5.534381866455078,0.0,0.0,1.9912848053316783,0.0,0.0,0.09739767246824213,0.0,0.0,0.0,0.4096737310003858,0.0,0.0,0.0,stabilize
1761305988.2833145,5.6380791664123535,0.0,0.0,2.001441872822573,0.0,0.0,0.09012911613180069,0.0,0.0,0.0,0.42320469718940523,0.0,0.0,0.0,stabilize
1761305988.3881812,5.742945909500122,0.0,0.0,2.0108087739829457,0.0,0.0,0.08271234566411356,0.0,0.0,0.0,0.43258201372877414,0.0,0.0,0.0,stabilize
1761305988.492351,5.847115755081177,0.0,0.0,2.0191818983901624,0.0,0.0,0.07154212078520941,0.0,0.0,0.0,0.406368918272461,0.0,0.0,0.0,stabilize
1761305988.5969124,5.951677083969116,0.0,0.0,2.0269012577476997,0.0,0.0,0.0700993385903389,0.0,0.0,0.0,0.4,0.0,0.0,0.0,stabilize
1761305988.703274,6.058038711547852,0.0,0.0,2.033958599679577,0.0,0.0,0.0655423784168601,0.0,0.0,0.0,0.4629791919675304,0.0,0.0,0.0,stabilize
1761305988.8098052,6.164569854736328,0.0,0.0,2.040429144558288,0.0,0.0,0.059136552724298734,0.0,0.0,0.0,0.45578389518049855,0.0,0.0,0.0,stabilize
1761305988.9146962,6.269460916519165,0.0,0.0,2.046216549532792,0.0,0.0,0.04613661323619482,0.0,0.0,0.0,0.4,0.0,0.0,0.0,stabilize
1761305989.0203118,6.375076532363892,0.0,0.0,2.051579403787266,0.0,0.0,0.05211156280280635,0.0,0.0,0.0,0.475839490286544,0.0,0.0,0.0,stabilize
1761305989.1259823,6.4807469844818115,0.0,0.0,2.0565108363902804,0.0,0.0,0.04761587486606765,0.0,0.0,0.0,0.4710531043438155,0.0,0.0,0.0,stabilize
1761305989.2306197,6.585384368896484,0.0,0.0,2.0608333174902453,0.0,0.0,0.047080444975051525,0.0,0.0,0.0,0.5014632081713848,0.0,0.0,0.0,stabilize
1761305989.333785,6.688549757003784,0.0,0.0,2.0647129361116345,0.0,0.0,0.03436891602160597,0.0,0.0,0.0,0.4,0.0,0.0,0.0,stabilize
1761305989.4382133,6.792978048324585,0.0,0.0,2.0682156264276643,0.0,0.0,0.031927014350542994,0.0,0.0,0.0,0.4,0.0,0.0,0.0,stabilize
1761305989.5412333,6.895998001098633,0.0,0.0,2.0713181371799063,0.0,0.0,0.03240752708753538,0.0,0.0,0.0,0.4739979763455808,0.0,0.0,0.0,stabilize
1761305989.646129,7.000893592834473,0.0,0.0,2.07421592959138,0.0,0.0,0.02968503263215573,0.0,0.0,0.0,0.47080582316381264,0.0,0.0,0.0,stabilize
1761305989.7487302,7.103494882583618,0.0,0.0,2.076788217320689,0.0,0.0,0.028694653305111,0.0,0.0,0.0,0.4833200886601696,0.0,0.0,0.0,stabilize
1761305989.851702,7.2064666748046875,0.0,0.0,2.079167127758006,0.0,0.0,0.027977147042089794,0.0,0.0,0.0,0.4920637015276087,0.0,0.0,0.0,stabilize
1761305989.9567409,7.311505556106567,0.0,0.0,2.0813484780949785,0.0,0.0,0.01576887540437968,0.0,0.0,0.0,0.4298834618532842,0.0,0.0,0.0,stabilize
1761305990.0597847,7.414549350738525,0.0,0.0,2.0831619304124116,0.0,0.0,0.022862302747467717,0.0,0.0,0.0,0.49417325830779024,0.0,0.0,0.0,stabilize
1761305990.1646848,7.519449472427368,0.0,0.0,2.0847497301512203,0.0,0.0,0.02084344596392923,0.0,0.0,0.0,0.49523879032342694,0.0,0.0,0.0,stabilize
1761305990.268481,7.623245716094971,0.0,0.0,2.0861039880327894,0.0,0.0,0.021827348854360756,0.0,0.0,0.0,0.5108529604835856,0.0,0.0,0.0,stabilize
1761305990.3729692,7.727733850479126,0.0,0.0,2.0873407868869354,0.0,0.0,0.008158826655310574,0.0,0.0,0.0,0.43494971119550374,0.0,0.0,0.0,stabilize
1761305990.4777215,7.832486152648926,0.0,0.0,2.088276639713295,0.0,0.0,0.005453241037994869,0.0,0.0,0.0,0.4301121130837705,0.0,0.0,0.0,stabilize
1761305990.5825965,7.937361240386963,0.0,0.0,2.0890977960620063,0.0,0.0,0.014622478552322037,0.0,0.0,0.0,0.4970569647876314,0.0,0.0,0.0,stabilize
1761305990.6893477,8.04411244392395,0.0,0.0,2.089902821041317,0.0,0.0,0.0016649815219433196,0.0,0.0,0.0,0.41328994821788967,0.0,0.0,0.0,stabilize
1761305990.795071,8.149835586547852,0.0,0.0,2.0906928105936857,0.0,0.0,0.013907875104377052,0.0,0.0,0.0,0.49631375335720096,0.0,0.0,0.0,stabilize
1761305990.900498,8.255262613296509,0.0,0.0,2.091327840624544,0.0,0.0,0.003941405822228402,0.0,0.0,0.0,0.44054431218778367,0.0,0.0,0.0,stabilize
1761305991.0049436,8.359708309173584,0.0,0.0,2.091594039680184,0.0,0.0,-0.0006934585561717559,0.0,0.0,0.0,0.42634073251551785,0.0,0.0,0.0,stabilize
1761305991.110218,8.464982748031616,0.0,0.0,2.0918154504284345,0.0,0.0,-0.0031358613884880622,0.0,0.0,0.0,0.4,0.0,0.0,0.0,stabilize
1761305991.2159693,8.570734024047852,0.0,0.0,2.09208830452757,0.0,0.0,0.00038578401811640087,0.0,0.0,0.0,0.4,0.0,0.0,0.0,stabilize
1761305991.3206282,8.675392866134644,0.0,0.0,2.092154861455345,0.0,0.0,-0.0008559915026022094,0.0,0.0,0.0,0.4,0.0,0.0,0.0,stabilize
1761305991.4302251,8.784989833831787,0.0,0.0,2.09214149655336,0.0,0.0,0.0009545275053114014,0.0,0.0,0.0,0.46299793783760806,0.0,0.0,0.0,stabilize
1761305991.5339222,8.888686895370483,0.0,0.0,2.0920942880349163,0.0,0.0,-0.007327800614774454,0.0,0.0,0.0,0.4,0.0,0.0,0.0,stabilize
1761305991.6352587,8.990023374557495,0.0,0.0,2.092116695987548,0.0,0.0,-0.004243221101436202,0.0,0.0,0.0,0.4278106355138808,0.0,0.0,0.0,stabilize
1761305991.7391386,9.093903303146362,0.0,0.0,2.0922590388595674,0.0,0.0,2.549921502283353e-05,0.0,0.0,0.0,0.4473641600370238,0.0,0.0,0.0,stabilize
1761305991.8445446,9.199309349060059,0.0,0.0,2.0922663512084076,0.0,0.0,-0.0029881646412737604,0.0,0.0,0.0,0.4,0.0,0.0,0.0,stabilize
1761305991.9481797,9.302944421768188,0.0,0.0,2.0925233118990225,0.0,0.0,0.008867536510272615,0.0,0.0,0.0,0.4,0.0,0.0,0.0,stabilize
1761305992.0624018,9.417166471481323,0.0,0.0,2.0929103828610427,0.0,0.0,0.006161388287512552,0.0,0.0,0.0,0.47817501068066004,0.0,0.0,0.0,stabilize
1761305992.1719403,9.526705026626587,0.0,0.0,2.093461627681256,0.0,0.0,-0.013317859962514954,0.0,0.0,0.0,0.4,0.0,0.0,0.0,stabilize
1761305992.313994,9.668758630752563,0.0,0.0,2.095298429452784,0.0,0.0,0.014045241896183197,0.0,0.0,0.0,0.4,0.0,0.0,0.0,stabilize
1761305992.4145527,9.769317388534546,0.0,0.0,2.0931958465142193,0.0,0.0,-0.018946955414102188,0.0,0.0,0.0,0.5461547106108253,0.0,0.0,0.0,stabilize
1761305992.514644,9.86940860748291,0.0,0.0,2.0898500432604026,0.0,0.0,-0.0193238546003852,0.0,0.0,0.0,0.5329328095297472,0.0,0.0,0.0,stabilize
1761305992.6422582,9.997022867202759,0.0,0.0,2.0858988426832434,0.0,0.0,-0.01831076712686202,0.0,0.0,0.0,0.4697372590052174,0.0,0.0,0.0,stabilize
1761305992.7531767,10.107941389083862,0.0,0.0,2.0842414460420597,0.0,0.0,0.04822926122546138,0.0,0.0,0.0,0.508482718292331,0.0,0.0,0.0,stabilize
1761305992.8937347,10.248499393463135,0.0,0.0,2.082594725104337,0.0,0.0,-0.07165493663791206,0.0,0.0,0.0,0.4,0.0,0.0,0.0,stabilize
1761305993.0041332,10.358897924423218,0.0,0.0,2.0810776364140446,0.0,0.0,-0.01112103572204314,0.0,0.0,0.0,0.4,0.0,0.0,0.0,stabilize
1761305993.1140492,10.4688138961792,0.0,0.0,2.080492471178076,0.0,0.0,0.02279227608025428,0.0,0.0,0.0,0.5790205741393613,0.0,0.0,0.0,stabilize
1761305993.2141514,10.568916082382202,0.0,0.0,2.0814534623228704,0.0,0.0,0.0703149081309028,0.0,0.0,0.0,0.4,0.0,0.0,0.0,stabilize
1761305993.3186688,10.673433542251587,0.0,0.0,2.0855068665314302,0.0,0.0,0.03493984525642769,0.0,0.0,0.0,0.4919972498648919,0.0,0.0,0.0,stabilize
1761305993.4478629,10.802627563476562,0.0,0.0,2.0913058763618055,0.0,0.0,0.06328431761166387,0.0,0.0,0.0,0.45084877383952754,0.0,0.0,0.0,stabilize
1761305993.5846848,10.939449548721313,0.0,0.0,2.097879065981445,0.0,0.0,0.08419829695442771,0.0,0.0,0.0,0.4773670495784856,0.0,0.0,0.0,stabilize
1761305993.703917,11.058681726455688,0.0,0.0,2.103652945609242,0.0,0.0,0.024861245580409932,0.0,0.0,0.0,0.4196104695095867,0.0,0.0,0.0,stabilize
1761305993.8134468,11.168211460113525,0.0,0.0,2.1012597792190935,0.0,0.0,-0.06855678370332323,0.0,0.0,0.0,0.4,0.0,0.0,0.0,auto
1761305993.9240758,11.2788405418396,0.0,0.0,2.0884584654992104,0.0,0.0,-0.16285476261769982,0.0,0.0,0.0,0.4,0.0,0.0,0.0,auto
1761305994.0297904,11.384555101394653,0.0,0.0,2.0664846884248345,0.0,0.0,-0.25283790406478546,0.0,0.0,0.0,0.4,0.0,0.0,0.0,auto
1761305994.13605,11.490814685821533,0.0,0.0,2.0348210756967866,0.0,0.0,-0.3430911785958255,0.0,0.0,0.0,0.4,0.0,0.0,0.0,auto
1761305994.2422585,11.597023248672485,0.0,0.0,1.9936026413623733,0.0,0.0,-0.43303850716186726,0.0,0.0,0.0,0.4,0.0,0.0,0.0,auto
1761305994.3472605,11.702025175094604,0.0,0.0,1.943478017704993,0.0,0.0,-0.5216394989214694,0.0,0.0,0.0,0.4,0.0,0.0,0.0,auto
1761305994.4521632,11.806927919387817,0.0,0.0,1.884130377661268,0.0,0.0,-0.6097700298551543,0.0,0.0,0.0,0.4,0.0,0.0,0.0,auto
1761305994.5559938,11.91075849533081,0.0,0.0,1.8165880561819838,0.0,0.0,-0.6853639060016172,0.0,0.0,0.0,0.4,0.0,0.0,0.0,auto
1761305994.6624024,12.017167091369629,0.0,0.0,1.7410529948842066,0.0,0.0,-0.7283475717435348,0.0,0.0,0.0,0.4,0.0,0.0,0.0,auto
1761305994.7675705,12.122335195541382,0.0,0.0,1.6624732096509176,0.0,0.0,-0.7633320973470794,0.0,0.0,0.0,0.4,0.0,0.0,0.0,auto
1761305994.873126,12.227890729904175,0.0,0.0,1.581585308563297,0.0,0.0,-0.7706578344366048,0.0,0.0,0.0,0.4,0.0,0.0,0.0,auto
1761305994.9789574,12.333722114562988,0.0,0.0,1.4998766433217539,0.0,0.0,-0.77078749808768,0.0,0.0,0.0,0.4,0.0,0.0,0.0,auto
1761305995.0882118,12.442976474761963,0.0,0.0,1.416304622135537,0.0,0.0,-0.7364825994905545,0.0,0.0,0.0,0.5678413748388679,0.0,0.0,0.0,auto
1761305995.1937697,12.548534393310547,0.0,0.0,1.337815680335997,0.0,0.0,-0.7378839086181013,0.0,0.0,0.0,0.4,0.0,0.0,0.0,auto
1761305995.2999408,12.65470552444458,0.0,0.0,1.2604825391817185,0.0,0.0,-0.720187415693952,0.0,0.0,0.0,0.4,0.0,0.0,0.0,auto
1761305995.403472,12.758236646652222,0.0,0.0,1.1875076414744257,0.0,0.0,-0.6945691764089775,0.0,0.0,0.0,0.44958041075161354,0.0,0.0,0.0,auto
1761305995.508548,12.863312721252441,0.0,0.0,1.1160184234756985,0.0,0.0,-0.66994244560298,0.0,0.0,0.0,0.4,0.0,0.0,0.0,auto
1761305995.6129227,12.967687368392944,0.0,0.0,1.04798459439629,0.0,0.0,-0.6452004357833433,0.0,0.0,0.0,0.40518622741381644,0.0,0.0,0.0,auto
1761305995.7167504,13.071515083312988,0.0,0.0,0.9835865447576463,0.0,0.0,-0.6094340938435434,0.0,0.0,0.0,0.43937287646342243,0.0,0.0,0.0,auto
1761305995.8205879,13.175352573394775,0.0,0.0,0.9224479781915281,0.0,0.0,-0.5609621446557574,0.0,0.0,0.0,0.5494819610827425,0.0,0.0,0.0,auto
1761305995.9269326,13.281697273254395,0.0,0.0,0.8634450548233986,0.0,0.0,-0.5417199689563421,0.0,0.0,0.0,0.4445049938382153,0.0,0.0,0.0,auto
1761305996.0337417,13.388506412506104,0.0,0.0,0.8075635662323872,0.0,0.0,-0.513003907877381,0.0,0.0,0.0,0.4,0.0,0.0,0.0,auto
1761305996.145062,13.499826669692993,0.0,0.0,0.7524976616916221,0.0,0.0,-0.4936085901186378,0.0,0.0,0.0,0.40941199548389884,0.0,0.0,0.0,auto
1761305996.2519188,13.606683492660522,0.0,0.0,0.703113620668774,0.0,0.0,-0.45524115086640426,0.0,0.0,0.0,0.43825018755382333,0.0,0.0,0.0,auto
1761305996.3575556,13.712320327758789,0.0,0.0,0.6567291198213852,0.0,0.0,-0.4235814698445058,0.0,0.0,0.0,0.48396741743711186,0.0,0.0,0.0,auto
1761305996.4651563,13.819921016693115,0.0,0.0,0.6125740419345795,0.0,0.0,-0.39896121501543647,0.0,0.0,0.0,0.48046594999840064,0.0,0.0,0.0,auto
1761305996.5781527,13.932917356491089,0.0,0.0,0.5682852061669074,0.0,0.0,-0.38379896663551527,0.0,0.0,0.0,0.4287216145944921,0.0,0.0,0.0,auto
1761305996.6826994,14.037464141845703,0.0,0.0,0.530627464086038,0.0,0.0,-0.3507014706507104,0.0,0.0,0.0,0.4,0.0,0.0,0.0,auto
1761305996.786994,14.141758680343628,0.0,0.0,0.49521386969683523,0.0,0.0,-0.32130155201012056,0.0,0.0,0.0,0.5123463365986753,0.0,0.0,0.0,auto
1761305996.8923616,14.247126340866089,0.0,0.0,0.4616474384545972,0.0,0.0,-0.30944020349136797,0.0,0.0,0.0,0.45187051487733026,0.0,0.0,0.0,auto
1761305996.9982924,14.353057146072388,0.0,0.0,0.4300301359557233,0.0,0.0,-0.2793836087980195,0.0,0.0,0.0,0.5144690586168778,0.0,0.0,0.0,auto
1761305997.1029522,14.457716941833496,0.0,0.0,0.40106707758827365,0.0,0.0,-0.27390089564958037,0.0,0.0,0.0,0.4,0.0,0.0,0.0,auto
1761305997.2087743,14.563539028167725,0.0,0.0,0.37381853218599104,0.0,0.0,-0.2494192720698195,0.0,0.0,0.0,0.4,0.0,0.0,0.0,auto
1761305997.31323,14.667994737625122,0.0,0.0,0.3488367473229915,0.0,0.0,-0.22939458240699834,0.0,0.0,0.0,0.46868913409049173,0.0,0.0,0.0,auto
1761305997.419575,14.77433967590332,0.0,0.0,0.3251952655428083,0.0,0.0,-0.2053411111134705,0.0,0.0,0.0,0.5203022583654109,0.0,0.0,0.0,auto
1761305997.5245445,14.879309177398682,0.0,0.0,0.3035325605142119,0.0,0.0,-0.20345782635361806,0.0,0.0,0.0,0.42556014347568516,0.0,0.0,0.0,auto
1761305997.629198,14.983962774276733,0.0,0.0,0.2835186520366359,0.0,0.0,-0.18608687919727862,0.0,0.0,0.0,0.4,0.0,0.0,0.0,auto
1761305997.7361457,15.0909104347229,0.0,0.0,0.26442064016349615,0.0,0.0,-0.16147851502702432,0.0,0.0,0.0,0.5202574391365178,0.0,0.0,0.0,auto
1761305997.8405244,15.195289134979248,0.0,0.0,0.2472571811443112,0.0,0.0,-0.161644579121487,0.0,0.0,0.0,0.4,0.0,0.0,0.0,auto
1761305997.9439502,15.298714876174927,0.0,0.0,0.23150982363594938,0.0,0.0,-0.14929557937830626,0.0,0.0,0.0,0.44442151780672007,0.0,0.0,0.0,auto
1761305998.0488634,15.40362811088562,0.0,0.0,0.2164424399913247,0.0,0.0,-0.1355683904909647,0.0,0.0,0.0,0.4,0.0,0.0,0.0,auto
1761305998.1570318,15.511796474456787,0.0,0.0,0.2020716531818999,0.0,0.0,-0.12426445214967784,0.0,0.0,0.0,0.4794990456234133,0.0,0.0,0.0,auto
1761305998.2636628,15.618427515029907,0.0019437402935014126,0.0,0.21825315462511524,0.09168064526845399,0.0,0.6614224104411653,0.0,-0.1451148875385692,0.0,0.9,0.0,-0.2,0.0,auto
1761305998.3678312,15.722595930099487,0.03183907351760212,0.0,0.33507285175446705,0.44702497060937907,0.0,1.4278204493226243,0.0,-0.1293873104646223,0.0,0.783494466089228,0.0,0.2,0.0,auto
1761305998.4730456,15.827810287475586,0.08290566724430429,0.0,0.49648809899560675,0.5199892965502597,0.0,1.6794453119887671,0.0,-0.09621445109250303,0.0,0.6822094732277829,0.0,0.011104320390854388,0.0,auto
1761305998.5783124,15.933077096939087,0.1425757418144483,0.0,0.6846240029277089,0.5944704067814233,0.0,1.871498397638559,0.0,-0.06371262557696164,0.0,0.4,0.0,-0.1349388550692705,0.0,auto
1761305998.6837392,16.038503885269165,0.20989795740981504,0.0,0.8961561876925437,0.6616022403205232,0.0,2.1033414310871743,0.0,-0.03757664214279577,0.0,0.4,0.0,-0.2,0.0,auto
1761305998.7880838,16.1428484916687,0.2825667101719191,0.0,1.1243815766841538,0.7173050642291833,0.0,2.280821046226438,0.0,-0.015745544133713877,0.0,0.4,0.0,-0.2,0.0,auto
1761305998.8951232,16.249887943267822,0.3621052026831798,0.0,1.372549292688084,0.7621191378397835,0.0,2.3150938914102293,0.0,-0.007278190730887838,0.0,0.42452521573456464,0.0,-0.1658953014492752,0.0,auto
1761305998.9999835,16.354748249053955,0.4435801313610046,0.0,1.6115567019755515,0.7958337095387539,0.0,2.238320676952805,0.0,-0.016050349325339667,0.0,0.4,0.0,-0.03136568928325509,0.0,auto
1761305999.1047885,16.459553241729736,0.5280179196610767,0.0,1.8422032263054755,0.8232244634212246,0.0,2.155657429029358,0.0,-0.029210514573211367,0.0,0.4,0.0,0.07476212601026029,0.0,auto
1761305999.211921,16.566685676574707,0.6170808654306777,0.0,2.0686731042389335,0.8519856553316455,0.0,2.0742040546882596,0.0,-0.09530398542948536,0.0,0.4,0.0,-0.2,0.0,auto
1761305999.3175068,16.672271490097046,0.7157356355703974,0.0,2.2834021434340492,1.0536710405482494,0.0,1.9818784374340974,0.0,-0.31890023055278177,0.0,0.4,0.0,0.2,0.0,auto
1761305999.4228256,16.77759027481079,0.8400655071176324,0.0,2.4869024823693193,1.2713809037932726,0.0,1.8887924128557592,0.0,-0.11822333689418935,0.0,0.4,0.0,0.13897434186570945,0.0,auto
1761305999.527226,16.881990671157837,0.9774742476301201,0.0,2.6795282651653842,1.3718517476216836,0.0,1.803640266689036,0.0,-0.1310342256825117,0.0,0.4,0.0,0.2,0.0,auto
1761305999.6340244,16.988789081573486,1.128361424056415,0.0,2.8669412167097463,1.4566112094524042,0.0,1.705848222692721,0.0,-0.11954326553961693,0.0,0.4,0.0,0.14977176018466326,0.0,auto
1761305999.7404714,17.09523606300354,1.2873598661844294,0.0,3.0432543960565273,1.5285552632867885,0.0,1.6053020980981332,0.0,-0.10438237556160641,0.0,0.4,0.0,0.08389475870468281,0.0,auto
1761305999.848177,17.20294165611267,1.455417347491031,0.0,3.2106578784772597,1.5783034443081247,0.0,1.5015215328251117,0.0,-0.03102426373774514,0.0,0.4,0.0,-0.02446246820577224,0.0,auto
1761305999.952152,17.3069167137146,1.6202608768461164,0.0,3.3615418101641494,1.5949493286795846,0.0,1.4017191829671531,0.0,-0.033602308558865326,0.0,0.4,0.0,0.041798069897592785,0.0,auto
1761306000.057004,17.411768674850464,1.787778309861718,0.0,3.5033293970393937,1.6006484095924347,0.0,1.302258761542017,0.0,-0.028725254443397102,0.0,0.4,0.0,0.02458631067875013,0.0,auto
1761306000.162883,17.517647743225098,1.9574244861274497,0.0,3.6359721681006683,1.599551897654903,0.0,1.20286318211906,0.0,-0.007833952620760191,0.0,0.4,0.0,-0.030335844102704485,0.0,auto
1761306000.269306,17.624070644378662,2.1275832469285203,0.0,3.7590086316017404,1.5937572326310134,0.0,1.1113052313788259,0.0,0.009381469674880549,0.0,0.4,0.0,-0.1272418666062377,0.0,auto
1761306000.3764472,17.73121190071106,2.297175913850896,0.0,3.8728232482396434,1.5843815546033162,0.0,1.0233844345472642,0.0,0.017293012753289656,0.0,0.4,0.0,-0.027155046454389466,0.0,auto
1761306000.480799,17.83556365966797,2.462445534426053,0.0,3.9760540460658373,1.5711211707887491,0.0,0.9460320460871854,0.0,0.010011998673932813,0.0,0.4189028581945977,0.0,0.00776574015874525,0.0,auto
1761306000.5840175,17.938782215118408,2.6234208587044088,0.0,4.069777427742305,1.5512736270514087,0.0,0.8707057791982861,0.0,0.0037473310608791533,0.0,0.4,0.0,0.0470440240924844,0.0,auto
1761306000.6959658,18.05073046684265,2.7941247188950538,0.0,4.162228444861829,1.5479143072329007,0.0,0.8065195281379876,0.0,-0.10813869068548562,0.0,0.4062719830418649,0.0,-0.15721403506582393,0.0,auto
1761306000.7989554,18.153720140457153,2.960150074070054,0.0,4.243617206763874,1.6018013422189235,0.0,0.7494540256716337,0.0,0.020818261775318224,0.0,0.4,0.0,-0.19484948226666488,0.0,auto
1761306000.9016342,18.256398916244507,3.124715543235315,0.0,4.31765033783217,1.614993146907969,0.0,0.693607662258773,0.0,-0.01036906120471633,0.0,0.4,0.0,0.2,0.0,auto
1761306001.0049806,18.359745264053345,3.2894150778802445,0.0,4.386300661246962,1.575074580997445,0.0,0.6357766922449359,0.0,0.0013738473059149532,0.0,0.4,0.0,0.13819644784069735,0.0,auto
1761306001.107175,18.461939811706543,3.4481458301329777,0.0,4.448839204024089,1.5205595880611122,0.0,0.5847500126540769,0.0,0.07279089023290886,0.0,0.4,0.0,0.04179793425593999,0.0,auto
1761306001.2101307,18.564895391464233,3.601627115457508,0.0,4.507053339617866,1.4800263635925162,0.0,0.5436971406861714,0.0,0.006869384047778946,0.0,0.4,0.0,0.2,0.0,auto
1761306001.3146322,18.66939687728882,3.7536200107705233,0.0,4.561270769485859,1.4342283277694852,0.0,0.500701991464091,0.0,0.00026235274877006894,0.0,0.44934123701239703,0.0,0.12821064275423333,0.0,auto
1761306001.4202323,18.774996995925903,3.902983390390895,0.0,4.611492005209177,1.3891341085726576,0.0,0.45503317247014996,0.0,0.009803332843402245,0.0,0.4386015756951879,0.0,-0.01632070831575022,0.0,auto
1761306001.5268009,18.8815655708313,4.049507975712153,0.0,4.657784885913803,1.3509432543249869,0.0,0.4134090011479183,0.0,0.024188199718422725,0.0,0.4207282539357474,0.0,-0.06504741138879347,0.0,auto
1761306001.6299396,18.98470425605774,4.187389647993386,0.0,4.698669065522309,1.3149239700060833,0.0,0.37886759776354373,0.0,0.0326978633912619,0.0,0.4184513980650579,0.0,-0.1312002899422317,0.0,auto
1761306001.7348123,19.089576959609985,4.324013574605031,0.0,4.736740155219266,1.2821848794738009,0.0,0.34733410999751035,0.0,0.04482977119204771,0.0,0.4,0.0,-0.14711582954759927,0.0,auto
1761306001.8389878,19.19375252723694,4.45623884159507,0.0,4.7713888398380675,1.2520689203504967,0.0,0.3232147605042925,0.0,0.05231204348583576,0.0,0.4593542218287731,0.0,-0.1484164859137189,0.0,auto
1761306001.9449573,19.29972195625305,4.587422019065988,0.0,4.803616290161327,1.2253167535172407,0.0,0.285912096697572,0.0,0.054334524938967683,0.0,0.4,0.0,-0.06776506237104289,0.0,auto
1761306002.049351,19.404115676879883,4.713281007635821,0.0,4.832960671193671,1.1973817349339033,0.0,0.26457019290333417,0.0,0.03163047899527367,0.0,0.4,0.0,0.1032199271077068,0.0,auto
1761306002.151062,19.505826711654663,4.832941499817443,0.0,4.858999449687479,1.1693548555835056,0.0,0.2421713486524395,0.0,-0.01455795534597534,0.0,0.4,0.0,0.2,0.0,auto
1761306002.2570271,19.611791849136353,4.954901631177621,0.0,4.883804699732324,1.124862997219946,0.0,0.21979233699920284,0.0,0.006375938061688787,0.0,0.4,0.0,-0.109526372667744,0.0,auto
1761306002.3627248,19.71748948097229,5.073451421329182,0.0,4.906561501132554,1.102669980391487,0.0,0.20979999152700984,0.0,0.04277772399913435,0.0,0.4,0.0,-0.2,0.0,auto
1761306002.4664898,19.82125449180603,5.187006344701972,0.0,4.926954233419549,1.0808010082077928,0.0,0.1862347869939463,0.0,0.05056186204880053,0.0,0.419274602400477,0.0,-0.14426277199882365,0.0,auto
1761306002.577441,19.93220567703247,5.304312168163229,0.0,4.946608080603426,1.055550283259094,0.0,0.17124095636813036,0.0,0.03705075380591685,0.0,0.43535330284036383,0.0,-0.13217846740000494,0.0,auto
1761306002.678997,20.033761739730835,5.410063703822378,0.0,4.963163943412155,1.0188182369088223,0.0,0.1624040208708592,0.0,-0.02076425766687477,0.0,0.4826089528634243,0.0,0.16638658949039828,0.0,auto
1761306002.7817636,20.136528253555298,5.513927426650384,0.0,4.978550800465557,0.9952799091656248,0.0,0.14240480509596673,0.0,-1.9046532697148538e-06,0.0,0.447971060722316,0.0,-0.01963615951961894,0.0,auto
1761306002.8857768,20.240541458129883,5.616866846730587,0.0,4.992670421644782,0.9729358323930231,0.0,0.12748176407068543,0.0,0.02113324564035627,0.0,0.4,0.0,-0.14518842900208345,0.0,auto
1761306002.989598,20.34436273574829,5.717307483830789,0.0,5.005371913790004,0.9522804179602384,0.0,0.11756881628333529,0.0,0.03743838570128095,0.0,0.4,0.0,-0.1734833951999985,0.0,auto
1761306003.092645,20.447409629821777,5.814721041676923,0.0,5.016853663334649,0.934966841230215,0.0,0.10316210457497851,0.0,0.04217471881447928,0.0,0.4,0.0,-0.12473026210514526,0.0,auto
1761306003.1984813,20.553246021270752,5.912545917706071,0.0,5.027609565566022,0.9158672632965804,0.0,0.10367797558666436,0.0,0.04023038999580868,0.0,0.4911971505703534,0.0,-0.05522438310972415,0.0,auto
1761306003.3014472,20.656211853027344,6.005426594081179,0.0,5.037115570466935,0.8967128322261583,0.0,0.0838244969067623,0.0,0.020287327775559,0.0,0.41638021843376144,0.0,0.0781621234316168,0.0,auto
1761306003.4078872,20.762651920318604,6.0993058107629725,0.0,5.046125029691541,0.8749723758724985,0.0,0.08097159771707416,0.0,0.014250947992116642,0.0,0.4,0.0,0.14429870020351288,0.0,auto
1761306003.513073,20.86783766746521,6.189755623356065,0.0,5.054259899413886,0.853687720390364,0.0,0.07147521331408842,0.0,0.0010125007818168842,0.0,0.4,0.0,0.13457756948603378,0.0,auto
1761306003.6175034,20.972268104553223,6.277543216500514,0.0,5.061563984802344,0.831500785685385,0.0,0.06771831225343615,0.0,-0.0035135989889371433,0.0,0.4550348188621127,0.0,0.08418429160434637,0.0,auto
1761306003.7216783,21.07644295692444,6.3631693681013335,0.0,5.067951946879977,0.8091747008045205,0.0,0.05375703910883191,0.0,0.0017175201621506785,0.0,0.41799844562735655,0.0,-0.0011220510901958202,0.0,auto
1761306003.824496,21.179260730743408,6.445824147420285,0.0,5.073654272602437,0.7906763441496254,0.0,0.05413515717729739,0.0,0.017032354590097984,0.0,0.4537717984850764,0.0,-0.09843955195157732,0.0,auto
1761306003.9303837,21.28514838218689,6.529081505923294,0.0,5.079015749837967,0.7743128011325354,0.0,0.04686623708208183,0.0,0.03155073586320632,0.0,0.4295551175172056,0.0,-0.13612693325535236,0.0,auto
1761306004.0347633,21.389528036117554,6.609199107652754,0.0,5.083635644824099,0.7582343806796946,0.0,0.04376331516934228,0.0,0.033739539153223495,0.0,0.45202665302038386,0.0,-0.09449839225705808,0.0,auto
1761306004.139433,21.494197607040405,6.6877181948429065,0.0,5.087784175642428,0.7437130951699333,0.0,0.035041174985030676,0.0,0.033133363142389585,0.0,0.43354614871652314,0.0,-0.049637620086254886,0.0,auto
1761306004.2461822,21.60094690322876,6.765978531535891,0.0,5.0914768883811945,0.728470377766354,0.0,0.02686329502243022,0.0,0.026309751306656352,0.0,0.4,0.0,0.00420169531046034,0.0,auto
1761306004.3505874,21.705352067947388,6.840677440150167,0.0,5.094800404468488,0.7106610443137303,0.0,0.03565558683836963,0.0,0.009793904437822642,0.0,0.48653963939216555,0.0,0.09228492748296754,0.0,auto
1761306004.4558148,21.810579538345337,6.914256968154249,0.0,5.097867044268612,0.6939004384127823,0.0,0.0261410906961577,0.0,-0.00029600068180810334,0.0,0.4,0.0,0.11132078403015794,0.0,auto
1761306004.5616105,21.916375160217285,6.986566423674499,0.0,5.100539056034036,0.6753197051931205,0.0,0.02795807822565069,0.0,-0.0021736657758026586,0.0,0.4759510986449199,0.0,0.06741209410182201,0.0,auto
1761306004.66757,22.022334814071655,7.0573141376698,0.0,5.102858559869505,0.6580653967738517,0.0,0.029027839356264677,0.0,0.002091250035709929,0.0,0.5063417080133156,0.0,0.011416143570102658,0.0,auto
1761306004.773046,22.12781071662903,7.126105774888999,0.0,5.104951832970444,0.6418140959098099,0.0,0.016687735771762316,0.0,0.009642815634002919,0.0,0.4,0.0,-0.027826550746597064,0.0,auto
1761306004.8801794,22.234944105148315,7.1943350877829415,0.0,5.106659702360634,0.6271015416041551,0.0,0.013346068704642536,0.0,0.014478619887756308,0.0,0.4,0.0,-0.05689225350884059,0.0,auto
1761306004.9830058,22.337770462036133,7.258235895387275,0.0,5.107904486670956,0.6127880187470471,0.0,0.012714591591517724,0.0,0.015495105070639321,0.0,0.4556137734076394,0.0,-0.04886093704411274,0.0,auto
1761306005.0879426,22.442707300186157,7.3220121350007625,0.0,5.109016148175927,0.6005178719020685,0.0,0.009112829315713245,0.0,0.019944735102784075,0.0,0.4,0.0,-0.032314421460277284,0.0,auto
1761306005.196459,22.551223754882812,7.386434871846815,0.0,5.109901100131181,0.5869692799557819,0.0,0.0021418581306632822,0.0,0.023677520223471166,0.0,0.4,0.0,-0.03722145139632563,0.0,auto
1761306005.301674,22.65643858909607,7.44733930881481,0.0,5.110555281540397,0.5740685709897528,0.0,0.005324374846764752,0.0,0.016378944254599945,0.0,0.4,0.0,0.02239681354006025,0.0,auto
1761306005.4059398,22.760704517364502,7.506317392433074,0.0,5.111003833300887,0.5614068914232685,0.0,0.00582258603089799,0.0,0.009661127273362623,0.0,0.46194521630087043,0.0,0.02911136685822798,0.0,auto
1761306005.5095446,22.864309310913086,7.563601507210709,0.0,5.111409284954811,0.5476048615115953,0.0,0.003049613955141209,0.0,0.004519439938449015,0.0,0.4,0.0,0.05521361040944803,0.0,auto
1761306005.6150165,22.969781160354614,7.620603250879364,0.0,5.111735439829344,0.5344734516964326,0.0,0.0010134578261439082,0.0,0.005393452291382293,0.0,0.43782204188023804,0.0,0.04596515810230033,0.0,auto
1761306005.7193692,23.07413387298584,7.675664603983873,0.0,5.1118255013527705,0.5206431694878395,0.0,0.0033978880102974113,0.0,0.006604235351728414,0.0,0.4699664170831836,0.0,0.011850050340463696,0.0,auto
1761306005.823126,23.17789077758789,7.729162176597088,0.0,5.111772693187415,0.5088340143219647,0.0,0.006062793500380833,0.0,0.01002669337034344,0.0,0.4973935851007273,0.0,-0.00760580021807147,0.0,auto
1761306005.9279482,23.282712936401367,7.781986750721817,0.0,5.111653500978771,0.4975079842610697,0.0,-0.005300658016698416,0.0,0.014353663721817176,0.0,0.4225996210814225,0.0,-0.022745406258828385,0.0,auto
1761306006.034097,23.388861656188965,7.834216353701391,0.0,5.111543864026244,0.4857664372890386,0.0,0.0021715306575453477,0.0,0.015756269110856657,0.0,0.47125287609330213,0.0,-0.04056043167456261,0.0,auto
1761306006.1406271,23.495391845703125,7.88540872629176,0.0,5.111439105969885,0.47531060560445676,0.0,0.008947613108791608,0.0,0.015370827715856862,0.0,0.5179282874339223,0.0,-0.0007895659137972979,0.0,auto
1761306006.2449336,23.599698305130005,7.934328936533301,0.0,5.111480471271816,0.46461442350954274,0.0,0.007482400579834091,0.0,0.00993085137678409,0.0,0.4996331572775363,0.0,0.010179254049737784,0.0,auto
1761306006.351018,23.705782651901245,7.98296536061816,0.0,5.111397138240074,0.45355667723996895,0.0,-0.0029448700927630096,0.0,0.008473739742411166,0.0,0.43545919574904157,0.0,0.01347437060506625,0.0,auto
1761306006.4532788,23.808043479919434,8.028609203460748,0.0,5.111247935992375,0.4353083691932625,0.0,0.001100475345966947,0.0,0.013261740753434463,0.0,0.46013075160729167,0.0,-0.10102305023759806,0.0,auto
1761306006.5579731,23.91273784637451,8.074178611090518,0.0,5.111133485468773,0.42867167614364887,0.0,-0.004124348546453981,0.0,0.02421394056455435,0.0,0.4,0.0,-0.12608931986587046,0.0,auto
1761306006.664543,24.019307613372803,8.11960730429475,0.0,5.111050052575806,0.42150303682472706,0.0,-0.005508550663302584,0.0,0.03002389922651678,0.0,0.4,0.0,-0.08304224413105077,0.0,auto
1761306006.7721386,24.126903295516968,8.164342500260005,0.0,5.110915606719129,0.4130629988426991,0.0,-0.004207096135547048,0.0,0.025673407946342548,0.0,0.4327371438370175,0.0,-0.04307969316940811,0.0,auto
1761306006.877671,24.232435703277588,8.20718638231055,0.0,5.110710445577352,0.4048194740639708,0.0,-0.005243921102380346,0.0,0.015386916659486414,0.0,0.42665300353858554,0.0,0.03331563068177242,0.0,auto
1761306006.9820426,24.336807250976562,8.248576778594163,0.0,5.11046034039653,0.39539621550117854,0.0,0.002838664242530039,0.0,0.002120578187970291,0.0,0.4819675830850428,0.0,0.088111450144787,0.0,auto
1761306007.083046,24.43781065940857,8.287774109854919,0.0,5.110187654925297,0.3861089294424394,0.0,0.012904762927233766,0.0,-0.012705209194325696,0.0,0.5233531141028719,0.0,0.2,0.0,auto
1761306007.18837,24.543134689331055,8.327577917451562,0.0,5.110558241791308,0.37285661457984637,0.0,0.002499014753985943,0.0,-0.02241981766953495,0.0,0.4,0.0,0.13550804570632266,0.0,auto
1761306007.294233,24.64899778366089,8.366779975870065,0.0,5.11064491020537,0.3625326153746386,0.0,-0.003349241380753166,0.0,-0.012091661431117147,0.0,0.4,0.0,0.030813950401690358,0.0,auto
1761306007.4014697,24.756234407424927,8.405615641599017,0.0,5.110567856276207,0.3531774961429491,0.0,-0.004824827419119201,0.0,0.002031644317169354,0.0,0.4,0.0,-0.06766196813206865,0.0,auto
1761306007.5071063,24.861871004104614,8.44296071967473,0.0,5.110394619495623,0.3455105342616773,0.0,-0.007799464395269714,0.0,0.014604570547937047,0.0,0.4050434845102867,0.0,-0.11074852225307298,0.0,auto
1761306007.610635,24.965399742126465,8.478686204349643,0.0,5.1100578145836835,0.3393277752407123,0.0,0.0026076495092461262,0.0,0.02258209403921644,0.0,0.48869334479187865,0.0,-0.1069048278575912,0.0,auto
1761306007.714532,25.06929659843445,8.51371104140051,0.0,5.109548984262568,0.3334506425940778,0.0,0.002373040142486663,0.0,0.022840737209018046,0.0,0.5006669183311788,0.0,-0.06975625649409173,0.0,auto
1761306007.8210611,25.175825834274292,8.548817913390229,0.0,5.108959984066971,0.32760681740115544,0.0,-0.006877294971876828,0.0,0.019810932473459004,0.0,0.4,0.0,-0.019887183654127196,0.0,auto
1761306007.9267251,25.281489849090576,8.582816501066663,0.0,5.108343801428671,0.3209104559306185,0.0,-0.008431920547947978,0.0,0.011667432907094344,0.0,0.4294409765841189,0.0,0.031482636926860354,0.0,auto
1761306008.0301178,25.38488245010376,8.615290864980066,0.0,5.1078563382386575,0.3127920519650666,0.0,-0.0091792912840265,0.0,0.0005803934119592395,0.0,0.4,0.0,0.07591029512504263,0.0,auto
1761306008.1330502,25.487814903259277,8.646912236537892,0.0,5.107283419751328,0.3046487402606666,0.0,-0.003994610179718202,0.0,-0.004610520764739377,0.0,0.4604240547500197,0.0,0.07104368685974671,0.0,auto
1761306008.238124,25.592888593673706,8.678488370337082,0.0,5.1067088544981445,0.29568576841941474,0.0,-0.009636020031370231,0.0,-0.002518660027159782,0.0,0.4,0.0,0.02360394350669476,0.0,auto
1761306008.342266,25.697030782699585,8.70906604890379,0.0,5.106023558295449,0.28831688852360354,0.0,-0.01085488256643035,0.0,0.003585159770213538,0.0,0.42269090305731066,0.0,-0.03396025255112105,0.0,auto
1761306008.446236,25.801000595092773,8.738901078873834,0.0,5.105350351617305,0.2819017431950425,0.0,0.0007761148150764816,0.0,0.009405087008085719,0.0,0.4940311734645375,0.0,-0.06336650467548277,0.0,auto
1761306008.5495756,25.904340267181396,8.767872127627443,0.0,5.104585654771832,0.2760776787130552,0.0,-0.01167586886195866,0.0,0.012739905959319502,0.0,0.4,0.0,-0.06467415368532736,0.0,auto
1761306008.6590931,26.0138578414917,8.79781167518536,0.0,5.104229378673781,0.2676238445497834,0.0,-0.004704098761101215,0.0,0.014111959737380135,0.0,0.4405494041514307,0.0,-0.08905982564680143,0.0,auto
1761306008.7634144,26.118179082870483,8.825484696869063,0.0,5.103706811505666,0.2634029347243347,0.0,-0.00571229600462247,0.0,0.01718771705191162,0.0,0.44802433352963944,0.0,-0.06419843220270342,0.0,auto
1761306008.868102,26.222866773605347,8.85291312671286,0.0,5.103100872308193,0.2586591812822378,0.0,-0.006957720728626998,0.0,0.015619222329075002,0.0,0.43642443495307426,0.0,-0.0266357729356006,0.0,auto
1761306008.9734788,26.328243494033813,8.879760440079595,0.0,5.102439419267695,0.2538566205326948,0.0,-0.012663912698071555,0.0,0.01166358707136456,0.0,0.4,0.0,0.009489320533040345,0.0,auto
1761306009.079416,26.434180736541748,8.906128224640772,0.0,5.101792445721458,0.24800460135531105,0.0,-0.0071420700850185126,0.0,0.005587188355953375,0.0,0.44458139082997367,0.0,0.038461684281112865,0.0,auto
1761306009.1862555,26.541020154953003,8.93210323799397,0.0,5.1010260598257515,0.24165558148375424,0.0,-0.006409520282635349,0.0,0.001042070382882124,0.0,0.45952004054003864,0.0,0.057010292919825664,0.0,auto
1761306009.2899191,26.644683837890625,8.956709454602546,0.0,5.100255828503382,0.23541126442784763,0.0,-0.009351027090262042,0.0,-0.0025783001470084253,0.0,0.4,0.0,0.0468157526436411,0.0,auto
1761306009.4002573,26.755022048950195,8.98231121562434,0.0,5.099314839759121,0.22945200226824147,0.0,0.009807790292835919,0.0,-0.004371055731619674,0.0,0.5692812580681732,0.0,0.07554710889610212,0.0,auto
1761306009.503927,26.858691692352295,9.005712680846305,0.0,5.098755705200357,0.22218517733638182,0.0,-0.006833470318588088,0.0,-0.00623579461751207,0.0,0.4,0.0,0.03713869652281373,0.0,auto
1761306009.6119237,26.96668839454651,9.029564749377599,0.0,5.0979409060252046,0.21641871903936113,0.0,-0.007507552665563596,0.0,-0.0010998790727008876,0.0,0.4496918019157876,0.0,-0.01014487752313357,0.0,auto
1761306009.7211502,27.07591485977173,9.053064714649281,0.0,5.09703244659389,0.2087514142320174,0.0,-0.00720537229526343,0.0,0.002447471831926196,0.0,0.45148691845673156,0.0,-0.05892262725528911,0.0,auto
1761306009.8250566,27.179821252822876,9.074901896778016,0.0,5.096194457924312,0.20528124298898706,0.0,-0.009118363270372128,0.0,0.01394775294077489,0.0,0.4344682467374723,0.0,-0.09977078142344639,0.0,auto
1761306009.9286103,27.283375024795532,9.096181057204188,0.0,5.095242617118863,0.2025885415990367,0.0,-0.014225002190721769,0.0,0.01897992640424702,0.0,0.4,0.0,-0.08688923272451879,0.0,auto
1761306010.0326638,27.387428522109985,9.117067148284276,0.0,5.094356615536826,0.19966820331052446,0.0,-0.007308426581012149,0.0,0.016669492655860145,0.0,0.45861212213557406,0.0,-0.036803635071485034,0.0,auto
1761306010.1389797,27.493744373321533,9.13790149620151,0.0,5.09346513998096,0.19548070740771442,0.0,-0.00045906157213530287,0.0,0.01108614986511387,0.0,0.5044930079286616,0.0,0.010160967363789882,0.0,auto
1761306010.243115,27.597879648208618,9.157802688059961,0.0,5.092589102719001,0.19089609893080034,0.0,-0.006776651816618448,0.0,0.0031240511633026436,0.0,0.46028567901659095,0.0,0.041718393667364684,0.0,auto
1761306010.3478994,27.702664136886597,9.177379311438377,0.0,5.0918144351648085,0.18634553289982156,0.0,-0.007354748062555061,0.0,-0.0028641260278755507,0.0,0.4,0.0,0.060713413544518716,0.0,auto
1761306010.4507835,27.805548191070557,9.196185574249656,0.0,5.091076173502294,0.18095145495977016,0.0,-0.01124052326638542,0.0,-0.00602237087872076,0.0,0.4,0.0,0.04601727472383235,0.0,auto
1761306010.5539024,27.90866708755493,9.214638215211826,0.0,5.090466125718299,0.17584009905360334,0.0,0.0019669899449586536,0.0,-0.003566810316617907,0.0,0.5046117980728514,0.0,0.019528643199549108,0.0,auto
1761306010.659365,28.014129638671875,9.23308673457511,0.0,5.089908687804886,0.17127703361351582,0.0,-0.005808216079569781,0.0,0.0007382248944288808,0.0,0.44998414310562007,0.0,-0.020250338232364447,0.0,auto
1761306010.7641797,28.1189444065094,9.25100579912587,0.0,5.089217814102041,0.1672403001022529,0.0,-0.0017847868870834414,0.0,0.006123628879383672,0.0,0.48361545578142634,0.0,-0.04413476912387179,0.0,auto
1761306010.8688192,28.223583936691284,9.26847443423772,0.0,5.08850357692209,0.16416503754851075,0.0,-0.012180558250161292,0.0,0.009728309022956736,0.0,0.41962893408126906,0.0,-0.05372898588228924,0.0,auto
1761306010.974178,28.32894277572632,9.285650323105642,0.0,5.087651078029976,0.16104368956525555,0.0,-0.009290006241205791,0.0,0.010716856967853938,0.0,0.4434456875525587,0.0,-0.035753337936705126,0.0,auto
1761306011.0789502,28.433714866638184,9.302327741478395,0.0,5.086695477837889,0.15798207062487662,0.0,-0.002999625568966484,0.0,0.00944822233763743,0.0,0.4897158181586334,0.0,-0.013665822689695468,0.0,auto
1761306011.1848433,28.539608001708984,9.318797658099866,0.0,5.085723307346,0.15527395885932496,0.0,-0.014918423718352902,0.0,0.0061809026407904704,0.0,0.4124998129634278,0.0,0.017939260437598054,0.0,auto
1761306011.287899,28.642663717269897,9.334443263176379,0.0,5.084806461454617,0.1514448331789757,0.0,-0.008514959483452605,0.0,0.00017078085965295704,0.0,0.45039674650570966,0.0,0.04333746950221648,0.0,auto
1761306011.3920388,28.746803522109985,9.349901404908707,0.0,5.083900765155631,0.1473086851423224,0.0,-0.006769764977392744,0.0,-0.002645817577518357,0.0,0.45789147290699056,0.0,0.0432300933610278,0.0,auto
1761306011.4972212,28.851985931396484,9.36515991278664,0.0,5.083094439055668,0.14327085236044487,0.0,-0.006380940242127426,0.0,-0.0029804469103730065,0.0,0.4574121396151394,0.0,0.031365199255352486,0.0,auto
1761306011.5992634,28.954028129577637,9.379629672124475,0.0,5.0825307067768914,0.139211590626425,0.0,0.003237023271267632,0.0,0.0005482262625476483,0.0,0.4,0.0,0.0180933665581019,0.0,auto
1761306011.7041397,29.05890440940857,9.394055382728196,0.0,5.08222868699086,0.13544131039193066,0.0,-0.003578565661943787,0.0,0.00018072402837900547,0.0,0.4,0.0,-0.003769209209708869,0.0,auto
1761306011.8088417,29.16360640525818,9.408158713986365,0.0,5.081891198223066,0.13247545433489508,0.0,-0.002792174708106804,0.0,0.002819816995541445,0.0,0.45779443798761815,0.0,-0.011928443566811393,0.0,auto
1761306011.913455,29.268219709396362,9.421935334068063,0.0,5.081407032967717,0.12968837923351212,0.0,-0.011744164855303073,0.0,0.004908166702241167,0.0,0.4,0.0,-0.02259230727704811,0.0,auto
1761306012.0188017,29.373566389083862,9.435490039835821,0.0,5.081023089573816,0.12694213903886983,0.0,-0.006249763892410024,0.0,0.005945324698575508,0.0,0.43929519036903175,0.0,-0.02168906197576444,0.0,auto
1761306012.1245563,29.479321002960205,9.448778365319649,0.0,5.080400023493725,0.12442653014320508,0.0,-0.010135508763110741,0.0,0.005681272851816757,0.0,0.4,0.0,-0.010901027389637089,0.0,auto
1761306012.2280834,29.582848072052002,9.461473545779603,0.0,5.079883761768922,0.12158538568918208,0.0,-0.01026635973368268,0.0,0.003942593028240374,0.0,0.4,0.0,0.00045348997876099256,0.0,auto
1761306012.334118,29.68888258934021,9.474184823513054,0.0,5.079384283725267,0.11892030136113069,0.0,-0.007077447948989422,0.0,0.0029753294527974706,0.0,0.4,0.0,0.0064563869958159745,0.0,auto
1761306012.4403477,29.795112371444702,9.486621964823874,0.0,5.0789524036967295,0.11588185275951812,0.0,-0.005528984161094323,0.0,0.0027493866572850354,0.0,0.4,0.0,0.005520995263109486,0.0,auto
1761306012.5439224,29.89868712425232,9.498456300087996,0.0,5.078457223146058,0.11325217334561458,0.0,-0.003405591175355345,0.0,0.0014835499472369699,0.0,0.45962132856292715,0.0,0.00686812847856862,0.0,auto
1761306012.6516783,30.00644302368164,9.510495700271095,0.0,5.077963995285866,0.11054396650713666,0.0,-0.006728609921433509,0.0,0.00010408760410281002,0.0,0.4,0.0,0.02403118839868746,0.0,auto
1761306012.7563164,30.11108112335205,9.521892235084483,0.0,5.077313546172154,0.10753336010289355,0.0,-0.005927458838324266,0.0,-0.001563341136595375,0.0,0.4,0.0,0.015851717639825142,0.0,auto
1761306012.8608878,30.215652465820312,9.533037707069147,0.0,5.076670869370022,0.10480898227010096,0.0,-0.0027857626376316044,0.0,-0.00024527672535947626,0.0,0.4731436715356641,0.0,0.003489577147727492,0.0,auto
1761306012.9647448,30.319509506225586,9.543859335996377,0.0,5.076070781534908,0.10232904184228968,0.0,-0.012297357076356551,0.0,0.0019128943823659688,0.0,0.4028001058295604,0.0,-0.011847757611304258,0.0,auto
1761306013.0736675,30.42843222618103,9.554945514697213,0.0,5.0754793889153635,0.09997823451175449,0.0,-0.0059237052729594975,0.0,0.0028131252589948677,0.0,0.45412281760528334,0.0,-0.027840026946175614,0.0,auto
1761306013.1778083,30.532572984695435,9.565258565879029,0.0,5.074812867217953,0.09729752234745331,0.0,-0.006727017941485036,0.0,0.0021443948304230975,0.0,0.4,0.0,-0.011477928498429685,0.0,auto
1761306013.2837195,30.638484239578247,9.57551478766672,0.0,5.07403983199839,0.09529076515794543,0.0,0.00021384141385494097,0.0,0.003929610718779465,0.0,0.5008701374539316,0.0,-0.014392669519153892,0.0,auto
1761306013.3873641,30.74212884902954,9.58531465520091,0.0,5.073374125474945,0.09340408220831174,0.0,0.0030024638074983324,0.0,0.00424876522747434,0.0,0.5149272974627486,0.0,-0.010438148418756643,0.0,auto
1761306013.4902546,30.845019340515137,9.594821027665226,0.0,5.072846376142807,0.09161365143648337,0.0,-0.0033197919193233187,0.0,0.00350009877256484,0.0,0.4665019794522877,0.0,-0.004631420441590619,0.0,auto
1761306013.593868,30.94863271713257,9.604180542915158,0.0,5.072228708468269,0.08963301242361715,0.0,-0.01041162045564975,0.0,0.0024279163184473913,0.0,0.4,0.0,0.0054052002501998875,0.0,auto
1761306013.6976292,31.052393913269043,9.613339546462594,0.0,5.071704543185623,0.08762093074599858,0.0,-0.007167865486747487,0.0,0.0011658441548162847,0.0,0.4,0.0,0.009222394782121685,0.0,auto
1761306013.8031034,31.157868146896362,9.622440828859178,0.0,5.071122771658599,0.0854079617330422,0.0,-0.008479966096380501,0.0,0.0005601796942251183,0.0,0.43028112879299296,0.0,0.011384487241370988,0.0,auto
1761306013.9067628,31.26152753829956,9.631177638128104,0.0,5.070623373389673,0.08327351809556084,0.0,-0.006991872074905267,0.0,0.0022253659830413306,0.0,0.4,0.0,0.03623818840666354,0.0,auto
1761306014.0102623,31.36502695083618,9.63956991346279,0.0,5.070222672757719,0.08111438287037105,0.0,-0.0051073227100146504,0.0,-0.0031447733101837667,0.0,0.44330993304452343,0.0,0.03587596823729847,0.0,auto
1761306014.114761,31.469525814056396,9.64790173442176,0.0,5.069714067807637,0.07881351309179177,0.0,-0.005889833950982859,0.0,-0.0032493798612796103,0.0,0.44052705480587306,0.0,0.02274358443625992,0.0,auto
1761306014.2224336,31.577198266983032,9.656297001481803,0.0,5.069032878925725,0.07618198807339915,0.0,-0.008355978013991064,0.0,-0.001405532102925249,0.0,0.4,0.0,0.001973068084319076,0.0,auto
1761306014.327817,31.682581663131714,9.66431856283557,0.0,5.068307847759658,0.07442697187413345,0.0,-0.010206659296024226,0.0,0.0011226700911071128,0.0,0.4258266476862258,0.0,-0.01712304229697456,0.0,auto
1761306014.4329178,31.78768253326416,9.672151342744284,0.0,5.067620311528173,0.07294141252704524,0.0,-0.010077412551300869,0.0,0.0038305594458396567,0.0,0.42547507252004796,0.0,-0.02553694161457258,0.0,auto
1761306014.5379994,31.8927640914917,9.67980649975094,0.0,5.066881773672119,0.0716718765211011,0.0,-0.010713467740743348,0.0,0.005579154447713532,0.0,0.42586961545218294,0.0,-0.028560998330763226,0.0,auto
1761306014.6473265,32.0020911693573,9.687592652756452,0.0,5.066009250043035,0.06997917623513795,0.0,-0.005529395127443678,0.0,0.007304171694764531,0.0,0.46792333439068934,0.0,-0.03152345164076977,0.0,auto
1761306014.753602,32.10836672782898,9.694974964448784,0.0,5.0652720686743224,0.06910791828636824,0.0,0.0013922559342767274,0.0,0.006924125788249921,0.0,0.5084295318281685,0.0,-0.016593780234445472,0.0,auto
1761306014.8594577,32.21422243118286,9.702157487734867,1.2179462534577105e-05,5.0668114307659184,0.06591532377110004,0.0022578200966097603,0.20321549363204547,0.0157022463336674,0.018651296835932914,0.0003871340336974305,0.9,0.2,0.2,-0.0003456693473333901,auto
1761306014.9637372,32.3185019493103,9.699340674925118,0.009381958253112683,5.140818970328286,-0.1963804877952722,0.2542167988259213,1.191543868073451,0.24058009876166728,0.24641736092093974,0.008738566213717228,0.9,0.2,0.2,-0.021618826935393555,auto
1761306015.0683286,32.42309331893921,9.654837350972606,0.060099474063442106,5.289656569471799,-0.636636253100626,0.698997438358676,1.5930686159944711,0.2426119449912676,0.2428387782351618,0.013014431231237468,0.8148626988157242,-0.2,-0.2,-0.02600373544166789,auto
1761306015.1743178,32.52908253669739,9.57558400807314,0.14551845690949802,5.4696238081636235,-0.8590173707100928,0.9060845746173747,1.8562882775948033,0.18274473146088885,0.19775876830249917,0.008435273719834034,0.7922940037367278,0.06866072112738014,-0.037577550323489584,-0.009417048289025438,auto
1761306015.2788892,32.63365387916565,9.475427498218153,0.25059173576025867,5.671691469536559,-1.0403799074377076,1.0837466190926128,2.04570240484906,0.12037660188329748,0.14278253128931487,0.0032812998976599933,0.6322791628554375,0.2,0.15105242417491938,0.0008880574526180744,auto
1761306015.3879888,32.74275350570679,9.352304391249984,0.3780775598530832,5.9037846984479385,-1.1961316379478273,1.23496575090097,2.198383546070083,0.08876388917428474,0.11341375734515806,-0.0005688358722095711,0.4,0.19321521456647167,0.19072489187586228,0.005306846936670971,auto
1761306015.4924884,32.84725308418274,9.220004335629577,0.5137971593135557,6.141764528130048,-1.3217828248788337,1.3548420609469405,2.3636493279086066,0.07146841096019411,0.08987047431123305,-0.0029134684046886734,0.5957666044900478,0.1760453516535811,0.18493504117604131,0.007751188574605902,auto
1761306015.5963511,32.95111584663391,9.076941617415484,0.6597134253742938,6.3923285757815735,-1.4237168176376267,1.4543703440147744,2.471271284948178,0.060226769252526326,0.07003306014927677,-0.0043606044161833505,0.4,0.07704167444840845,0.15393322496944922,0.008727483778087068,auto
1761306015.7015946,33.05635929107666,8.922301094536753,0.816825501516239,6.657978737405922,-1.5100456369048076,1.538364185109287,2.574598602399891,0.06068677588866092,0.05663829896079902,-0.005319480443725937,0.513475355682502,-0.03991925262613,0.12515696450042563,0.009387015937695947,auto
1761306015.8065407,33.16130542755127,8.760167272926877,0.9810837978766338,6.9327609360932225,-1.5806105196879707,1.6054006410880173,2.6662490476841594,0.07358867886054415,0.051084290019781466,-0.005746642520312557,0.5425663763293023,-0.15666485548647419,0.06884445541375567,0.00929627846731287,auto
1761306015.9106467,33.265411376953125,8.593285385391358,1.150254426712636,7.214202964020621,-1.6194395236518648,1.6556298030101113,2.728761742878426,0.08561791147417609,0.005044362110105931,-0.0051387890487696675,0.4189382388723666,-0.2,0.081200451280587,0.007114183155842991,auto
1761306016.015609,33.37037372589111,8.424094560483827,1.324455235978197,7.5036007720155276,-1.6281296127157963,1.6728685450333767,2.786979541970241,0.046239773382746284,0.013478018511919716,-0.003521199492875933,0.4,-0.06146981572676218,-0.02462902243960085,0.003518131503654347,auto
1761306016.1210635,33.47582817077637,8.252044222606136,1.5018834018171647,7.803433585925762,-1.626532777203856,1.6678614568280286,2.8556235501710514,0.030495199553244867,0.017508659841396764,-0.001974802818510542,0.515139134300763,0.024189221889153237,-0.08475695629038629,0.001048917047578644,auto
1761306016.2264,33.581164598464966,8.081500660468203,1.6776722714366306,8.106740561974128,-1.6197489533518679,1.6606052036334336,2.894341443839303,0.017491736177059323,0.025222442972869078,-0.0005489321271104674,0.4,0.09259451848464267,-0.12154177735913257,-0.000992164616932262,auto
1761306016.3316338,33.68639850616455,7.912075030429003,1.8522669286589495,8.413971855568175,-1.6070023830758622,1.6488578444877438,2.932309155382558,0.011503452276183107,0.03999802505905563,0.00037803526702794043,0.44310759208585737,0.08873971500356911,-0.17626518924330065,-0.0018671688992635393,auto
1761306016.4380744,33.79283905029297,7.742125611644999,2.027328185057774,8.7285822013705,-1.5859051606107992,1.6311918463039528,2.9703701403069687,-0.0004539410487798719,0.03775177568382315,0.0006031761408888459,0.4,0.14264073304988628,-0.09197087902537346,-0.0014219885599561998,auto
1761306016.5431025,33.89786720275879,7.576318377888229,2.1980381193387566,9.04184940432739,-1.563012271922225,1.6122422649523063,3.003634794702158,-0.013167267162404931,0.020991545860215673,0.00048223727916353495,0.535457530970061,0.10885438777157183,0.0009185927208760596,-0.0007601201430284505,auto
1761306016.647365,34.002129793167114,7.4139360709327295,2.365230074516625,9.35535758838156,-1.54174696983983,1.5939507340739338,3.0065497711262115,-0.015839649072551504,0.004317487716989102,0.0005823567450781842,0.4,0.060732889264858765,0.08990700977117841,-0.0009810259035836462,auto
1761306016.750858,34.1056227684021,7.255114388155899,2.5287220958225776,9.668726470149952,-1.5188574747587178,1.5710446189077225,3.0357786315742494,-0.00432882138092882,-0.005364981142148814,0.001036947372401413,0.4685107259017443,0.0065521682805520665,0.1630998479245746,-0.0020490190304832115,auto
1761306016.853984,34.20874881744385,7.0992832668014625,2.68912142902149,9.98248548134725,-1.495291883610522,1.5447416530060951,3.0435330071727194,0.0014390337037642337,-0.01985650055427452,0.0015473029157695142,0.42047832741349195,-0.07658509056391757,0.1402905580600177,-0.002978946710191885,auto
1761306016.959478,34.31424260139465,6.942453310230932,2.8503541912842993,10.304747701738401,-1.4724881826239318,1.5120479623884115,3.0588036249819877,-0.004689027601233611,-0.03921562031967083,0.001155828422936965,0.45974769491655887,0.0049145109560768205,0.14878063941702369,-0.0014401301475748544,auto
1761306017.0627882,34.41755294799805,6.791853880115993,3.005250888064804,10.621457569880336,-1.448930089157535,1.4846417202093947,3.0741332814484434,-0.007492058793206897,-0.027277203298961068,0.0006896434850781877,0.5021075889401475,0.0443240331386974,0.02921228024141499,-0.0005019544359441288,auto
1761306017.1715117,34.52627635002136,6.636241787758661,3.1653832413076404,10.956112814725682,-1.4245176007518345,1.4580166743822989,3.0789750701196357,-0.018545440163945093,-0.011225989826305799,0.0002427122095822375,0.4218672229426373,-0.12470058779994303,-0.2,-2.1197258365159596e-05,auto
1761306017.2744849,34.629249572753906,6.4922889840254685,3.313431741673379,11.273871944814642,-1.3880850619118688,1.4288730654820785,3.0907018373422743,0.008498968369453718,0.03365418531499529,-0.0015523993876704616,0.4,-0.141100375269065,-0.2,0.004194629670812024,auto
1761306017.37947,34.73423480987549,6.348116572870534,3.461667033531549,11.598684820233261,-1.3544005580601388,1.3993561579082587,3.0921393839580626,0.012332492591424995,0.022074644939849387,-0.0029183700200152572,0.4425630779865508,-0.09464398658781742,-0.02414876567571925,0.006217376709015452,auto
1761306017.485084,34.83984875679016,6.20589573023634,3.607882748802404,11.926022938333004,-1.325208012033595,1.369213613047808,3.105984974400209,0.010393669546564576,-0.003655106511573209,-0.00348316513688148,0.5008430890061969,-0.09693107562590716,0.08669843740387276,0.0061960043478685055,auto
1761306017.5912783,34.94604301452637,6.065949047562976,3.7518120584671895,12.255980225155527,-1.2976785752748798,1.3385237747538292,3.103030188556789,0.00938943073772151,-0.020560983286947825,-0.0036998810992756406,0.41705022196388164,-0.02498145752830352,0.1843526008802157,0.005984257749512004,auto
1761306017.697491,35.052255630493164,5.928999596917977,3.8927324867648574,12.586318041639544,-1.2719422842230739,1.3085141946602048,3.1089315357361897,-0.0016492792309126415,-0.03526778592030168,-0.003371323462939438,0.4,0.06885665493089835,0.2,0.00477924270817424,auto
1761306017.8019183,35.15668296813965,5.797239901610464,4.028360516048913,12.911347796772894,-1.250047212020142,1.2821309372773586,3.1221303464959966,-0.013776247790339024,-0.03817541314179541,-0.0028964177870972603,0.5187234538140999,0.10687092657766745,0.12785196259013137,0.00384377334967689,auto
1761306017.9058132,35.260577917099,5.668898757116395,4.160503781505945,13.234987579653486,-1.2266203316655255,1.2561471971828402,3.1235037236774885,-0.021603623942128065,-0.026854809531985494,-0.0026422397865681836,0.5223426104760094,0.09869702285065571,-0.007458565788910286,0.0036888783127217674,auto
1761306018.0113623,35.366127014160156,5.541249182469122,4.291953677389375,13.564134701489355,-1.2022847656472233,1.2316019776600788,3.122676119672626,-0.026303507941009583,-0.014018380545949763,-0.0024771302251772433,0.49049826901390237,0.10296466982555583,-0.0812527673914555,0.003591228879438317,auto
1761306018.1142232,35.46898794174194,5.419558795325262,4.417274011292234,13.885019370416858,-1.175355488020934,1.2070900484636458,3.1150663669430068,-0.021501446870863063,0.005870244669135218,-0.002233118336104164,0.43044508827051586,0.04695653309725646,-0.1527728028573394,0.0031231503687083003,auto
1761306018.219602,35.57436680793762,5.297478805052021,4.542998823464855,14.213847196689002,-1.148293630303586,1.1827747464894138,3.1167030125361554,-0.01888037438823914,0.013520708753678928,-0.001768193388276808,0.4,-0.03708642354467914,-0.18887618382991145,0.0021622453573743056,auto
