timestamp,simulation_time,position_x,position_y,position_z,velocity_x,velocity_y,velocity_z,attitude_roll,attitude_pitch,attitude_yaw,control_throttle,control_roll,control_pitch,control_yaw,flight_mode
1761306087.9102452,0.10654854774475098,0.0,0.0,-0.0,0.0,0.0,-0.0,0.0,0.0,0.0,0.0,0.0,0.0,0.0,manual
1761306088.016054,0.2123572826385498,0.0,0.0,-0.0,0.0,0.0,-0.0,0.0,0.0,0.0,0.0,0.0,0.0,0.0,manual
1761306088.1187046,0.31500792503356934,0.0,0.0,-0.0,0.0,0.0,-0.0,0.0,0.0,0.0,0.0,0.0,0.0,0.0,manual
1761306088.2222872,0.4185905456542969,0.0,0.0,-0.0,0.0,0.0,-0.0,0.0,0.0,0.0,0.0,0.0,0.0,0.0,manual
1761306088.3231974,0.519500732421875,0.0,0.0,-0.0,0.0,0.0,-0.0,0.0,0.0,0.0,0.0,0.0,0.0,0.0,manual
1761306088.4280674,0.624370813369751,0.0,0.0,-0.0,0.0,0.0,-0.0,0.0,0.0,0.0,0.0,0.0,0.0,0.0,manual
1761306088.5333605,0.7296638488769531,0.0,0.0,-0.0,0.0,0.0,-0.0,0.0,0.0,0.0,0.0,0.0,0.0,0.0,manual
1761306088.6379323,0.834235668182373,0.0,0.0,-0.0,0.0,0.0,-0.0,0.0,0.0,0.0,0.0,0.0,0.0,0.0,manual
1761306088.7426407,0.9389441013336182,0.0,0.0,-0.0,0.0,0.0,-0.0,0.0,0.0,0.0,0.0,0.0,0.0,0.0,manual
1761306088.8479743,1.0442776679992676,0.0,0.0,-0.0,0.0,0.0,-0.0,0.0,0.0,0.0,0.0,0.0,0.0,0.0,manual
1761306088.9526868,1.1489901542663574,0.0,0.0,-0.0,0.0,0.0,-0.0,0.0,0.0,0.0,0.0,0.0,0.0,0.0,manual
1761306089.057703,1.2540063858032227,0.0,0.0,-0.0,0.0,0.0,-0.0,0.0,0.0,0.0,0.0,0.0,0.0,0.0,manual
1761306089.1796482,1.3759515285491943,0.0,0.0,-0.0,0.0,0.0,-0.0,0.0,0.0,0.0,0.0,0.0,0.0,0.0,manual
1761306089.2835324,1.4798357486724854,0.0,0.0,-0.0,0.0,0.0,-0.0,0.0,0.0,0.0,0.0,0.0,0.0,0.0,manual
1761306089.390951,1.587254285812378,0.0,0.0,0.006122160275249838,0.0,0.0,0.38101330270302547,0.0,0.0,0.0,0.9,0.0,0.0,0.0,stabilize
1761306089.494721,1.6910243034362793,0.0,0.0,0.08923775358325063,0.0,0.0,0.9615436649211205,0.0,0.0,0.0,0.5735860364121718,0.0,0.0,0.0,stabilize
1761306089.6005783,1.7968816757202148,0.0,0.0,0.1938349406499479,0.0,0.0,1.010554597265462,0.0,0.0,0.0,0.5155568620435808,0.0,0.0,0.0,stabilize
1761306089.7064028,1.9027061462402344,0.0,0.0,0.3001057075360797,0.0,0.0,1.0143752354414934,0.0,0.0,0.0,0.5187519973384247,0.0,0.0,0.0,stabilize
1761306089.8118246,2.0081279277801514,0.0,0.0,0.4054951265913822,0.0,0.0,1.0014749942728771,0.0,0.0,0.0,0.4997893074565682,0.0,0.0,0.0,stabilize
1761306089.9162035,2.112506866455078,0.0,0.0,0.5083513469518867,0.0,0.0,0.9693650894374221,0.0,0.0,0.0,0.4,0.0,0.0,0.0,stabilize
1761306090.022316,2.2186193466186523,0.0,0.0,0.6102233438308299,0.0,0.0,0.9443387237838543,0.0,0.0,0.0,0.43126868562494586,0.0,0.0,0.0,stabilize
1761306090.1281793,2.3244826793670654,0.0,0.0,0.7084043339822089,0.0,0.0,0.9059117712845887,0.0,0.0,0.0,0.4,0.0,0.0,0.0,stabilize
1761306090.2324522,2.428755521774292,0.0,0.0,0.801443230649853,0.0,0.0,0.8717781579484002,0.0,0.0,0.0,0.4225609296960409,0.0,0.0,0.0,stabilize
1761306090.3381977,2.534501075744629,0.0,0.0,0.8915517799741981,0.0,0.0,0.8356888828062411,0.0,0.0,0.0,0.45877306464641787,0.0,0.0,0.0,stabilize
1761306090.442071,2.6383743286132812,0.0,0.0,0.9757760099608079,0.0,0.0,0.7953298690750398,0.0,0.0,0.0,0.4657337185812639,0.0,0.0,0.0,stabilize
1761306090.547167,2.7434704303741455,0.0,0.0,1.0566322869953308,0.0,0.0,0.7513259065065128,0.0,0.0,0.0,0.452279937465782,0.0,0.0,0.0,stabilize
1761306090.652408,2.8487112522125244,0.0,0.0,1.1331301386269492,0.0,0.0,0.7030098485698687,0.0,0.0,0.0,0.4,0.0,0.0,0.0,stabilize
1761306090.7571712,2.953474521636963,0.0,0.0,1.2048548268363477,0.0,0.0,0.6608387016535501,0.0,0.0,0.0,0.4089068676922837,0.0,0.0,0.0,stabilize
1761306090.8620975,3.058400869369507,0.0,0.0,1.272325166367192,0.0,0.0,0.6209311148745844,0.0,0.0,0.0,0.41803611140678165,0.0,0.0,0.0,stabilize
1761306090.966298,3.1626014709472656,0.0,0.0,1.335086687782567,0.0,0.0,0.5815398843166327,0.0,0.0,0.0,0.4,0.0,0.0,0.0,stabilize
1761306091.0703838,3.2666871547698975,0.0,0.0,1.3937549245146226,0.0,0.0,0.5427477297798832,0.0,0.0,0.0,0.4,0.0,0.0,0.0,stabilize
1761306091.1740742,3.370377540588379,0.0,0.0,1.4483581704246482,0.0,0.0,0.50941957324572,0.0,0.0,0.0,0.4377503126466453,0.0,0.0,0.0,stabilize
1761306091.2787557,3.4750590324401855,0.0,0.0,1.4997364880654087,0.0,0.0,0.47123742275359454,0.0,0.0,0.0,0.41585462438551174,0.0,0.0,0.0,stabilize
1761306091.3879113,3.584214687347412,0.0,0.0,1.5493957561941865,0.0,0.0,0.4336926326716394,0.0,0.0,0.0,0.4,0.0,0.0,0.0,stabilize
1761306091.4918602,3.6881635189056396,0.0,0.0,1.593287729584351,0.0,0.0,0.40706828437955694,0.0,0.0,0.0,0.43318674289809866,0.0,0.0,0.0,stabilize
1761306091.5973191,3.7936224937438965,0.0,0.0,1.6345587613481503,0.0,0.0,0.38083716539241597,0.0,0.0,0.0,0.4657527449687986,0.0,0.0,0.0,stabilize
1761306091.702309,3.8986122608184814,0.0,0.0,1.672639450621802,0.0,0.0,0.34804715324783875,0.0,0.0,0.0,0.42941358236475824,0.0,0.0,0.0,stabilize
1761306091.8058348,4.002138137817383,0.0,0.0,1.707319973353563,0.0,0.0,0.32038333798578855,0.0,0.0,0.0,0.42179869792497193,0.0,0.0,0.0,stabilize
1761306091.911517,4.107820272445679,0.0,0.0,1.7401289167491565,0.0,0.0,0.3043702326125929,0.0,0.0,0.0,0.47682390104020295,0.0,0.0,0.0,stabilize
1761306092.0125487,4.208852052688599,0.0,0.0,1.7687828196216495,0.0,0.0,0.2690268895240406,0.0,0.0,0.0,0.4,0.0,0.0,0.0,stabilize
1761306092.1172657,4.313569068908691,0.0,0.0,1.7971708622875777,0.0,0.0,0.25655750172887853,0.0,0.0,0.0,0.4,0.0,0.0,0.0,stabilize
1761306092.2219236,4.418226957321167,0.0,0.0,1.8228718373340804,0.0,0.0,0.23756997195030488,0.0,0.0,0.0,0.45227112677070125,0.0,0.0,0.0,stabilize
1761306092.3288028,4.525106191635132,0.0,0.0,1.8470841208635094,0.0,0.0,0.21290657321094172,0.0,0.0,0.0,0.4,0.0,0.0,0.0,stabilize
1761306092.4346976,4.631000995635986,0.0,0.0,1.8690861306737503,0.0,0.0,0.19496234393216605,0.0,0.0,0.0,0.41464095071136026,0.0,0.0,0.0,stabilize
1761306092.54031,4.7366132736206055,0.0,0.0,1.8893251640468565,0.0,0.0,0.18200488842547538,0.0,0.0,0.0,0.4,0.0,0.0,0.0,stabilize
1761306092.6471956,4.843498945236206,0.0,0.0,1.9081432737523252,0.0,0.0,0.17057997905846456,0.0,0.0,0.0,0.4565207037414249,0.0,0.0,0.0,stabilize
1761306092.7522037,4.948507070541382,0.0,0.0,1.925111806792992,0.0,0.0,0.15292723313791845,0.0,0.0,0.0,0.4,0.0,0.0,0.0,stabilize
1761306092.8647647,5.061068058013916,0.0,0.0,1.94145869335031,0.0,0.0,0.14432274287541852,0.0,0.0,0.0,0.4519332590447335,0.0,0.0,0.0,stabilize
1761306092.967396,5.163699388504028,0.0,0.0,1.9559399873071246,0.0,0.0,0.12928494862429452,0.0,0.0,0.0,0.4,0.0,0.0,0.0,stabilize
1761306093.0801806,5.27648401260376,0.0,0.0,1.9700177035053783,0.0,0.0,0.1102042226392323,0.0,0.0,0.0,0.41567149161643474,0.0,0.0,0.0,stabilize
1761306093.1850648,5.381368160247803,0.0,0.0,1.9819218505900635,0.0,0.0,0.10405332798283998,0.0,0.0,0.0,0.4,0.0,0.0,0.0,stabilize
1761306093.2914164,5.487719774246216,0.0,0.0,1.9928602154520156,0.0,0.0,0.1023956809452942,0.0,0.0,0.0,0.47630083940802653,0.0,0.0,0.0,stabilize
1761306093.3973153,5.593618631362915,0.0,0.0,2.002847887938594,0.0,0.0,0.0899867714386772,0.0,0.0,0.0,0.4459756504334838,0.0,0.0,0.0,stabilize
1761306093.5058303,5.702133655548096,0.0,0.0,2.0120618612073393,0.0,0.0,0.08430068049924924,0.0,0.0,0.0,0.4681903660179353,0.0,0.0,0.0,stabilize
1761306093.6110666,5.807369947433472,0.0,0.0,2.0200648117924214,0.0,0.0,0.07071079567403973,0.0,0.0,0.0,0.4,0.0,0.0,0.0,stabilize
1761306093.717247,5.91355037689209,0.0,0.0,2.0274402265592366,0.0,0.0,0.06048761602135211,0.0,0.0,0.0,0.4,0.0,0.0,0.0,stabilize
1761306093.8227031,6.0190064907073975,0.0,0.0,2.0341541507825647,0.0,0.0,0.059180986810817585,0.0,0.0,0.0,0.4368308743507602,0.0,0.0,0.0,stabilize
1761306093.9276617,6.12396502494812,0.0,0.0,2.0401736328723348,0.0,0.0,0.05102811644091943,0.0,0.0,0.0,0.4,0.0,0.0,0.0,stabilize
1761306094.0323615,6.228664875030518,0.0,0.0,2.0457578943970782,0.0,0.0,0.05332514989669563,0.0,0.0,0.0,0.46636199033846426,0.0,0.0,0.0,stabilize
1761306094.136988,6.333291292190552,0.0,0.0,2.0508582327080322,0.0,0.0,0.043777458288967175,0.0,0.0,0.0,0.4280244535810357,0.0,0.0,0.0,stabilize
1761306094.242923,6.439226388931274,0.0,0.0,2.0556242391801667,0.0,0.0,0.04930786531666004,0.0,0.0,0.0,0.4922452213424958,0.0,0.0,0.0,stabilize
1761306094.3457484,6.542051792144775,0.0,0.0,2.0599655388005305,0.0,0.0,0.05112949699791112,0.0,0.0,0.0,0.4,0.0,0.0,0.0,stabilize
1761306094.4491003,6.645403623580933,0.0,0.0,2.0642031966990544,0.0,0.0,0.03958955460996152,0.0,0.0,0.0,0.45536837270300834,0.0,0.0,0.0,stabilize
1761306094.5553029,6.751606225967407,0.0,0.0,2.0681098903559274,0.0,0.0,0.03564684096039041,0.0,0.0,0.0,0.45006907830764536,0.0,0.0,0.0,stabilize
1761306094.6631675,6.859470844268799,0.0,0.0,2.0716915793017576,0.0,0.0,0.03637556709018247,0.0,0.0,0.0,0.48534728231933766,0.0,0.0,0.0,stabilize
1761306094.7666552,6.962958574295044,0.0,0.0,2.074714480997885,0.0,0.0,0.02264829487413253,0.0,0.0,0.0,0.4,0.0,0.0,0.0,stabilize
1761306094.8701253,7.0664286613464355,0.0,0.0,2.0773398016539644,0.0,0.0,0.020657241751577925,0.0,0.0,0.0,0.4,0.0,0.0,0.0,stabilize
1761306094.9764416,7.172744989395142,0.0,0.0,2.079575520675042,0.0,0.0,0.015447078330707418,0.0,0.0,0.0,0.4,0.0,0.0,0.0,stabilize
1761306095.0799804,7.2762837409973145,0.0,0.0,2.0814826997078093,0.0,0.0,0.012361908217540483,0.0,0.0,0.0,0.41476384716600434,0.0,0.0,0.0,stabilize
1761306095.1801019,7.376405239105225,0.0,0.0,2.083342315090088,0.0,0.0,0.018752567690548727,0.0,0.0,0.0,0.4,0.0,0.0,0.0,stabilize
1761306095.2844815,7.480784893035889,0.0,0.0,2.0850622162981196,0.0,0.0,0.015407264548156207,0.0,0.0,0.0,0.4,0.0,0.0,0.0,stabilize
1761306095.3893206,7.5856239795684814,0.0,0.0,2.08652105877712,0.0,0.0,0.013798454051673745,0.0,0.0,0.0,0.4577829541185328,0.0,0.0,0.0,stabilize
1761306095.4947276,7.691030979156494,0.0,0.0,2.0877632992163435,0.0,0.0,0.009698759020993696,0.0,0.0,0.0,0.44192404989013157,0.0,0.0,0.0,stabilize
1761306095.60101,7.797313451766968,0.0,0.0,2.0887282441982067,0.0,0.0,0.014531744177628304,0.0,0.0,0.0,0.4866557559806304,0.0,0.0,0.0,stabilize
1761306095.7064447,7.902748107910156,0.0,0.0,2.0896795444647145,0.0,0.0,0.009387445127927942,0.0,0.0,0.0,0.4,0.0,0.0,0.0,stabilize
1761306095.8112738,8.007577180862427,0.0,0.0,2.0904457380198385,0.0,0.0,0.002982086817682893,0.0,0.0,0.0,0.42614785162976576,0.0,0.0,0.0,stabilize
1761306095.9156222,8.111925601959229,0.0,0.0,2.0910188722383825,0.0,0.0,0.0011311672453816627,0.0,0.0,0.0,0.42281967457745284,0.0,0.0,0.0,stabilize
1761306096.019298,8.215601444244385,0.0,0.0,2.0914683585422806,0.0,0.0,0.00011414598317687798,0.0,0.0,0.0,0.42365746374446367,0.0,0.0,0.0,stabilize
1761306096.1237874,8.320090770721436,0.0,0.0,2.091817675892556,0.0,0.0,0.009262956650123675,0.0,0.0,0.0,0.4964198758435854,0.0,0.0,0.0,stabilize
1761306096.2303355,8.426638841629028,0.0,0.0,2.0922093852688217,0.0,0.0,0.0007046268737017733,0.0,0.0,0.0,0.4331808620337946,0.0,0.0,0.0,stabilize
1761306096.3351614,8.53146481513977,0.0,0.0,2.092440038938767,0.0,0.0,0.0008956470302385802,0.0,0.0,0.0,0.4,0.0,0.0,0.0,stabilize
1761306096.4410803,8.637383699417114,0.0,0.0,2.0926078251556435,0.0,0.0,0.002556036828793457,0.0,0.0,0.0,0.4,0.0,0.0,0.0,stabilize
1761306096.5461986,8.742501974105835,0.0,0.0,2.0926988324729843,0.0,0.0,-0.003897897508838447,0.0,0.0,0.0,0.421790838718911,0.0,0.0,0.0,stabilize
1761306096.6467602,8.843063592910767,0.0,0.0,2.0924680294402367,0.0,0.0,-0.0007959707193186949,0.0,0.0,0.0,0.46625619364749293,0.0,0.0,0.0,stabilize
1761306096.752904,8.949207305908203,0.0,0.0,2.0921712074929553,0.0,0.0,-0.010003186046432374,0.0,0.0,0.0,0.4,0.0,0.0,0.0,stabilize
1761306096.8573015,9.0536048412323,0.0,0.0,2.0920317233557246,0.0,0.0,-0.0058906337652959335,0.0,0.0,0.0,0.42331858297016106,0.0,0.0,0.0,stabilize
1761306096.9602761,9.156579494476318,0.0,0.0,2.09183545376881,0.0,0.0,0.005152075555165886,0.0,0.0,0.0,0.4986530093357331,0.0,0.0,0.0,stabilize
1761306097.068769,9.265072345733643,0.0,0.0,2.0914176861664298,0.0,0.0,0.005943658030813891,0.0,0.0,0.0,0.5173797114871931,0.0,0.0,0.0,stabilize
1761306097.1728811,9.369184494018555,0.0,0.0,2.0911733140159057,0.0,0.0,-0.0026182190394947805,0.0,0.0,0.0,0.4,0.0,0.0,0.0,stabilize
1761306097.2777822,9.474085569381714,0.0,0.0,2.090894232504327,0.0,0.0,-0.009761040475047666,0.0,0.0,0.0,0.4037304923000301,0.0,0.0,0.0,stabilize
1761306097.3825977,9.578901052474976,0.0,0.0,2.0906248124338473,0.0,0.0,-0.0007480453879848276,0.0,0.0,0.0,0.4684242235523362,0.0,0.0,0.0,stabilize
1761306097.4887383,9.685041666030884,0.0,0.0,2.0903303302384004,0.0,0.0,-0.0024576093164310024,0.0,0.0,0.0,0.4539363795753014,0.0,0.0,0.0,stabilize
1761306097.5953546,9.7916579246521,0.0,0.0,2.0899448059208825,0.0,0.0,-0.00911671652020567,0.0,0.0,0.0,0.4132796232392202,0.0,0.0,0.0,stabilize
1761306097.7015216,9.897825002670288,0.0,0.0,2.089485490366858,0.0,0.0,-0.01065196952833775,0.0,0.0,0.0,0.4,0.0,0.0,0.0,stabilize
1761306097.8063493,10.002652645111084,0.0,0.0,2.0889646794418875,0.0,0.0,-0.0016543300734692314,0.0,0.0,0.0,0.47302901884809645,0.0,0.0,0.0,stabilize
1761306097.91301,10.109313249588013,0.0,0.0,2.088493855507285,0.0,0.0,-0.011612771146995993,0.0,0.0,0.0,0.4019002397330177,0.0,0.0,0.0,stabilize
1761306098.0175788,10.213882207870483,0.0,0.0,2.088110431301289,0.0,0.0,0.00444838138176662,0.0,0.0,0.0,0.5052924385717183,0.0,0.0,0.0,stabilize
1761306098.1262772,10.322580575942993,0.0,0.0,2.087673976999864,0.0,0.0,-0.0008610096048062774,0.0,0.0,0.0,0.47094619692151846,0.0,0.0,0.0,stabilize
1761306098.2309222,10.427225589752197,0.0,0.0,2.0873081968261116,0.0,0.0,-0.009700284846925908,0.0,0.0,0.0,0.4062089197284642,0.0,0.0,0.0,stabilize
1761306098.335365,10.531668424606323,0.0,0.0,2.086926885191499,0.0,0.0,-0.00587666480470494,0.0,0.0,0.0,0.4365063304869752,0.0,0.0,0.0,stabilize
1761306098.4408271,10.637130498886108,0.0,0.0,2.086409502299505,0.0,0.0,-0.005444149029003455,0.0,0.0,0.0,0.4468776639832451,0.0,0.0,0.0,stabilize
1761306098.5453997,10.741703033447266,0.0,0.0,2.0860117040169235,0.0,0.0,-0.0033486988501147084,0.0,0.0,0.0,0.4,0.0,0.0,0.0,stabilize
1761306098.6517007,10.84800410270691,0.0,0.0,2.0855934239070972,0.0,0.0,-0.001670134039193417,0.0,0.0,0.0,0.4660943504733066,0.0,0.0,0.0,stabilize
1761306098.757271,10.953574419021606,0.0,0.0,2.0852507262663527,0.0,0.0,-0.005412706718070797,0.0,0.0,0.0,0.4,0.0,0.0,0.0,stabilize
1761306098.862891,11.059194326400757,0.0,0.0,2.0846722285737855,0.0,0.0,-0.004668373241890988,0.0,0.0,0.0,0.45379464819227006,0.0,0.0,0.0,stabilize
1761306098.9697733,11.16607666015625,0.0,0.0,2.084167308291049,0.0,0.0,0.0017730535392988522,0.0,0.0,0.0,0.4927310911070921,0.0,0.0,0.0,stabilize
1761306099.0737836,11.270087003707886,0.0,0.0,2.083724523040011,0.0,0.0,-0.0061560256259263375,0.0,0.0,0.0,0.4,0.0,0.0,0.0,stabilize
1761306099.1784823,11.374785661697388,0.0,0.0,2.0830781773830713,0.0,0.0,-0.003611220979431123,0.0,0.0,0.0,0.4677533219689404,0.0,0.0,0.0,stabilize
1761306099.282916,11.479219436645508,0.0,0.0,2.0824447350858564,0.0,0.0,-0.005911714317635113,0.0,0.0,0.0,0.4,0.0,0.0,0.0,stabilize
1761306099.3837912,11.580094575881958,0.0,0.0,2.0816655165474813,0.0,0.0,-0.013476549068320149,0.0,0.0,0.0,0.4,0.0,0.0,0.0,stabilize
1761306099.489195,11.685498476028442,0.0,0.0,2.0809041679753855,0.0,0.0,-0.009503058790520382,0.0,0.0,0.0,0.4283032421884209,0.0,0.0,0.0,stabilize
1761306099.5945523,11.790855646133423,0.0,0.0,2.0802023770991656,0.0,0.0,-0.0010350923393865168,0.0,0.0,0.0,0.49205414468895775,0.0,0.0,0.0,stabilize
1761306099.7036653,11.89996862411499,0.0,0.0,2.079731587869296,0.0,0.0,0.004135512099432493,0.0,0.0,0.0,0.4,0.0,0.0,0.0,stabilize
1761306099.8088696,12.005172967910767,0.0,0.0,2.079378648459606,0.0,0.0,-0.007411549955529929,0.0,0.0,0.0,0.4,0.0,0.0,0.0,stabilize
1761306099.9120815,12.108384847640991,0.0,0.0,2.078878235598789,0.0,0.0,-0.010413206412673045,0.0,0.0,0.0,0.4,0.0,0.0,0.0,stabilize
1761306100.0222566,12.218559980392456,0.0,0.0,2.0782288678602425,0.0,0.0,-0.009492951859606757,0.0,0.0,0.0,0.42915002593024987,0.0,0.0,0.0,stabilize
1761306100.1284947,12.324798107147217,0.0,0.0,2.077592910725687,0.0,0.0,-0.00035356079148792484,0.0,0.0,0.0,0.4896606073011211,0.0,0.0,0.0,stabilize
1761306100.233686,12.429989337921143,0.0,0.0,2.076940972382713,0.0,0.0,-0.012212112474290604,0.0,0.0,0.0,0.40975540586279324,0.0,0.0,0.0,stabilize
1761306100.3382654,12.534568786621094,0.0,0.0,2.076254700160964,0.0,0.0,-0.011013559941856283,0.0,0.0,0.0,0.42152060324037416,0.0,0.0,0.0,stabilize
1761306100.4423277,12.638631105422974,0.0,0.0,2.075525655313474,0.0,0.0,-0.00373422873247931,0.0,0.0,0.0,0.473221700861426,0.0,0.0,0.0,stabilize
1761306100.545715,12.742018461227417,0.0,0.0,2.074844827137654,0.0,0.0,0.003246369969848173,0.0,0.0,0.0,0.5147988914374607,0.0,0.0,0.0,stabilize
1761306100.651462,12.847765445709229,0.0,0.0,2.0743110719498894,0.0,0.0,-0.007617690117497309,0.0,0.0,0.0,0.4,0.0,0.0,0.0,stabilize
1761306100.753272,12.949575424194336,0.0,0.0,2.0735774738547046,0.0,0.0,0.00016763256943347696,0.0,0.0,0.0,0.5048294257437048,0.0,0.0,0.0,stabilize
1761306100.8834445,13.079747915267944,0.0,0.0,2.0723900911402096,0.0,0.0,-0.004110849570136429,0.0,0.0,0.0,0.45138384567818235,0.0,0.0,0.0,stabilize
1761306100.984773,13.181076288223267,0.0,0.0,2.072535544019503,0.0,0.0,-0.0008883823376816657,0.0,0.0,0.0,0.4,0.0,0.0,0.0,stabilize
1761306101.1024606,13.298763990402222,0.0,0.0,2.073532203702707,0.0,0.0,0.031716436751882265,0.0,0.0,0.0,0.4512853775575223,0.0,0.0,0.0,stabilize
1761306101.2109883,13.407291650772095,0.0,0.0,2.078674212217182,0.0,0.0,0.06056044776945502,0.0,0.0,0.0,0.4,0.0,0.0,0.0,stabilize
1761306101.3104224,13.506725788116455,0.0,0.0,2.081706398960923,0.0,0.0,0.03159794889661433,0.0,0.0,0.0,0.5114037231657754,0.0,0.0,0.0,stabilize
1761306101.4289105,13.625213861465454,0.0,0.0,2.084753473499913,0.0,0.0,-0.008824592295903218,0.0,0.0,0.0,0.4,0.0,0.0,0.0,stabilize
1761306101.5528188,13.749122142791748,0.0,0.0,2.0913731179342383,0.0,0.0,0.004868478919538913,0.0,0.0,0.0,0.4,0.0,0.0,0.0,stabilize
1761306101.660565,13.856868267059326,0.0,0.0,2.101595261467492,0.0,0.0,0.1323499419282741,0.0,0.0,0.0,0.4,0.0,0.0,0.0,stabilize
1761306101.7657814,13.962084770202637,0.0,0.0,2.1110062719462075,0.0,0.0,0.05494901208780992,0.0,0.0,0.0,0.4,0.0,0.0,0.0,stabilize
1761306101.8763745,14.072677850723267,0.0,0.0,2.117560153946272,0.0,0.0,0.06016368948931383,0.0,0.0,0.0,0.4,0.0,0.0,0.0,stabilize
1761306101.9789035,14.175206899642944,0.0,0.0,2.122293928638752,0.0,0.0,0.17029660046248138,0.0,0.0,0.0,0.6786820468984054,0.0,0.0,0.0,stabilize
1761306102.08535,14.28165340423584,0.0,0.0,2.136217321623751,0.0,0.0,0.21066738427955045,0.0,0.0,0.0,0.9,0.0,0.0,0.0,stabilize
1761306102.1929038,14.389207124710083,0.0,0.0,2.153994341009672,0.0,0.0,0.11837902360807567,0.0,0.0,0.0,0.4,0.0,0.0,0.0,stabilize
1761306102.4002972,14.596600532531738,0.0,0.0,2.1701560697794995,0.0,0.0,0.0238087027683601,0.0,0.0,0.0,0.4100316767756105,0.0,0.0,0.0,stabilize
1761306102.5253575,14.721660852432251,0.0,0.0,2.192261216563618,0.0,0.0,0.1828034494286768,0.0,0.0,0.0,0.4,0.0,0.0,0.0,stabilize
1761306102.629951,14.82625436782837,0.0,0.0,2.2067105265274045,0.0,0.0,0.09350832001314427,0.0,0.0,0.0,0.4,0.0,0.0,0.0,auto
1761306102.7351427,14.931446075439453,0.0,0.0,2.211826788845653,0.0,0.0,0.0037728136909715385,0.0,0.0,0.0,0.4,0.0,0.0,0.0,auto
1761306102.8365657,15.032869100570679,0.0,0.0,2.2078226893240838,0.0,0.0,-0.08272658634237653,0.0,0.0,0.0,0.4,0.0,0.0,0.0,auto
1761306102.9413588,15.137662172317505,0.0,0.0,2.1944730489177435,0.0,0.0,-0.17203849004591376,0.0,0.0,0.0,0.4,0.0,0.0,0.0,auto
1761306103.0465379,15.242841243743896,0.0,0.0,2.1716694070273066,0.0,0.0,-0.26154987183290934,0.0,0.0,0.0,0.4,0.0,0.0,0.0,auto
1761306103.1513636,15.34766697883606,0.0,0.0,2.1395847226226823,0.0,0.0,-0.3505648632931768,0.0,0.0,0.0,0.4,0.0,0.0,0.0,auto
1761306103.255317,15.45162034034729,0.0,0.0,2.0985650266813045,0.0,0.0,-0.43858121693238655,0.0,0.0,0.0,0.4,0.0,0.0,0.0,auto
1761306103.3616674,15.557970762252808,0.0,0.0,2.047147905740097,0.0,0.0,-0.5282950691137831,0.0,0.0,0.0,0.4,0.0,0.0,0.0,auto
1761306103.4650056,15.661309003829956,0.0,0.0,1.9880670243280412,0.0,0.0,-0.6150831826515482,0.0,0.0,0.0,0.4,0.0,0.0,0.0,auto
1761306103.5731726,15.769475936889648,0.0,0.0,1.9170556825249414,0.0,0.0,-0.6970164229206339,0.0,0.0,0.0,0.4,0.0,0.0,0.0,auto
1761306103.6792145,15.875517845153809,0.0,0.0,1.840090050888407,0.0,0.0,-0.7589291641162291,0.0,0.0,0.0,0.4,0.0,0.0,0.0,auto
1761306103.7863138,15.982617139816284,0.0,0.0,1.7563224791053258,0.0,0.0,-0.8149903582228054,0.0,0.0,0.0,0.4,0.0,0.0,0.0,auto
1761306103.8911085,16.087411880493164,0.0,0.0,1.6682532586404535,0.0,0.0,-0.8563383182236036,0.0,0.0,0.0,0.4431619828047311,0.0,0.0,0.0,auto
1761306103.9951339,16.191437244415283,0.0,0.0,1.576858715287911,0.0,0.0,-0.8933052145390395,0.0,0.0,0.0,0.45777881123395187,0.0,0.0,0.0,auto
1761306104.0969224,16.29322576522827,0.0,0.0,1.4840170134481694,0.0,0.0,-0.9088046538816629,0.0,0.0,0.0,0.5286188842068876,0.0,0.0,0.0,auto
1761306104.2026772,16.398980617523193,0.0,0.0,1.3894509819305896,0.0,0.0,-0.8789728781567511,0.0,0.0,0.0,0.427201448181772,0.0,0.0,0.0,auto
1761306104.3077962,16.50409960746765,0.0,0.0,1.3003150220966948,0.0,0.0,-0.8172192621748056,0.0,0.0,0.0,0.5237232862905316,0.0,0.0,0.0,auto
1761306104.4102933,16.60659670829773,0.0,0.0,1.2180118894850775,0.0,0.0,-0.7678699593670153,0.0,0.0,0.0,0.5594168868421765,0.0,0.0,0.0,auto
1761306104.5137649,16.710068225860596,0.0,0.0,1.1395529825976176,0.0,0.0,-0.7235336776306815,0.0,0.0,0.0,0.5579200527731829,0.0,0.0,0.0,auto
1761306104.6172185,16.81352186203003,0.0,0.0,1.065696382517907,0.0,0.0,-0.6856423671071613,0.0,0.0,0.0,0.5186801065649447,0.0,0.0,0.0,auto
1761306104.722166,16.918469429016113,0.0,0.0,0.9953760190792736,0.0,0.0,-0.6338130494865576,0.0,0.0,0.0,0.5706854764991226,0.0,0.0,0.0,auto
1761306104.8318853,17.028188705444336,0.0,0.0,0.9271141729145604,0.0,0.0,-0.5893186968407667,0.0,0.0,0.0,0.4,0.0,0.0,0.0,auto
1761306104.935391,17.131694316864014,0.0,0.0,0.8673262960203398,0.0,0.0,-0.5536909507539975,0.0,0.0,0.0,0.513059444432574,0.0,0.0,0.0,auto
1761306105.0394995,17.23580288887024,0.0,0.0,0.8110334098703498,0.0,0.0,-0.5301501861045002,0.0,0.0,0.0,0.4196446974917059,0.0,0.0,0.0,auto
1761306105.1483042,17.34460759162903,0.0,0.0,0.7557596983360199,0.0,0.0,-0.5007160919716718,0.0,0.0,0.0,0.4,0.0,0.0,0.0,auto
1761306105.2515924,17.447895765304565,0.0,0.0,0.70660367843332,0.0,0.0,-0.4619882777595678,0.0,0.0,0.0,0.4787686971461593,0.0,0.0,0.0,auto
1761306105.3559313,17.552234649658203,0.0,0.0,0.6597467262838258,0.0,0.0,-0.4314575707628568,0.0,0.0,0.0,0.4916415664487779,0.0,0.0,0.0,auto
1761306105.4602377,17.656541109085083,0.0,0.0,0.6155964997467529,0.0,0.0,-0.4003510386267901,0.0,0.0,0.0,0.5278075893082614,0.0,0.0,0.0,auto
1761306105.5660782,17.762381553649902,0.0,0.0,0.5737284517167572,0.0,0.0,-0.3773361708194479,0.0,0.0,0.0,0.4948533075737585,0.0,0.0,0.0,auto
1761306105.6709533,17.86725664138794,0.0,0.0,0.5349992427513779,0.0,0.0,-0.3642888817893919,0.0,0.0,0.0,0.41185180406703314,0.0,0.0,0.0,auto
1761306105.775282,17.971585273742676,0.0,0.0,0.4990832268909398,0.0,0.0,-0.3395692091440854,0.0,0.0,0.0,0.41693249316387304,0.0,0.0,0.0,auto
1761306105.8800988,18.076402187347412,0.0,0.0,0.4654186948262541,0.0,0.0,-0.3057990147882574,0.0,0.0,0.0,0.49264179405888575,0.0,0.0,0.0,auto
1761306105.985186,18.18148946762085,0.0,0.0,0.4340027643578098,0.0,0.0,-0.29802308072468625,0.0,0.0,0.0,0.40498805891508177,0.0,0.0,0.0,auto
1761306106.0907588,18.287062168121338,0.0,0.0,0.40490600066259586,0.0,0.0,-0.2711681801811195,0.0,0.0,0.0,0.4361381938306321,0.0,0.0,0.0,auto
1761306106.1947582,18.391061544418335,0.0,0.0,0.37805126389494864,0.0,0.0,-0.25375582895120313,0.0,0.0,0.0,0.4,0.0,0.0,0.0,auto
1761306106.2999487,18.496252059936523,0.0,0.0,0.3530654473310232,0.0,0.0,-0.21732446146338347,0.0,0.0,0.0,0.5369279424202308,0.0,0.0,0.0,auto
1761306106.4089882,18.605291604995728,0.0,0.0,0.3293501720850264,0.0,0.0,-0.20033376123735658,0.0,0.0,0.0,0.5223411693779655,0.0,0.0,0.0,auto
1761306106.512957,18.7092604637146,0.0,0.0,0.30824215733291915,0.0,0.0,-0.1927252636226245,0.0,0.0,0.0,0.48595664809826233,0.0,0.0,0.0,auto
1761306106.6170547,18.813358068466187,0.00022146160184001557,0.0,0.2974473309174103,0.02032538407572443,0.0,0.2506392412039551,0.0,-0.06566824832179176,0.0,0.9,0.0,-0.2,0.0,auto
1761306106.7212372,18.917540550231934,0.015404162252371626,0.0,0.36634127766830316,0.28615269121519227,0.0,0.8323405695707069,0.0,-0.23895519983781785,0.0,0.5463875412563426,0.0,0.2,0.0,auto
1761306106.8277884,19.024091720581055,0.05618612385864136,0.0,0.4619813194708621,0.43468937416527564,0.0,0.9756654219509268,0.0,-0.04274573393762962,0.0,0.5973809735193816,0.0,-0.2,0.0,auto
1761306106.9332101,19.12951350212097,0.10684119195213687,0.0,0.5687627367965677,0.5272374280331291,0.0,1.0616117413568296,0.0,-0.041253929972535054,0.0,0.5048308433166914,0.0,-0.08604748244735771,0.0,auto
1761306107.0335376,19.229840993881226,0.16301233314255392,0.0,0.6796034418038212,0.6033984176584811,0.0,1.1431585748226918,0.0,-0.06000916068324455,0.0,0.4,0.0,0.14555983936084488,0.0,auto
1761306107.1401203,19.336423635482788,0.23002703555388634,0.0,0.8059987639478711,0.6670478211123578,0.0,1.2356686404255004,0.0,-0.06796941838305846,0.0,0.5519376256356504,0.0,0.18899911055701782,0.0,auto
1761306107.2445261,19.440829515457153,0.3017075632106359,0.0,0.9369449289013196,0.7159621977041914,0.0,1.2902969943046487,0.0,-0.07200518440408916,0.0,0.4,0.0,0.2,0.0,auto
1761306107.3510504,19.547353744506836,0.37994074699496566,0.0,1.0767036867845847,0.7560241814354559,0.0,1.3309431096312894,0.0,-0.06906773822198738,0.0,0.4,0.0,0.16940155640632473,0.0,auto
1761306107.45552,19.65182328224182,0.4608158452313897,0.0,1.218849888283725,0.7905661466510653,0.0,1.396660586641217,0.0,-0.05984085582513774,0.0,0.5780352038468859,0.0,0.08695255875867353,0.0,auto
1761306107.5613222,19.757625579833984,0.546203020318982,0.0,1.3670540930236246,0.8174515011457439,0.0,1.4065995192653074,0.0,-0.047158130203997235,0.0,0.4061354399603209,0.0,0.007248978796414276,0.0,auto
1761306107.6660786,19.86238193511963,0.6336382460605811,0.0,1.5173372732993275,0.8421718561810861,0.0,1.4427855078123146,0.0,-0.032080280355450665,0.0,0.43449809464831624,0.0,-0.06221085430178451,0.0,auto
1761306107.7694747,19.9657781124115,0.7223122945396088,0.0,1.6684201110758623,0.8639514066622401,0.0,1.4753121601515022,0.0,-0.016863328037071468,0.0,0.4764022061206891,0.0,-0.11679712023035138,0.0,auto
1761306107.871435,20.06773829460144,0.8108450199321977,0.0,1.818145684686082,0.8837420367024791,0.0,1.4868808263987257,0.0,-0.001864573789983972,0.0,0.4260796971491129,0.0,-0.12423766824607402,0.0,auto
1761306107.977429,20.1737322807312,0.9055287608915322,0.0,1.9773465492214326,0.900578903884843,0.0,1.5022298799879945,0.0,0.00014703372655963578,0.0,0.4,0.0,-0.08469337974391142,0.0,auto
1761306108.0807006,20.27700400352478,1.0011931714528213,0.0,2.135828190412036,0.9702820689045726,0.0,1.5215025802519802,0.0,-0.1873650255725939,0.0,0.4,0.0,-0.2,0.0,auto
1761306108.1861124,20.382415771484375,1.117565505557061,0.0,2.2977229513677004,1.2428013836856637,0.0,1.535562656736815,0.0,-0.21992272572672641,0.0,0.4,0.0,0.2,0.0,auto
1761306108.2912593,20.487562656402588,1.255920529633848,0.0,2.4605511799636703,1.360250321836203,0.0,1.5548239843726868,0.0,-0.09991742220461738,0.0,0.4589633325881702,0.0,-0.17186923352068795,0.0,auto
1761306108.3967059,20.59300923347473,1.4052046500542348,0.0,2.6249345279565985,1.4567588966146392,0.0,1.5672701278835843,0.0,-0.06948226194321382,0.0,0.4,0.0,-0.1928762033763653,0.0,auto
1761306108.5046797,20.70098304748535,1.5671461637580086,0.0,2.794153369823458,1.5285176931917053,0.0,1.5645673444361803,0.0,-0.01313001461604382,0.0,0.4090298916109608,0.0,-0.15218015293949572,0.0,auto
1761306108.6082635,20.804566860198975,1.726106744654186,0.0,2.9571975843659346,1.5501647088679247,0.0,1.5733990137598586,0.0,-0.033985562127668976,0.0,0.4,0.0,0.14390415685853777,0.0,auto
1761306108.7150931,20.911396503448486,1.8920437352301147,0.0,3.1258012819760532,1.5631893154713972,0.0,1.5805390442674676,0.0,-0.03454759250046366,0.0,0.4,0.0,0.10158769510908718,0.0,auto
1761306108.821953,21.018256425857544,2.0588873479095806,0.0,3.290418311674031,1.563039266528582,0.0,1.4941037229283287,0.0,-0.03529873102686884,0.0,0.4,0.0,0.11806833481407136,0.0,auto
1761306108.9275205,21.123823881149292,2.2237188043902787,0.0,3.4432980882834356,1.557558275104968,0.0,1.3994305687583408,0.0,-0.019959910552689666,0.0,0.4,0.0,0.012397379769318671,0.0,auto
1761306109.0321262,21.228429555892944,2.3864563776362706,0.0,3.584650152138843,1.5482792213886805,0.0,1.3039815120800387,0.0,-0.003112708311948132,0.0,0.4,0.0,-0.03997394557739607,0.0,auto
1761306109.1363862,21.3326895236969,2.5475800853971773,0.0,3.7156832779818063,1.5374375972526457,0.0,1.2095392921936383,0.0,0.011415241258251227,0.0,0.4,0.0,-0.09533150952080378,0.0,auto
1761306109.2421565,21.438459873199463,2.709568337068395,0.0,3.8386204426091948,1.5228547074732786,0.0,1.1147379645673996,0.0,0.021363681503010767,0.0,0.4,0.0,-0.05468673996109372,0.0,auto
1761306109.3486161,21.54491949081421,2.8707065940384573,0.0,3.952545635048363,1.50653130778929,0.0,1.0282153149841815,0.0,0.027873729419793103,0.0,0.4,0.0,0.030452439351324974,0.0,auto
1761306109.4544773,21.65078067779541,3.027754686050534,0.0,4.057015063976533,1.4861635171935739,0.0,0.956033883968814,0.0,0.006260364999681884,0.0,0.4,0.0,0.1093910438679027,0.0,auto
1761306109.560843,21.75714635848999,3.1849136734141563,0.0,4.154720391894998,1.4625977587069365,0.0,0.8759070396038318,0.0,-1.8550676622370102e-05,0.0,0.4,0.0,0.14404329079913486,0.0,auto
1761306109.667863,21.864166259765625,3.3397451733946526,0.0,4.243428566062893,1.432523370448189,0.0,0.7853161432290234,0.0,-0.0038482675050839268,0.0,0.41025600359410663,0.0,0.06874730071435366,0.0,auto
1761306109.772749,21.9690523147583,3.48894737748057,0.0,4.321800723247238,1.406481592978152,0.0,0.7099800469603408,0.0,0.012848259680013054,0.0,0.40756128523956725,0.0,-0.0847099333873819,0.0,auto
1761306109.8764944,22.072797775268555,3.6339357637265133,0.0,4.391930872384913,1.3822593940597978,0.0,0.6430909495303639,0.0,0.028613902424410927,0.0,0.4118020121265588,0.0,-0.07906067612651121,0.0,auto
1761306109.980595,22.17689847946167,3.776714710579426,0.0,4.455652695451882,1.357514471269125,0.0,0.5838992805452359,0.0,0.037242151407479794,0.0,0.4207705988651278,0.0,-0.11423644306815284,0.0,auto
1761306110.0887713,22.285074710845947,3.921846252689821,0.0,4.515854471355737,1.3211982883287212,0.0,0.5299411566011406,0.0,0.034621601477641935,0.0,0.4,0.0,-0.16063779403333323,0.0,auto
1761306110.193683,22.389986276626587,4.059716856922093,0.0,4.568699687732587,1.3001278588199607,0.0,0.484026168852233,0.0,0.048980304568499514,0.0,0.438280009206446,0.0,-0.1799295752983457,0.0,auto
1761306110.3003538,22.496657133102417,4.1971483822223306,0.0,4.6176476830588005,1.2787063863890122,0.0,0.44054651128302597,0.0,0.04026893753178855,0.0,0.4633141443033035,0.0,-0.030700361432366118,0.0,auto
1761306110.4041944,22.600497722625732,4.327483441941932,0.0,4.660605303109383,1.2527000708074651,0.0,0.3956794358062486,0.0,0.01849843117757778,0.0,0.4264347542070934,0.0,0.07209088972225555,0.0,auto
1761306110.5073354,22.703638792037964,4.455631822941418,0.0,4.6996595505228544,1.2249949735964953,0.0,0.3578917228663572,0.0,0.009812798969337845,0.0,0.4256966925391484,0.0,0.031024620559209383,0.0,auto
1761306110.611631,22.807934284210205,4.581948550106618,0.0,4.735182950935485,1.1979610557880238,0.0,0.329694401942867,0.0,0.008359927222995474,0.0,0.4687271006637619,0.0,0.02501178448136436,0.0,auto
1761306110.71528,22.911583423614502,4.7048561626917165,0.0,4.76725087287416,1.1719285870891345,0.0,0.2911111511445905,0.0,0.01571065796017082,0.0,0.4094549092919301,0.0,0.015903338606560197,0.0,auto
1761306110.8224556,23.01875901222229,4.829174277803511,0.0,4.797283040507425,1.147421588541587,0.0,0.26213600049280805,0.0,0.012862738275901536,0.0,0.4,0.0,-0.08801987254136716,0.0,auto
1761306110.9293141,23.125617504119873,4.950198832622105,0.0,4.824712105149182,1.1176160948811558,0.0,0.24141064825255298,0.0,0.00208521886501096,0.0,0.4,0.0,0.032870819814148,0.0,auto
1761306111.0345597,23.230863094329834,5.066766121248037,0.0,4.849173502770079,1.0923757153236788,0.0,0.22008084974880027,0.0,0.011329137069507712,0.0,0.4,0.0,-0.043933233831069896,0.0,auto
1761306111.1431866,23.339489936828613,5.184328564991275,0.0,4.87210633480066,1.0598170227969648,0.0,0.1998392782827302,0.0,0.04084076037120717,0.0,0.40111417537228217,0.0,-0.2,0.0,auto
1761306111.2487519,23.44505524635315,5.295693865083543,0.0,4.8924766980235255,1.0438953755394986,0.0,0.18660680332134816,0.0,0.04890352356840121,0.0,0.44733388846427846,0.0,-0.14450463142266162,0.0,auto
1761306111.353585,23.549888372421265,5.40393169102948,0.0,4.910860441110315,1.0246762000651815,0.0,0.16333114263073842,0.0,0.03970308425257228,0.0,0.41897913326743386,0.0,-0.029081380323101702,0.0,auto
1761306111.458507,23.654810428619385,5.509850790934028,0.0,4.92753353125041,1.0025328931357684,0.0,0.1504119295259362,0.0,0.02471649474931206,0.0,0.4352445660578834,0.0,0.0620869850755429,0.0,auto
1761306111.5644648,23.760768175125122,5.614440946049201,0.0,4.942768911955786,0.9782495397659846,0.0,0.13454815617723317,0.0,0.021698345162949106,0.0,0.4,0.0,0.025351499214444878,0.0,auto
1761306111.670757,23.86706042289734,5.7169606837443165,0.0,4.956668916329702,0.9575593268218717,0.0,0.12945956243815765,0.0,0.012041108417786744,0.0,0.4724130558281513,0.0,0.09531839752311963,0.0,auto
1761306111.7757497,23.972053050994873,5.815977135723743,0.0,4.96914002826163,0.9346658760236802,0.0,0.10777128697101558,0.0,0.0002739493759118176,0.0,0.4030748382293575,0.0,0.10631287189561837,0.0,auto
1761306111.878862,24.075165271759033,5.911083031694266,0.0,4.980272327350311,0.9116908584894109,0.0,0.10910547043099586,0.0,-0.0034369157972063526,0.0,0.48360936699486445,0.0,0.09670858299425318,0.0,auto
1761306111.9845717,24.180875062942505,6.0064807217320615,0.0,4.990688145342331,0.8883517381626965,0.0,0.09521815567736792,0.0,0.006774967272964311,0.0,0.45710188454246925,0.0,-0.05356449316448575,0.0,auto
1761306112.0908973,24.287200689315796,6.100239694169337,0.0,5.00024417303524,0.8680824140441761,0.0,0.08631208535917541,0.0,0.01439733497648672,0.0,0.4496531879887139,0.0,-0.091395937299237,0.0,auto
1761306112.1949327,24.391236066818237,6.189855567434337,0.0,5.008773302199634,0.8486987800170934,0.0,0.07748362912992564,0.0,0.021030027332153846,0.0,0.4,0.0,-0.12658990848660678,0.0,auto
1761306112.299401,24.495704412460327,6.277809878695519,0.0,5.016457865722992,0.8301884526917699,0.0,0.06705663831107543,0.0,0.02674158475659773,0.0,0.4167454385252186,0.0,-0.11074404568134522,0.0,auto
1761306112.399491,24.595794439315796,6.360172844832222,0.0,5.023236929752803,0.8099959643776026,0.0,0.061718568384520084,0.0,0.03309879939264226,0.0,0.4,0.0,-0.14927225270172212,0.0,auto
1761306112.5048494,24.701152801513672,6.444411410430522,0.0,5.029570045428971,0.794732082901886,0.0,0.063808495248764,0.0,0.033291771753966075,0.0,0.48575346284032056,0.0,-0.09339868198903567,0.0,auto
1761306112.6119082,24.8082115650177,6.52819310240989,0.0,5.035338835595169,0.7791223054289236,0.0,0.04919672109852372,0.0,0.027401380142871457,0.0,0.4,0.0,0.004571542095119347,0.0,auto
1761306112.7159235,24.912226915359497,6.608677088624667,0.0,5.040366045713818,0.7613913066392246,0.0,0.04525375141588436,0.0,0.012795048308655414,0.0,0.44462529341025914,0.0,0.0881896363604278,0.0,auto
1761306112.8218832,25.018186569213867,6.688105665304647,0.0,5.044821726020983,0.743174650413432,0.0,0.047632237830098026,0.0,0.005214036811385919,0.0,0.4967174221423757,0.0,0.07772128429343864,0.0,auto
1761306112.9269793,25.12328267097473,6.765103782582949,0.0,5.048811845304738,0.7261024792737946,0.0,0.0332098970374204,0.0,-0.001716638724358152,0.0,0.41756621154846996,0.0,0.13287214117712481,0.0,auto
1761306113.0319982,25.228301525115967,6.840316824605685,0.0,5.052389581614673,0.7078369288262101,0.0,0.028627502838095967,0.0,-0.002527867161268545,0.0,0.4,0.0,0.07073139132057783,0.0,auto
1761306113.1355062,25.331809520721436,6.912763810904626,0.0,5.055773772540514,0.6897028582893502,0.0,0.0336877717997027,0.0,0.0025172165862742063,0.0,0.46604769785224553,0.0,0.01411587881898961,0.0,auto
1761306113.239114,25.435417413711548,6.9836553324355854,0.0,5.058858651749729,0.6736506451484483,0.0,0.029763596880775678,0.0,0.01334453395573404,0.0,0.46011024455207633,0.0,-0.049107327203398915,0.0,auto
1761306113.3433242,25.53962755203247,7.053344972291948,0.0,5.061666782182377,0.659084126217022,0.0,0.02044296668916027,0.0,0.022311806803332133,0.0,0.4,0.0,-0.09973421202396235,0.0,auto
1761306113.447204,25.643507480621338,7.121221809395444,0.0,5.064062061768691,0.6452328772502826,0.0,0.01745544349173999,0.0,0.02816947090362407,0.0,0.4,0.0,-0.08852228023007042,0.0,auto
1761306113.5502577,25.74656105041504,7.1870139750852156,0.0,5.066215362819994,0.6330677804764859,0.0,0.02148929144153771,0.0,0.026032136986941738,0.0,0.4641762154725788,0.0,-0.028588143769063257,0.0,auto
1761306113.6556833,25.85198664665222,7.252824524943093,0.0,5.068142519067481,0.620461034317076,0.0,0.012182484302912756,0.0,0.019784692168058275,0.0,0.4,0.0,0.03638816486827953,0.0,auto
1761306113.761768,25.95807147026062,7.317493542821324,0.0,5.069844472490174,0.605583081836257,0.0,0.011010349488097213,0.0,0.010589899446496291,0.0,0.4,0.0,0.08314665327428888,0.0,auto
1761306113.8667395,26.063042879104614,7.379977914667549,0.0,5.071262544361811,0.5907857451369649,0.0,0.014101308755593935,0.0,0.0015753685810820637,0.0,0.45576467802934534,0.0,0.08719275408589083,0.0,auto
1761306113.9724765,26.168779850006104,7.4414761413145385,0.0,5.072464723974906,0.5748878231559442,0.0,0.005547296999693961,0.0,-0.0031258718738507774,0.0,0.41205539494883203,0.0,0.06443899379977094,0.0,auto
1761306114.0759692,26.27227258682251,7.5002989362290595,0.0,5.073513784091068,0.5597912120414577,0.0,0.0026479757596714042,0.0,0.0015004140810267533,0.0,0.4,0.0,0.004095445490676499,0.0,auto
1761306114.1825795,26.378882884979248,7.559529957859314,0.0,5.0745286558830776,0.546477472219246,0.0,0.008380970420406203,0.0,0.010090463650556832,0.0,0.4533926057297654,0.0,-0.042487986081632456,0.0,auto
1761306114.2868114,26.48311471939087,7.616049937175112,0.0,5.07522394001669,0.534077962035079,0.0,0.0008166787762376986,0.0,0.015192185555655078,0.0,0.4063302076137119,0.0,-0.056500103914643274,0.0,auto
1761306114.3911242,26.587427616119385,7.671306719973441,0.0,5.075735297614198,0.5227898206977758,0.0,-0.0016754414361899207,0.0,0.019993643462525672,0.0,0.4,0.0,-0.057185765536692745,0.0,auto
1761306114.4948955,26.69119882583618,7.724990437704676,0.0,5.07626478196286,0.5121653226226863,0.0,0.0037651469397325405,0.0,0.018448905892178947,0.0,0.4,0.0,-0.04187187899726258,0.0,auto
1761306114.597249,26.79355239868164,7.776511867440474,0.0,5.07675514031682,0.49366852599423516,0.0,0.0027133025144846362,0.0,0.009360419750533448,0.0,0.4,0.0,-0.054112178609445546,0.0,auto
1761306114.7008717,26.897175073623657,7.82740745567174,0.0,5.077001695296748,0.48414089833126356,0.0,0.0005481294482137849,0.0,0.01531335824540911,0.0,0.4319553757280952,0.0,-0.08927375124880046,0.0,auto
1761306114.8052993,27.00160264968872,7.877653811674537,0.0,5.0771919297608745,0.4748038314641141,0.0,0.0016496837645494072,0.0,0.020405419550400677,0.0,0.4,0.0,-0.08057075726832316,0.0,auto
1761306114.9085524,27.10485577583313,7.926210913957986,0.0,5.077407464759017,0.46542896231660985,0.0,0.000888707054826297,0.0,0.019299066870556644,0.0,0.4,0.0,-0.03650384609811071,0.0,auto
1761306115.0122595,27.20856285095215,7.973891058987156,0.0,5.077434563753497,0.45628092216177896,0.0,0.008051393790948106,0.0,0.014587124267789565,0.0,0.5062142866524464,0.0,0.015456081312609008,0.0,auto
1761306115.1169178,27.313221216201782,8.020695072962429,0.0,5.077422828878908,0.44651680205685973,0.0,-0.002998199194728873,0.0,0.00832498352103199,0.0,0.4,0.0,0.04824257497610326,0.0,auto
1761306115.2200687,27.416372060775757,8.066241401717095,0.0,5.077279252301304,0.435621182896021,0.0,-0.005839915409783616,0.0,0.0007339703300554914,0.0,0.4,0.0,0.06705709452434797,0.0,auto
1761306115.3255332,27.521836519241333,8.111546437723785,0.0,5.077264099717872,0.42497849408014576,0.0,-0.008599911756924714,0.0,-0.0013326467942149532,0.0,0.4,0.0,0.05743485996297839,0.0,auto
1761306115.4284132,27.62471652030945,8.154711914957613,0.0,5.077238127341102,0.41387276037812715,0.0,-0.006669586941847914,0.0,-0.00122468674340277,0.0,0.41101956674260787,0.0,0.025140185667687682,0.0,auto
1761306115.5302444,27.726547718048096,8.196510689132156,0.0,5.07708039946192,0.4041181946046393,0.0,-0.005105604637483946,0.0,0.0050143278664392475,0.0,0.4,0.0,-0.019943185520319717,0.0,auto
1761306115.6402404,27.836543798446655,8.240529411018159,0.0,5.077669313921522,0.3877820836704312,0.0,0.010049594836686956,0.0,0.02464829813221589,0.0,0.4,0.0,-0.17410356672559296,0.0,auto
1761306115.7444658,27.94076919555664,8.2810220770148,0.0,5.078356723484352,0.3835104931284946,0.0,0.006411111368046634,0.0,0.03208869968239888,0.0,0.4,0.0,-0.15998710759812323,0.0,auto
1761306115.8468838,28.043187141418457,8.319949162394938,0.0,5.078888134532119,0.37826219622158713,0.0,0.007625015991792262,0.0,0.02639870484716687,0.0,0.47109778709364764,0.0,-0.04714346122541891,0.0,auto
1761306115.9505763,28.14687967300415,8.358493413979199,0.0,5.079261504694728,0.37149263095745044,0.0,-0.00028955914632338917,0.0,0.014828128989743776,0.0,0.4,0.0,0.04273948795147924,0.0,auto
1761306116.059104,28.255407333374023,8.397980042714662,0.0,5.079530938244517,0.3627319624437895,0.0,-0.0009855603035706208,0.0,0.015820048891062668,0.0,0.4357311744995325,0.0,0.0551080558318712,0.0,auto
1761306116.1634634,28.359766721725464,8.434944674544983,0.0,5.079437220259331,0.354575009191427,0.0,-0.00570003730746641,0.0,-0.0010170637583088744,0.0,0.4108108002649655,0.0,0.11360816121947231,0.0,auto
1761306116.268792,28.465095281600952,8.471466205638135,0.0,5.079238254107513,0.3444793600622728,0.0,-0.0049360981696248835,0.0,-0.010413054186402261,0.0,0.42418301640016715,0.0,0.11106814370761096,0.0,auto
1761306116.375226,28.571529388427734,8.507576936694813,0.0,5.078782357327516,0.3349003275094726,0.0,-0.008911160347271475,0.0,-0.011999096205872774,0.0,0.41783810179620895,0.0,0.07793678764692775,0.0,auto
1761306116.4811609,28.677464246749878,8.542738760706229,0.0,5.078306583889222,0.32543563432329264,0.0,0.004389947654253622,0.0,-0.005526341404565928,0.0,0.5114971151716975,0.0,0.016724935793666688,0.0,auto
1761306116.5882702,28.784573554992676,8.577470641601701,0.0,5.077907063543962,0.31699031157199237,0.0,-0.009907379735544529,0.0,0.0042556813889285915,0.0,0.40564915302002624,0.0,-0.05912032867377888,0.0,auto
1761306116.6946898,28.890993118286133,8.611160044713735,0.0,5.077590355394646,0.3098619144908761,0.0,0.0011315287437566176,0.0,0.012557176964271622,0.0,0.471051775658697,0.0,-0.09955797381712708,0.0,auto
1761306116.801889,28.998192310333252,8.644312005819266,0.0,5.077184413353078,0.30355865294671475,0.0,0.00293306822374316,0.0,0.018588309447136422,0.0,0.4890929352780241,0.0,-0.0936180322444082,0.0,auto
1761306116.908595,29.10489845275879,8.676317753478646,0.0,5.076961266095238,0.29703560397930545,0.0,-0.008570148506810347,0.0,0.01849078839029267,0.0,0.4032340982562292,0.0,-0.08384346177371343,0.0,auto
1761306117.0124905,29.208793878555298,8.707073926868263,0.0,5.076722511000618,0.2918685033687106,0.0,-0.007619271166773356,0.0,0.019479339499927466,0.0,0.412779449807472,0.0,-0.053653867084454784,0.0,auto
1761306117.1188467,29.315150022506714,8.737705837616131,0.0,5.07628973434852,0.2865270606427815,0.0,-0.005727305100782329,0.0,0.017725934016529808,0.0,0.4,0.0,-0.016132278122749137,0.0,auto
1761306117.2231436,29.41944694519043,8.767040408055893,0.0,5.075666936331953,0.28083225142822993,0.0,-0.0077649020303223945,0.0,0.009671314494703442,0.0,0.4350710586377494,0.0,0.03931475721845098,0.0,auto
1761306117.3287325,29.525035858154297,8.796079231774641,0.0,5.075078236044174,0.27482042161251813,0.0,-0.003657150846314121,0.0,0.0023061299301749202,0.0,0.4,0.0,0.08413142789265556,0.0,auto
1761306117.4321764,29.628479719161987,8.823881140877726,0.0,5.0745485364779475,0.26760186902810973,0.0,0.0017550961387289322,0.0,-0.005593122273572622,0.0,0.49604752660896434,0.0,0.09555423561397144,0.0,auto
1761306117.5421884,29.738491773605347,8.852789106837687,0.0,5.073972187838231,0.26035916531154346,0.0,-0.011235371191540337,0.0,-0.005656221532658228,0.0,0.4,0.0,0.08666677556601779,0.0,auto
1761306117.648688,29.844991445541382,8.880042768474492,0.0,5.073484976687984,0.2531060518762592,0.0,-0.002587133660755531,0.0,-0.008277731494340882,0.0,0.46437837046492864,0.0,0.06662873117291568,0.0,auto
1761306117.7546003,29.95090365409851,8.906536917656847,0.0,5.072879834241228,0.24560810823780302,0.0,-0.010763390235317976,0.0,-0.005100852173427849,0.0,0.41863447658122505,0.0,0.006243225088326169,0.0,auto
1761306117.859215,30.05551838874817,8.93209840349718,0.0,5.0722422472762885,0.23930200235522628,0.0,-0.004570432919505763,0.0,0.0002043518884771783,0.0,0.46162879402064,0.0,-0.026532699129470663,0.0,auto
1761306117.9634829,30.159786224365234,8.95700374050577,0.0,5.071605677594354,0.2337878848743764,0.0,-0.011266166483310264,0.0,0.008617148849818727,0.0,0.41384959946653044,0.0,-0.058964810243524915,0.0,auto
1761306118.0676475,30.26395082473755,8.981289210051603,0.0,5.070959313285708,0.22929630234212234,0.0,-0.011774546004679011,0.0,0.013742797305806829,0.0,0.4080430991177888,0.0,-0.0634184428080478,0.0,auto
1761306118.1746821,30.370985507965088,9.005656255737714,0.0,5.070253267321111,0.22487505435154945,0.0,-0.011209946934305492,0.0,0.015201979081485548,0.0,0.4203553695070065,0.0,-0.05569868595631576,0.0,auto
1761306118.2798681,30.476171493530273,9.029009805627215,0.0,5.0695501868348005,0.22043269300751192,0.0,0.0012448294851248685,0.0,0.012379194834712854,0.0,0.5043440233732315,0.0,-0.012816568880099032,0.0,auto
1761306118.386986,30.58328938484192,9.052234339963746,0.0,5.068814619070383,0.2154542368076587,0.0,-0.0021621961914584722,0.0,0.010170474264876085,0.0,0.4854637636069116,0.0,0.006068757685353547,0.0,auto
1761306118.4915357,30.687839031219482,9.07433610659324,0.0,5.068148986387375,0.21064711591326388,0.0,-0.0050632048765497616,0.0,0.003694347461488598,0.0,0.45823863299952367,0.0,0.03434297060881117,0.0,auto
1761306118.5983992,30.794702529907227,9.096417580009785,0.0,5.067612600687795,0.20552882829332497,0.0,-0.004560082976698909,0.0,-0.0005934287580938277,0.0,0.4,0.0,0.06774789930825412,0.0,auto
1761306118.7033007,30.899604082107544,9.117551028464261,0.0,5.067144258863792,0.1996498305068096,0.0,-0.0030397995846194467,0.0,-0.0037684048383681908,0.0,0.45481447088678334,0.0,0.054925009592819984,0.0,auto
1761306118.8069654,31.003268718719482,9.137957373774288,0.0,5.0666420692582825,0.19399277750445773,0.0,0.004336988265049758,0.0,-0.003581604666585793,0.0,0.5123691706665061,0.0,0.02784397179171534,0.0,auto
1761306118.9112809,31.107584238052368,9.158038624095592,0.0,5.066075347811435,0.1888386093838445,0.0,-0.012319162990766176,0.0,0.0006866231013916198,0.0,0.4,0.0,-0.010676638666441762,0.0,auto
1761306119.0120583,31.208361625671387,9.177008714293368,0.0,5.065439018040929,0.18470278162344755,0.0,-0.0030520809549618878,0.0,0.005568128729563432,0.0,0.4618413399725907,0.0,-0.06265135132660765,0.0,auto
1761306119.116776,31.313079357147217,9.196083630754618,0.0,5.064603232998181,0.1790316899471997,0.0,-0.001147560358918864,0.0,-0.0005328239640559722,0.0,0.49546256953131596,0.0,-0.00041208504684283904,0.0,auto
1761306119.2229555,31.41925883293152,9.215032227420988,0.0,5.063922669240437,0.17524377885386902,0.0,-0.006961087369339829,0.0,0.004106986152194065,0.0,0.4,0.0,-0.026022728118432013,0.0,auto
1761306119.3278134,31.52411675453186,9.233341750073704,0.0,5.063352389113558,0.1717325968478656,0.0,-0.002428895187116896,0.0,0.00825194345792242,0.0,0.46778917100024175,0.0,-0.0444524215507541,0.0,auto
1761306119.4312534,31.627556800842285,9.250997252739186,0.0,5.062854844743779,0.16865831901835887,0.0,-0.0060663462279964536,0.0,0.00927342442539821,0.0,0.4423373174735243,0.0,-0.028366455457223654,0.0,auto
1761306119.535004,31.7313072681427,9.268304392506735,0.0,5.06225991713043,0.16549534672104235,0.0,-0.010453079844223556,0.0,0.007659642461476015,0.0,0.4,0.0,-0.012750378762128717,0.0,auto
1761306119.6401446,31.836447954177856,9.285449763094542,0.0,5.0618266833701995,0.16175224466589155,0.0,-0.0017699272903342039,0.0,0.0059336737828372225,0.0,0.46686197564932497,0.0,-0.0015118858075091042,0.0,auto
1761306119.7435505,31.93985390663147,9.301921011250437,0.0,5.061408273644175,0.15822856707170746,0.0,-0.010171393168403167,0.0,0.003368073231209995,0.0,0.4,0.0,0.01526148552185623,0.0,auto
1761306119.850037,32.046340465545654,9.318510501043184,0.0,5.060882464622928,0.1546237386288657,0.0,-0.00694166050988786,0.0,0.002136697132990989,0.0,0.4,0.0,0.02282905518814727,0.0,auto
1761306119.9537134,32.15001678466797,9.334282484496004,0.0,5.060217917500164,0.1507046832520501,0.0,-0.0027093488381750453,0.0,0.00018256123150382384,0.0,0.4721261341109279,0.0,0.02192497601988913,0.0,auto
1761306120.0588412,32.25514459609985,9.349920568055678,0.0,5.0596033672220155,0.14682555968777378,0.0,-0.007552490823276754,0.0,0.00030998035444586666,0.0,0.4,0.0,0.007655906698776147,0.0,auto
1761306120.1633844,32.35968780517578,9.365108735689367,0.0,5.059056045452926,0.14284440629145106,0.0,-0.005202588255791318,0.0,0.001794690119227943,0.0,0.4,0.0,-0.0037954069404721037,0.0,auto
1761306120.266989,32.463292360305786,9.379812008966116,0.0,5.0584448683317005,0.13967617276307878,0.0,-0.003160716235359927,0.0,0.0040883822322694005,0.0,0.46744459312312214,0.0,-0.021955566202666588,0.0,auto
1761306120.3706625,32.56696581840515,9.394195899071415,0.0,5.05780341913495,0.1367102622847209,0.0,0.0048380131857092435,0.0,0.005557498522769141,0.0,0.5224733389035761,0.0,-0.019292031147043115,0.0,auto
1761306120.475626,32.671929359436035,9.408420231399518,0.0,5.057318718781828,0.1340455796774187,0.0,-0.008260684667777352,0.0,0.005166882428408212,0.0,0.4,0.0,-0.010428649066075837,0.0,auto
1761306120.576533,32.772836446762085,9.421774085494024,0.0,5.056687048563316,0.13022480158952485,0.0,-0.0025974894884880396,0.0,0.0073706769851415825,0.0,0.47750338528778946,0.0,-0.02058721837701618,0.0,auto
1761306120.6813233,32.87762665748596,9.435266273942933,0.0,5.056021689233825,0.1278682058241143,0.0,-0.00021116901311532543,0.0,0.005689861114102417,0.0,0.4890076987264056,0.0,-0.006030628063744367,0.0,auto
1761306120.7861207,32.98242402076721,9.448467695095212,0.0,5.0554447327358805,0.1253294997399667,0.0,-0.011640908848066595,0.0,0.003270350293613298,0.0,0.40708120855456376,0.0,0.013973116857510265,0.0,auto
1761306120.8912828,33.08758616447449,9.461419528974602,0.0,5.054845919735269,0.12237085905815645,0.0,-4.1446653816808524e-05,0.0,0.0014020760760054957,0.0,0.4863303175398669,0.0,0.017527502599230978,0.0,auto
1761306120.9958925,33.192195892333984,9.474010831424444,0.0,5.05439975297751,0.11939310431914062,0.0,-0.006774482958298196,0.0,-0.0006329014448761463,0.0,0.4289553044168453,0.0,0.025876280016766,0.0,auto
1761306121.100659,33.29696226119995,9.486338665470656,0.0,5.0541219468729395,0.1162037706567334,0.0,0.0007932159725165472,0.0,-0.0006462997681590656,0.0,0.468189872927923,0.0,0.017287780475352742,0.0,auto
1761306121.2064233,33.40272665023804,9.498492342148538,0.0,5.054030797742933,0.11321761578322047,0.0,-0.0003871704270181058,0.0,-0.0003760483187919754,0.0,0.4,0.0,0.004385209804461939,0.0,auto
1761306121.312091,33.50839447975159,9.50882721151534,0.001444908858068634,5.080525740759907,0.03547265452991569,0.07141163244851659,0.7215241957392101,0.12476876805600713,0.13025538086872335,0.0037837326948747356,0.9,0.2,0.2,-0.009355311255072732,auto
1761306121.4163282,33.61263155937195,9.498142443229812,0.023045522985638903,5.172723242003299,-0.2702285254687078,0.3770659473509341,0.9436336715330408,0.338020888739635,0.34011379324255236,0.006683113335643359,0.4,-0.0841598304193433,-0.09128735667994897,-0.013738593526914634,auto
1761306121.5217252,33.71802854537964,9.450246995969806,0.08232730589251153,5.278149951448342,-0.5956705013971466,0.6975990822657777,1.0411397625786785,0.16036758235617446,0.18087275408805184,0.0029281023501061152,0.4,0.05823669628015114,0.06981111834905045,-0.0011258445435238683,auto
1761306121.6271682,33.823471546173096,9.375439225049211,0.1669557355690794,5.394341382988222,-0.8198548331617986,0.9093604854924042,1.133351415119931,0.15639807628310548,0.16408995324726236,-0.0009716201333222884,0.44363486413839076,-0.0985143819418601,-0.034311573632186586,0.006070679499607893,auto
1761306121.7328799,33.9291832447052,9.279085435275574,0.27191279399845225,5.5195171157591405,-1.0070414285610743,1.0844608833302563,1.2190415032996884,0.15643216931415138,0.1543661732455126,-0.0038086337143884343,0.4703605552933096,-0.2,-0.11556195361067506,0.009401796556017535,auto
1761306121.8395169,34.0358202457428,9.163792268912811,0.39477851260482805,5.653040713004205,-1.1624908441585764,1.227978059863002,1.2873801021120888,0.14876604914342337,0.1433216210857755,-0.0056540107544152274,0.4,-0.2,-0.18299171460258523,0.011018772543968627,auto
1761306121.9443758,34.140679121017456,9.0356857273123,0.5293704570552122,5.790411858744134,-1.286708782109879,1.341496172112412,1.3348698122905485,0.13794663398449905,0.1349454294097295,-0.006655867001122359,0.4,-0.18334311378128476,-0.1780345578078052,0.011517996892256596,auto
1761306122.0535634,34.24986672401428,8.889355490360686,0.6814550297695993,5.9384293792022405,-1.3958611528331886,1.4400476240887101,1.3756393334376351,0.11638247969841989,0.11782271992207594,-0.007116519550357607,0.46237812640361414,-0.11689579323687038,-0.15822762592819767,0.011501066508310929,auto
1761306122.1609812,34.35728454589844,8.734812187273874,0.8407412356209997,6.088239531935805,-1.4826301663726629,1.5193046770831211,1.404804140730456,0.10156411738322235,0.10827668151962529,-0.006811590755728477,0.4,-0.05173983459697121,-0.13478696806498808,0.010188734704451693,auto
1761306122.265553,34.46185636520386,8.575908841083173,1.0035750981108156,6.237680929858432,-1.5531205451940122,1.585704351873008,1.4482837743544297,0.08331186388539116,0.08198763614651472,-0.006236264693005217,0.49123559544538536,0.033434406481560985,-0.18183427632139887,0.008958054709911241,auto
1761306122.3694887,34.565792083740234,8.413425541402825,1.1717464980694827,6.389028491467386,-1.5687341933472778,1.6396776717327473,1.4615045624688943,0.06185311067864771,0.05928564000242446,-0.005591560356850737,0.4,0.10295571385860922,-0.07084271656890875,0.007718228001202353,auto
1761306122.4736338,34.66993713378906,8.24880916861049,1.345102237892682,6.54319165959079,-1.5792393777890266,1.6687815714323837,1.49719445411274,-0.009307263550334474,0.028656035250706778,-0.005553770467868977,0.48854693679121364,0.19115617459454542,0.08709921395118317,0.00828073656574102,auto
1761306122.579814,34.7761173248291,8.080101629025853,1.5227758145936088,6.702617018732862,-1.583677012262743,1.67641678120329,1.5184137694041586,-0.018971525209418354,-0.006933934572295766,-0.005234530374152103,0.4871033751203287,0.12594061084695657,0.2,0.007778913553857298,auto
1761306122.6834705,34.87977385520935,7.915578328475902,1.6958162874995926,6.86008376592465,-1.583766417226841,1.671505115962664,1.519973199957492,0.0007625333341782226,-0.01973559296502483,-0.005266959085368682,0.4,-0.05470907457755164,0.1798601198815688,0.00817023580512141,auto
1761306122.7897336,34.98603701591492,7.747517905445381,1.8724917852122684,7.022971230689543,-1.5805543774791093,1.662358642682683,1.5333916872104603,0.0053863962440402965,-0.021378338859541882,-0.005163120940496458,0.4261920383710087,-0.0988905506591459,0.06994353839782799,0.007872048471212662,auto
1761306122.8965423,35.09284567832947,7.579879956931645,2.0486100394221607,7.188070417200905,-1.569609528760721,1.6466951445139535,1.5492066123883412,0.019889193808570682,-0.002545836328460227,-0.005545836226680511,0.4,-0.2,-0.12584391001095563,0.00874373016685637,auto
1761306123.0023408,35.198644161224365,7.415589533116357,2.221129005154682,7.352626553094388,-1.5481486173248087,1.6215559789224234,1.5590601983834025,0.02989260339474206,0.015840209642498437,-0.006618623892549253,0.4,-0.15531540692536117,-0.16459792188085098,0.011403535564800607,auto
1761306123.1030858,35.299389123916626,7.261109738871912,2.383299645151196,7.510524362003048,-1.521916386129976,1.5879970823028642,1.5734517785883362,-0.0359140025614509,0.0016383096733431704,-0.007930607565312582,0.4356544170391155,-0.05201212193971347,-0.2,0.013809571279574849,auto
1761306123.206696,35.40299940109253,7.1055796062724115,2.5458961304968417,7.673901668976953,-1.4917186270558396,1.5674257180718925,1.574653384609761,0.010858654689696039,0.038775702927637025,-0.00868859522221486,0.4,-0.1397414546710209,-0.14781496477733153,0.014657259054733226,auto
1761306123.3112245,35.50752782821655,6.95044067732974,2.7080955510134284,7.839245576406074,-1.4656488071502651,1.542947167852351,1.5812340496780528,0.021696716451628913,0.010983021882986884,-0.007830761555368423,0.4293239474550059,-0.1432687129147857,0.09031178771936053,0.011714481136845133,auto
1761306123.4167175,35.61302089691162,6.796252914021599,2.869444295487332,8.00642941492312,-1.441690117641098,1.5143165915209391,1.5822722357653367,0.012018622376654471,-0.023620361392359214,-0.006608313001066761,0.4051698403362245,-0.0455509317054066,0.2,0.009010011292879351,auto
1761306123.522053,35.7183563709259,6.645173652451092,3.027725793670874,8.173766518040239,-1.420176124615919,1.487939423415682,1.5895371385049943,0.009519754526964373,-0.028977062871193057,-0.005111419159513492,0.45574234299915284,-0.09944326241757319,0.07315600920185332,0.006340415577263661,auto
1761306123.6247773,35.821080684661865,6.50073011613884,3.1791990547185685,8.337031029070602,-1.3962611135112493,1.459874010376793,1.5984603461884797,0.013022725842653828,-0.012973036539363091,-0.003504049783999857,0.516426408075066,-0.057535836303158866,-0.027754656403352042,0.0037182095627557718,auto
1761306123.7306654,35.926968812942505,6.354422686648077,3.3327278704553565,8.505523762590396,-1.370147673246909,1.4314082849201706,1.5974306900088335,0.0008773040962874665,-0.006450139655001996,-0.002101029565041103,0.49603101497273877,0.05939789111071658,-0.03727059078281989,0.001842419593896789,auto
1761306123.8344605,36.03076386451721,6.213734004206862,3.4804252674177825,8.670954859583748,-1.3420180012971763,1.4031876326881003,1.5917023750010966,-0.01583608341290961,-0.0017162493902324236,-0.0014727053720376769,0.4,0.18873145370433064,0.0008308461567687296,0.0017063623317171658,auto
1761306123.9390326,36.13533592224121,6.074661775714816,3.6264672557981337,8.837640576394993,-1.314371364616522,1.3779753051058374,1.595380773992434,-0.0381373288543199,-0.008709870690430648,-0.0013696106722330828,0.4,0.18909247103159557,0.0006155345058098931,0.0022311775210369102,auto
1761306124.042096,36.238399267196655,5.940359203098137,3.767438587080179,9.001903567425385,-1.2891651716298258,1.3552208690497185,1.5887275611371177,-0.03851256221165617,-0.011212870986716984,-0.001203186462855126,0.4,0.11475595505892999,0.023293544869701574,0.0021352975786374196,auto
1761306124.146943,36.34324645996094,5.80641059963939,3.9079926913475562,9.169042494162492,-1.2638576435966156,1.3305979366311094,1.5980613918426714,-0.029024608296454094,-0.013651252942580011,-0.0007680656012051969,0.4868561535044389,0.005697139298548957,0.026329905972854745,0.0012385936442504343,auto
1761306124.2523234,36.44862675666809,5.674530708572831,4.046342765777482,9.337131620763854,-1.2362709635003268,1.301969597251607,1.6015460601925458,-0.022195044390795598,-0.021754804870448136,-0.00037188087187070703,0.5016966853335851,-0.04741445921573302,0.05325731862425073,0.0006370360674170749,auto
