timestamp,simulation_time,position_x,position_y,position_z,velocity_x,velocity_y,velocity_z,attitude_roll,attitude_pitch,attitude_yaw,control_throttle,control_roll,control_pitch,control_yaw,estimated_position_x,estimated_position_y,estimated_position_z,flight_mode,battery_level,setpoint_altitude,setpoint_position_x,setpoint_position_y,setpoint_position_z,position_error,attitude_error,waypoint_index,mission_complete
1761121300.1697993,6.194139003753662,0.0,0.0,-0.0,0.0,0.0,-0.0,0.0,0.0,0.0,0.0,0.0,0.0,0.0,0.0,0.0,-0.0,manual,85.0,0.0,0.0,0.0,0.0,0.0,0.0,0,0
1761121300.2731817,6.297521352767944,0.0,0.0,-0.0,0.0,0.0,-0.0,0.0,0.0,0.0,0.0,0.0,0.0,0.0,0.0,0.0,-0.0,manual,85.0,0.0,0.0,0.0,0.0,0.0,0.0,0,0
1761121300.374948,6.399287700653076,0.0,0.0,-0.0,0.0,0.0,-0.0,0.0,0.0,0.0,0.0,0.0,0.0,0.0,0.0,0.0,-0.0,manual,85.0,0.0,0.0,0.0,0.0,0.0,0.0,0,0
1761121300.478984,6.503323793411255,0.0,0.0,-0.0,0.0,0.0,-0.0,0.0,0.0,0.0,0.0,0.0,0.0,0.0,0.0,0.0,-0.0,manual,85.0,0.0,0.0,0.0,0.0,0.0,0.0,0,0
1761121300.580998,6.605337619781494,0.0,0.0,-0.0,0.0,0.0,-0.0,0.0,0.0,0.0,0.0,0.0,0.0,0.0,0.0,0.0,-0.0,manual,85.0,0.0,0.0,0.0,0.0,0.0,0.0,0,0
1761121300.6835933,6.707932949066162,0.0,0.0,-0.0,0.0,0.0,-0.0,0.0,0.0,0.0,0.0,0.0,0.0,0.0,0.0,0.0,-0.0,manual,85.0,0.0,0.0,0.0,0.0,0.0,0.0,0,0
1761121300.7881002,6.812439918518066,0.0,0.0,-0.0,0.0,0.0,-0.0,0.0,0.0,0.0,0.0,0.0,0.0,0.0,0.0,0.0,-0.0,manual,85.0,0.0,0.0,0.0,0.0,0.0,0.0,0,0
1761121300.8897789,6.914118528366089,0.0,0.0,-0.0,0.0,0.0,-0.0,0.0,0.0,0.0,0.0,0.0,0.0,0.0,0.0,0.0,-0.0,manual,85.0,0.0,0.0,0.0,0.0,0.0,0.0,0,0
1761121300.9938958,7.018235445022583,0.0,0.0,-0.0,0.0,0.0,-0.0,0.0,0.0,0.0,0.0,0.0,0.0,0.0,0.0,0.0,-0.0,manual,85.0,0.0,0.0,0.0,0.0,0.0,0.0,0,0
1761121301.0977573,7.122097015380859,0.0,0.0,-0.0,0.0,0.0,-0.0,0.0,0.0,0.0,0.0,0.0,0.0,0.0,0.0,0.0,-0.0,manual,85.0,0.0,0.0,0.0,0.0,0.0,0.0,0,0
1761121301.2029243,7.227263927459717,0.0,0.0,-0.0,0.0,0.0,-0.0,0.0,0.0,0.0,0.0,0.0,0.0,0.0,0.0,0.0,-0.0,manual,85.0,0.0,0.0,0.0,0.0,0.0,0.0,0,0
1761121301.3085883,7.332927942276001,0.0,0.0,-0.0,0.0,0.0,-0.0,0.0,0.0,0.0,0.0,0.0,0.0,0.0,0.0,0.0,-0.0,manual,85.0,0.0,0.0,0.0,0.0,0.0,0.0,0,0
1761121301.4123104,7.436650037765503,0.0,0.0,0.0013120609285195112,0.0,0.0,0.12619586376849334,0.0,0.0,0.0,0.8520004098643098,0.0,0.0,0.0,0.0,0.0,0.0013120609285195112,stabilize,85.0,2.0,0.0,0.0,-2.0,1.9986879390714805,0.0,0,0
1761121301.5153399,7.539679527282715,0.0,0.0,0.045801606830937515,0.0,0.0,0.6203383298816312,0.0,0.0,0.0,0.15200040986430985,0.0,0.0,0.0,0.0,0.0,0.045801606830937515,stabilize,85.0,2.0,0.0,0.0,-2.0,1.9541983931690625,0.0,0,0
1761121301.6198983,7.644237995147705,0.0,0.0,0.11650136014295132,0.0,0.0,0.6596024637877389,0.0,0.0,0.0,0.15200040986430985,0.0,0.0,0.0,0.0,0.0,0.11650136014295132,stabilize,85.0,2.0,0.0,0.0,-2.0,1.8834986398570486,0.0,0,0
1761121301.7282271,7.752566814422607,0.0,0.0,0.19258399026999254,0.0,0.0,0.7021934841507088,0.0,0.0,0.0,0.15200040986430985,0.0,0.0,0.0,0.0,0.0,0.19258399026999254,stabilize,85.0,2.0,0.0,0.0,-2.0,1.8074160097300074,0.0,0,0
1761121301.8303087,7.8546483516693115,0.0,0.0,0.267217428568258,0.0,0.0,0.6984169993731905,0.0,0.0,0.0,0.15200040986430985,0.0,0.0,0.0,0.0,0.0,0.267217428568258,stabilize,85.0,2.0,0.0,0.0,-2.0,1.732782571431742,0.0,0,0
1761121301.9331005,7.957440137863159,0.0,0.0,0.3423788440444427,0.0,0.0,0.696338507392774,0.0,0.0,0.0,0.15200040986430985,0.0,0.0,0.0,0.0,0.0,0.3423788440444427,stabilize,85.0,2.0,0.0,0.0,-2.0,1.6576211559555574,0.0,0,0
1761121302.0376008,8.061940431594849,0.0,0.0,0.41861229427406554,0.0,0.0,0.694061392526336,0.0,0.0,0.0,0.15200040986430985,0.0,0.0,0.0,0.0,0.0,0.41861229427406554,stabilize,85.0,2.0,0.0,0.0,-2.0,1.5813877057259345,0.0,0,0
1761121302.1483548,8.172694444656372,0.0,0.0,0.4993019363487034,0.0,0.0,0.7094534698321792,0.0,0.0,0.0,0.15200040986430985,0.0,0.0,0.0,0.0,0.0,0.4993019363487034,stabilize,85.0,2.0,0.0,0.0,-2.0,1.5006980636512965,0.0,0,0
1761121302.2518752,8.276214838027954,0.0,0.0,0.5755486422466708,0.0,0.0,0.703569001741305,0.0,0.0,0.0,0.15200040986430985,0.0,0.0,0.0,0.0,0.0,0.5755486422466708,stabilize,85.0,2.0,0.0,0.0,-2.0,1.424451357753329,0.0,0,0
1761121302.3545513,8.378890991210938,0.0,0.0,0.6502835097250728,0.0,0.0,0.6921982998302665,0.0,0.0,0.0,0.15200040986430985,0.0,0.0,0.0,0.0,0.0,0.6502835097250728,stabilize,85.0,2.0,0.0,0.0,-2.0,1.3497164902749272,0.0,0,0
1761121302.4579504,8.482290029525757,0.0,0.0,0.7245184408579375,0.0,0.0,0.6781420782830506,0.0,0.0,0.0,0.15200040986430985,0.0,0.0,0.0,0.0,0.0,0.7245184408579375,stabilize,85.0,2.0,0.0,0.0,-2.0,1.2754815591420625,0.0,0,0
1761121302.5609188,8.585258483886719,0.0,0.0,0.7971882282671597,0.0,0.0,0.6716531225118567,0.0,0.0,0.0,0.15200040986430985,0.0,0.0,0.0,0.0,0.0,0.7971882282671597,stabilize,85.0,2.0,0.0,0.0,-2.0,1.2028117717328404,0.0,0,0
1761121302.6654243,8.689764022827148,0.0,0.0,0.8703665710389836,0.0,0.0,0.6649901413048962,0.0,0.0,0.0,0.15200040986430985,0.0,0.0,0.0,0.0,0.0,0.8703665710389836,stabilize,85.0,2.0,0.0,0.0,-2.0,1.1296334289610164,0.0,0,0
1761121302.769185,8.793524742126465,0.0,0.0,0.94183653316883,0.0,0.0,0.6519845782472686,0.0,0.0,0.0,0.15200040986430985,0.0,0.0,0.0,0.0,0.0,0.94183653316883,stabilize,85.0,2.0,0.0,0.0,-2.0,1.0581634668311701,0.0,0,0
1761121302.8749003,8.899240016937256,0.0,0.0,1.013530407646456,0.0,0.0,0.6367483477489642,0.0,0.0,0.0,0.15200040986430985,0.0,0.0,0.0,0.0,0.0,1.013530407646456,stabilize,85.0,2.0,0.0,0.0,-2.0,0.986469592353544,0.0,0,0
1761121302.9794612,9.003800868988037,0.0,0.0,1.0818347900508192,0.0,0.0,0.6051656177301206,0.0,0.0,0.0,0.15200040986430985,0.0,0.0,0.0,0.0,0.0,1.0818347900508192,stabilize,85.0,2.0,0.0,0.0,-2.0,0.9181652099491808,0.0,0,0
1761121303.082721,9.107060670852661,0.0,0.0,1.147243601619347,0.0,0.0,0.6015129782727993,0.0,0.0,0.0,0.15200040986430985,0.0,0.0,0.0,0.0,0.0,1.147243601619347,stabilize,85.0,2.0,0.0,0.0,-2.0,0.852756398380653,0.0,0,0
1761121303.1896288,9.213968515396118,0.0,0.0,1.211418583172967,0.0,0.0,0.5435494251136737,0.0,0.0,0.0,0.22347660418915283,0.0,0.0,0.0,0.0,0.0,1.211418583172967,stabilize,85.0,2.0,0.0,0.0,-2.0,0.7885814168270331,0.0,0,0
1761121303.2940452,9.318384885787964,0.0,0.0,1.271540849612111,0.0,0.0,0.5311774822067391,0.0,0.0,0.0,0.15200040986430985,0.0,0.0,0.0,0.0,0.0,1.271540849612111,stabilize,85.0,2.0,0.0,0.0,-2.0,0.728459150387889,0.0,0,0
1761121303.3997962,9.42413592338562,0.0,0.0,1.3305955558981908,0.0,0.0,0.5214171865925318,0.0,0.0,0.0,0.15200040986430985,0.0,0.0,0.0,0.0,0.0,1.3305955558981908,stabilize,85.0,2.0,0.0,0.0,-2.0,0.6694044441018092,0.0,0,0
1761121303.5031145,9.527454137802124,0.0,0.0,1.3868080353649372,0.0,0.0,0.5057583260075709,0.0,0.0,0.0,0.15200040986430985,0.0,0.0,0.0,0.0,0.0,1.3868080353649372,stabilize,85.0,2.0,0.0,0.0,-2.0,0.6131919646350628,0.0,0,0
1761121303.6066153,9.63095498085022,0.0,0.0,1.438426092532752,0.0,0.0,0.38583018364114696,0.0,0.0,0.0,0.23592938118343493,0.0,0.0,0.0,0.0,0.0,1.438426092532752,stabilize,85.0,2.0,0.0,0.0,-2.0,0.5615739074672479,0.0,0,0
1761121303.7110615,9.735401153564453,0.0,0.0,1.485155105027591,0.0,0.0,0.412530129701376,0.0,0.0,0.0,0.15200040986430985,0.0,0.0,0.0,0.0,0.0,1.485155105027591,stabilize,85.0,2.0,0.0,0.0,-2.0,0.5148448949724089,0.0,0,0
1761121303.8159947,9.840334415435791,0.0,0.0,1.5221472769659474,0.0,0.0,0.2540091587123168,0.0,0.0,0.0,0.15200040986430985,0.0,0.0,0.0,0.0,0.0,1.5221472769659474,stabilize,85.0,2.0,0.0,0.0,-2.0,0.4778527230340526,0.0,0,0
1761121303.9194968,9.943836450576782,0.0,0.0,1.5516446500724905,0.0,0.0,0.2510562213541288,0.0,0.0,0.0,0.15200040986430985,0.0,0.0,0.0,0.0,0.0,1.5516446500724905,stabilize,85.0,2.0,0.0,0.0,-2.0,0.4483553499275095,0.0,0,0
1761121304.0224288,10.046768426895142,0.0,0.0,1.580529219238693,0.0,0.0,0.24649432846889147,0.0,0.0,0.0,0.15200040986430985,0.0,0.0,0.0,0.0,0.0,1.580529219238693,stabilize,85.0,2.0,0.0,0.0,-2.0,0.41947078076130695,0.0,0,0
1761121304.1281326,10.152472257614136,0.0,0.0,1.6097921836492814,0.0,0.0,0.2379082309088506,0.0,0.0,0.0,0.15200040986430985,0.0,0.0,0.0,0.0,0.0,1.6097921836492814,stabilize,85.0,2.0,0.0,0.0,-2.0,0.39020781635071855,0.0,0,0
1761121304.232281,10.256620645523071,0.0,0.0,1.6379545254227605,0.0,0.0,0.23618213503964597,0.0,0.0,0.0,0.15200040986430985,0.0,0.0,0.0,0.0,0.0,1.6379545254227605,stabilize,85.0,2.0,0.0,0.0,-2.0,0.36204547457723946,0.0,0,0
1761121304.3360157,10.360355377197266,0.0,0.0,1.6653934572921383,0.0,0.0,0.23047832864524376,0.0,0.0,0.0,0.15200040986430985,0.0,0.0,0.0,0.0,0.0,1.6653934572921383,stabilize,85.0,2.0,0.0,0.0,-2.0,0.3346065427078617,0.0,0,0
1761121304.4465177,10.470857381820679,0.0,0.0,1.6924279770915092,0.0,0.0,0.20149585367986528,0.0,0.0,0.0,0.15200040986430985,0.0,0.0,0.0,0.0,0.0,1.6924279770915092,stabilize,85.0,2.0,0.0,0.0,-2.0,0.30757202290849084,0.0,0,0
1761121304.5499883,10.574327945709229,0.0,0.0,1.7169588497376767,0.0,0.0,0.202658809118628,0.0,0.0,0.0,0.15200040986430985,0.0,0.0,0.0,0.0,0.0,1.7169588497376767,stabilize,85.0,2.0,0.0,0.0,-2.0,0.28304115026232335,0.0,0,0
1761121304.654027,10.678366661071777,0.0,0.0,1.7409098229058826,0.0,0.0,0.19313848078807752,0.0,0.0,0.0,0.15200040986430985,0.0,0.0,0.0,0.0,0.0,1.7409098229058826,stabilize,85.0,2.0,0.0,0.0,-2.0,0.2590901770941174,0.0,0,0
1761121304.7593234,10.783663034439087,0.0,0.0,1.7647304823493914,0.0,0.0,0.19151456765598568,0.0,0.0,0.0,0.15200040986430985,0.0,0.0,0.0,0.0,0.0,1.7647304823493914,stabilize,85.0,2.0,0.0,0.0,-2.0,0.23526951765060855,0.0,0,0
1761121304.8622663,10.886605978012085,0.0,0.0,1.787484466431602,0.0,0.0,0.18770871938963704,0.0,0.0,0.0,0.15200040986430985,0.0,0.0,0.0,0.0,0.0,1.787484466431602,stabilize,85.0,2.0,0.0,0.0,-2.0,0.21251553356839792,0.0,0,0
1761121304.9648557,10.989195346832275,0.0,0.0,1.8101009659652665,0.0,0.0,0.18893361652978685,0.0,0.0,0.0,0.15200040986430985,0.0,0.0,0.0,0.0,0.0,1.8101009659652665,stabilize,85.0,2.0,0.0,0.0,-2.0,0.18989903403473352,0.0,0,0
1761121305.070158,11.094497680664062,0.0,0.0,1.83159274741167,0.0,0.0,0.16615260550175537,0.0,0.0,0.0,0.15200040986430985,0.0,0.0,0.0,0.0,0.0,1.83159274741167,stabilize,85.0,2.0,0.0,0.0,-2.0,0.16840725258833,0.0,0,0
1761121305.1743662,11.198705911636353,0.0,0.0,1.852319737648952,0.0,0.0,0.16476362660953986,0.0,0.0,0.0,0.15200040986430985,0.0,0.0,0.0,0.0,0.0,1.852319737648952,stabilize,85.0,2.0,0.0,0.0,-2.0,0.14768026235104803,0.0,0,0
1761121305.2792475,11.303587198257446,0.0,0.0,1.8729520684427252,0.0,0.0,0.16652691731575903,0.0,0.0,0.0,0.15200040986430985,0.0,0.0,0.0,0.0,0.0,1.8729520684427252,stabilize,85.0,2.0,0.0,0.0,-2.0,0.12704793155727478,0.0,0,0
1761121305.3832378,11.407577514648438,0.0,0.0,1.8932427289419707,0.0,0.0,0.16120979355337822,0.0,0.0,0.0,0.15200040986430985,0.0,0.0,0.0,0.0,0.0,1.8932427289419707,stabilize,85.0,2.0,0.0,0.0,-2.0,0.10675727105802935,0.0,0,0
1761121305.4876359,11.511975526809692,0.0,0.0,1.9133457599529908,0.0,0.0,0.15201860723788946,0.0,0.0,0.0,0.15200040986430985,0.0,0.0,0.0,0.0,0.0,1.9133457599529908,stabilize,85.0,2.0,0.0,0.0,-2.0,0.08665424004700917,0.0,0,0
1761121305.5933554,11.617695093154907,0.0,0.0,1.9328443926618033,0.0,0.0,0.14870081513860814,0.0,0.0,0.0,0.15200040986430985,0.0,0.0,0.0,0.0,0.0,1.9328443926618033,stabilize,85.0,2.0,0.0,0.0,-2.0,0.0671556073381967,0.0,0,0
1761121305.698075,11.72241473197937,0.0,0.0,1.9516207713286893,0.0,0.0,0.14263212500688716,0.0,0.0,0.0,0.15200040986430985,0.0,0.0,0.0,0.0,0.0,1.9516207713286893,stabilize,85.0,2.0,0.0,0.0,-2.0,0.048379228671310726,0.0,0,0
1761121305.802375,11.826714754104614,0.0,0.0,1.9697031112390213,0.0,0.0,0.13962066552837588,0.0,0.0,0.0,0.15200040986430985,0.0,0.0,0.0,0.0,0.0,1.9697031112390213,stabilize,85.0,2.0,0.0,0.0,-2.0,0.03029688876097869,0.0,0,0
1761121305.9064786,11.930818319320679,0.0,0.0,1.9874756090842705,0.0,0.0,0.14250867046381205,0.0,0.0,0.0,0.15200040986430985,0.0,0.0,0.0,0.0,0.0,1.9874756090842705,stabilize,85.0,2.0,0.0,0.0,-2.0,0.012524390915729544,0.0,0,0
1761121306.009926,12.034265756607056,0.0,0.0,2.00277382732038,0.0,0.0,0.11148306878684909,0.0,0.0,0.0,0.15200040986430985,0.0,0.0,0.0,0.0,0.0,2.00277382732038,stabilize,85.0,2.0,0.0,0.0,-2.0,0.002773827320380118,0.0,0,0
1761121306.1129832,12.137322902679443,0.0,0.0,2.0172940117822544,0.0,0.0,0.10904739603610766,0.0,0.0,0.0,0.15200040986430985,0.0,0.0,0.0,0.0,0.0,2.0172940117822544,stabilize,85.0,2.0,0.0,0.0,-2.0,0.017294011782254426,0.0,0,0
1761121306.2214587,12.245798349380493,0.0,0.0,2.0311168193469,0.0,0.0,0.1556830678206032,0.0,0.0,0.0,0.8520004098643098,0.0,0.0,0.0,0.0,0.0,2.0311168193469,stabilize,85.0,2.0,0.0,0.0,-2.0,0.031116819346900026,0.0,0,0
1761121306.3242574,12.348597049713135,0.0,0.0,2.043811302293539,0.0,0.0,0.15494847072173862,0.0,0.0,0.0,0.8520004098643098,0.0,0.0,0.0,0.0,0.0,2.043811302293539,stabilize,85.0,2.0,0.0,0.0,-2.0,0.04381130229353891,0.0,0,0
1761121306.4261453,12.450484991073608,0.0,0.0,2.0564113017275285,0.0,0.0,0.1549466239486363,0.0,0.0,0.0,0.8520004098643098,0.0,0.0,0.0,0.0,0.0,2.0564113017275285,stabilize,85.0,2.0,0.0,0.0,-2.0,0.05641130172752851,0.0,0,0
1761121306.529225,12.55356478691101,0.0,0.0,2.0689918359127786,0.0,0.0,0.15119626218417437,0.0,0.0,0.0,0.8520004098643098,0.0,0.0,0.0,0.0,0.0,2.0689918359127786,stabilize,85.0,2.0,0.0,0.0,-2.0,0.06899183591277858,0.0,0,0
1761121306.6323583,12.656697988510132,0.0,0.0,2.0807910087244297,0.0,0.0,0.13637573870051456,0.0,0.0,0.0,0.8520004098643098,0.0,0.0,0.0,0.0,0.0,2.0807910087244297,stabilize,85.0,2.0,0.0,0.0,-2.0,0.08079100872442968,0.0,0,0
1761121306.7346613,12.759001016616821,0.0,0.0,2.0914737836750894,0.0,0.0,0.13561094074067676,0.0,0.0,0.0,0.8520004098643098,0.0,0.0,0.0,0.0,0.0,2.0914737836750894,stabilize,85.0,2.0,0.0,0.0,-2.0,0.0914737836750894,0.0,0,0
1761121306.839051,12.863390684127808,0.0,0.0,2.101968866631918,0.0,0.0,0.12995011808826723,0.0,0.0,0.0,0.8520004098643098,0.0,0.0,0.0,0.0,0.0,2.101968866631918,stabilize,85.0,2.0,0.0,0.0,-2.0,0.10196886663191806,0.0,0,0
1761121306.941218,12.96555757522583,0.0,0.0,2.1120164199264164,0.0,0.0,0.1285529983676708,0.0,0.0,0.0,0.8520004098643098,0.0,0.0,0.0,0.0,0.0,2.1120164199264164,stabilize,85.0,2.0,0.0,0.0,-2.0,0.11201641992641642,0.0,0,0
1761121307.044818,13.069157600402832,0.0,0.0,2.1215445485025133,0.0,0.0,0.12195573281952174,0.0,0.0,0.0,0.8520004098643098,0.0,0.0,0.0,0.0,0.0,2.1215445485025133,stabilize,85.0,2.0,0.0,0.0,-2.0,0.12154454850251328,0.0,0,0
1761121307.1500423,13.174381971359253,0.0,0.0,2.1307417745436625,0.0,0.0,0.11136851715506714,0.0,0.0,0.0,0.8520004098643098,0.0,0.0,0.0,0.0,0.0,2.1307417745436625,stabilize,85.0,2.0,0.0,0.0,-2.0,0.13074177454366254,0.0,0,0
1761121307.2535326,13.277872323989868,0.0,0.0,2.13861405338284,0.0,0.0,0.10572313506515674,0.0,0.0,0.0,0.8520004098643098,0.0,0.0,0.0,0.0,0.0,2.13861405338284,stabilize,85.0,2.0,0.0,0.0,-2.0,0.13861405338283994,0.0,0,0
1761121307.357725,13.382064580917358,0.0,0.0,2.146311943390423,0.0,0.0,0.10254953959189353,0.0,0.0,0.0,0.8520004098643098,0.0,0.0,0.0,0.0,0.0,2.146311943390423,stabilize,85.0,2.0,0.0,0.0,-2.0,0.14631194339042297,0.0,0,0
1761121307.4584165,13.4827561378479,0.0,0.0,2.151124618499939,0.0,0.0,0.07163718679378417,0.0,0.0,0.0,0.8520004098643098,0.0,0.0,0.0,0.0,0.0,2.151124618499939,stabilize,85.0,2.0,0.0,0.0,-2.0,0.15112461849993908,0.0,0,0
1761121307.5602086,13.584548234939575,0.0,0.0,2.1551874568455776,0.0,0.0,0.07025837833114493,0.0,0.0,0.0,0.8520004098643098,0.0,0.0,0.0,0.0,0.0,2.1551874568455776,stabilize,85.0,2.0,0.0,0.0,-2.0,0.15518745684557755,0.0,0,0
1761121307.6681063,13.692445993423462,0.0,0.0,2.158848025805651,0.0,0.0,0.013103603672525084,0.0,0.0,0.0,0.5859694014199521,0.0,0.0,0.0,0.0,0.0,2.158848025805651,stabilize,85.0,2.0,0.0,0.0,-2.0,0.15884802580565083,0.0,0,0
1761121307.7733006,13.797640323638916,0.0,0.0,2.159681341454581,0.0,0.0,0.04158061303046147,0.0,0.0,0.0,0.8520004098643098,0.0,0.0,0.0,0.0,0.0,2.159681341454581,stabilize,85.0,2.0,0.0,0.0,-2.0,0.15968134145458102,0.0,0,0
1761121307.8756638,13.900003433227539,0.0,0.0,2.1602846861604066,0.0,0.0,0.03543360495342984,0.0,0.0,0.0,0.8520004098643098,0.0,0.0,0.0,0.0,0.0,2.1602846861604066,stabilize,85.0,2.0,0.0,0.0,-2.0,0.1602846861604066,0.0,0,0
1761121307.9795606,14.003900289535522,0.0,0.0,2.159680762096442,0.0,0.0,0.019009252877995028,0.0,0.0,0.0,0.8520004098643098,0.0,0.0,0.0,0.0,0.0,2.159680762096442,stabilize,85.0,2.0,0.0,0.0,-2.0,0.15968076209644222,0.0,0,0
1761121308.08213,14.106469631195068,0.0,0.0,2.1582840657511273,0.0,0.0,0.014145228297148413,0.0,0.0,0.0,0.8520004098643098,0.0,0.0,0.0,0.0,0.0,2.1582840657511273,stabilize,85.0,2.0,0.0,0.0,-2.0,0.1582840657511273,0.0,0,0
1761121308.1883378,14.212677478790283,0.0,0.0,2.1568457871614943,0.0,0.0,0.025223223808652925,0.0,0.0,0.0,0.8520004098643098,0.0,0.0,0.0,0.0,0.0,2.1568457871614943,stabilize,85.0,2.0,0.0,0.0,-2.0,0.15684578716149433,0.0,0,0
1761121308.2930033,14.31734299659729,0.0,0.0,2.155987056152524,0.0,0.0,0.02608569075456446,0.0,0.0,0.0,0.8520004098643098,0.0,0.0,0.0,0.0,0.0,2.155987056152524,stabilize,85.0,2.0,0.0,0.0,-2.0,0.15598705615252406,0.0,0,0
1761121308.3982232,14.422562837600708,0.0,0.0,2.1552297697395906,0.0,0.0,0.028865713043893924,0.0,0.0,0.0,0.8520004098643098,0.0,0.0,0.0,0.0,0.0,2.1552297697395906,stabilize,85.0,2.0,0.0,0.0,-2.0,0.15522976973959057,0.0,0,0
1761121308.502763,14.527102708816528,0.0,0.0,2.1545380008354256,0.0,0.0,0.023838402665324318,0.0,0.0,0.0,0.8520004098643098,0.0,0.0,0.0,0.0,0.0,2.1545380008354256,stabilize,85.0,2.0,0.0,0.0,-2.0,0.15453800083542557,0.0,0,0
1761121308.6084557,14.632795333862305,0.0,0.0,2.1528722153833577,0.0,0.0,0.011909256811640588,0.0,0.0,0.0,0.8520004098643098,0.0,0.0,0.0,0.0,0.0,2.1528722153833577,stabilize,85.0,2.0,0.0,0.0,-2.0,0.1528722153833577,0.0,0,0
1761121308.7113662,14.735705852508545,0.0,0.0,2.150305756401709,0.0,0.0,0.0024689608637382607,0.0,0.0,0.0,0.8520004098643098,0.0,0.0,0.0,0.0,0.0,2.150305756401709,stabilize,85.0,2.0,0.0,0.0,-2.0,0.15030575640170918,0.0,0,0
1761121308.8142376,14.838577270507812,0.0,0.0,2.147452862126316,0.0,0.0,0.005965320529367636,0.0,0.0,0.0,0.8520004098643098,0.0,0.0,0.0,0.0,0.0,2.147452862126316,stabilize,85.0,2.0,0.0,0.0,-2.0,0.14745286212631603,0.0,0,0
1761121308.9213705,14.945710182189941,0.0,0.0,2.144212968947149,0.0,0.0,-0.0027554505852753625,0.0,0.0,0.0,0.8520004098643098,0.0,0.0,0.0,0.0,0.0,2.144212968947149,stabilize,85.0,2.0,0.0,0.0,-2.0,0.1442129689471492,0.0,0,0
1761121309.024618,15.048957586288452,0.0,0.0,2.1402427481810773,0.0,0.0,-0.0063396270430540885,0.0,0.0,0.0,0.8520004098643098,0.0,0.0,0.0,0.0,0.0,2.1402427481810773,stabilize,85.0,2.0,0.0,0.0,-2.0,0.1402427481810773,0.0,0,0
1761121309.1298153,15.154155015945435,0.0,0.0,2.1365105946746215,0.0,0.0,-0.003038992159887857,0.0,0.0,0.0,0.8520004098643098,0.0,0.0,0.0,0.0,0.0,2.1365105946746215,stabilize,85.0,2.0,0.0,0.0,-2.0,0.13651059467462145,0.0,0,0
1761121309.2388098,15.263149499893188,0.0,0.0,2.1329682787742534,0.0,0.0,0.0005354656565390928,0.0,0.0,0.0,0.8520004098643098,0.0,0.0,0.0,0.0,0.0,2.1329682787742534,stabilize,85.0,2.0,0.0,0.0,-2.0,0.13296827877425343,0.0,0,0
1761121309.3429747,15.367314338684082,0.0,0.0,2.1291685898774566,0.0,0.0,-0.008827045743165854,0.0,0.0,0.0,0.8520004098643098,0.0,0.0,0.0,0.0,0.0,2.1291685898774566,stabilize,85.0,2.0,0.0,0.0,-2.0,0.1291685898774566,0.0,0,0
1761121309.4480722,15.472411870956421,0.0,0.0,2.1245369104334397,0.0,0.0,-0.00988576809147082,0.0,0.0,0.0,0.8520004098643098,0.0,0.0,0.0,0.0,0.0,2.1245369104334397,stabilize,85.0,2.0,0.0,0.0,-2.0,0.12453691043343973,0.0,0,0
1761121309.552192,15.576531648635864,0.0,0.0,2.1201664218861884,0.0,0.0,-0.014619563377224212,0.0,0.0,0.0,0.8520004098643098,0.0,0.0,0.0,0.0,0.0,2.1201664218861884,stabilize,85.0,2.0,0.0,0.0,-2.0,0.12016642188618842,0.0,0,0
1761121309.6535375,15.677877187728882,0.0,0.0,2.115439604123463,0.0,0.0,-0.03257958036627126,0.0,0.0,0.0,0.8520004098643098,0.0,0.0,0.0,0.0,0.0,2.115439604123463,stabilize,85.0,2.0,0.0,0.0,-2.0,0.1154396041234631,0.0,0,0
1761121309.758024,15.782363653182983,0.0,0.0,2.108247417322123,0.0,0.0,-0.04561403145297203,0.0,0.0,0.0,0.8520004098643098,0.0,0.0,0.0,0.0,0.0,2.108247417322123,stabilize,85.0,2.0,0.0,0.0,-2.0,0.10824741732212306,0.0,0,0
1761121309.863935,15.888274669647217,0.0,0.0,2.10045723943161,0.0,0.0,-0.03763076880479006,0.0,0.0,0.0,0.8520004098643098,0.0,0.0,0.0,0.0,0.0,2.10045723943161,stabilize,85.0,2.0,0.0,0.0,-2.0,0.10045723943161011,0.0,0,0
1761121309.9686685,15.993008136749268,0.0,0.0,2.0931314705492645,0.0,0.0,-0.032590592994923714,0.0,0.0,0.0,0.8520004098643098,0.0,0.0,0.0,0.0,0.0,2.0931314705492645,stabilize,85.0,2.0,0.0,0.0,-2.0,0.09313147054926452,0.0,0,0
1761121310.0737147,16.0980544090271,0.0,0.0,2.0861756260825697,0.0,0.0,-0.035155655236317446,0.0,0.0,0.0,0.8520004098643098,0.0,0.0,0.0,0.0,0.0,2.0861756260825697,stabilize,85.0,2.0,0.0,0.0,-2.0,0.08617562608256968,0.0,0,0
1761121310.1786013,16.202940940856934,0.0,0.0,2.078838536691202,0.0,0.0,-0.03623644360229577,0.0,0.0,0.0,0.8520004098643098,0.0,0.0,0.0,0.0,0.0,2.078838536691202,stabilize,85.0,2.0,0.0,0.0,-2.0,0.07883853669120189,0.0,0,0
1761121310.2815928,16.30593252182007,0.0,0.0,2.071456701218739,0.0,0.0,-0.044968522196000935,0.0,0.0,0.0,0.8520004098643098,0.0,0.0,0.0,0.0,0.0,2.071456701218739,stabilize,85.0,2.0,0.0,0.0,-2.0,0.07145670121873904,0.0,0,0
1761121310.385236,16.409575700759888,0.0,0.0,2.0632563528854653,0.0,0.0,-0.049712132711970114,0.0,0.0,0.0,0.8520004098643098,0.0,0.0,0.0,0.0,0.0,2.0632563528854653,stabilize,85.0,2.0,0.0,0.0,-2.0,0.06325635288546527,0.0,0,0
1761121310.4864967,16.510836362838745,0.0,0.0,2.0563786253980454,0.0,0.0,-0.03857739772454791,0.0,0.0,0.0,0.8520004098643098,0.0,0.0,0.0,0.0,0.0,2.0563786253980454,stabilize,85.0,2.0,0.0,0.0,-2.0,0.05637862539804539,0.0,0,0
1761121310.5906518,16.614991426467896,0.0,0.0,2.0493224300883885,0.0,0.0,-0.04221088126036579,0.0,0.0,0.0,0.8520004098643098,0.0,0.0,0.0,0.0,0.0,2.0493224300883885,stabilize,85.0,2.0,0.0,0.0,-2.0,0.04932243008838855,0.0,0,0
1761121310.6968813,16.72122097015381,0.0,0.0,2.042263994135833,0.0,0.0,-0.022186681912056763,0.0,0.0,0.0,0.8520004098643098,0.0,0.0,0.0,0.0,0.0,2.042263994135833,stabilize,85.0,2.0,0.0,0.0,-2.0,0.04226399413583293,0.0,0,0
1761121310.8016114,16.825951099395752,0.0,0.0,2.0357716836485658,0.0,0.0,-0.030181809195452852,0.0,0.0,0.0,0.8520004098643098,0.0,0.0,0.0,0.0,0.0,2.0357716836485658,stabilize,85.0,2.0,0.0,0.0,-2.0,0.035771683648565755,0.0,0,0
1761121310.905796,16.93013572692871,0.0,0.0,2.0293876098948065,0.0,0.0,-0.025654015663681543,0.0,0.0,0.0,0.8520004098643098,0.0,0.0,0.0,0.0,0.0,2.0293876098948065,stabilize,85.0,2.0,0.0,0.0,-2.0,0.029387609894806488,0.0,0,0
1761121311.0104568,17.034796476364136,0.0,0.0,2.0230092379144655,0.0,0.0,-0.03824783983114864,0.0,0.0,0.0,0.8520004098643098,0.0,0.0,0.0,0.0,0.0,2.0230092379144655,stabilize,85.0,2.0,0.0,0.0,-2.0,0.02300923791446552,0.0,0,0
1761121311.1135597,17.13789939880371,0.0,0.0,2.0156804753698894,0.0,0.0,-0.043109247505843155,0.0,0.0,0.0,0.8520004098643098,0.0,0.0,0.0,0.0,0.0,2.0156804753698894,stabilize,85.0,2.0,0.0,0.0,-2.0,0.01568047536988937,0.0,0,0
1761121311.2187304,17.243070125579834,0.0,0.0,2.007336008910894,0.0,0.0,-0.05196640993210015,0.0,0.0,0.0,0.8520004098643098,0.0,0.0,0.0,0.0,0.0,2.007336008910894,stabilize,85.0,2.0,0.0,0.0,-2.0,0.00733600891089381,0.0,0,0
1761121311.3230088,17.34734845161438,0.0,0.0,1.99861486586241,0.0,0.0,-0.04932114720885245,0.0,0.0,0.0,0.8520004098643098,0.0,0.0,0.0,0.0,0.0,1.99861486586241,stabilize,85.0,2.0,0.0,0.0,-2.0,0.001385134137589894,0.0,0,0
1761121311.425475,17.449814558029175,0.0,0.0,1.9899748765834573,0.0,0.0,-0.053371184656571494,0.0,0.0,0.0,0.8520004098643098,0.0,0.0,0.0,0.0,0.0,1.9899748765834573,stabilize,85.0,2.0,0.0,0.0,-2.0,0.010025123416542714,0.0,0,0
1761121311.5290668,17.553406476974487,0.0,0.0,1.9807756814785236,0.0,0.0,-0.058398847867585875,0.0,0.0,0.0,0.8520004098643098,0.0,0.0,0.0,0.0,0.0,1.9807756814785236,stabilize,85.0,2.0,0.0,0.0,-2.0,0.019224318521476436,0.0,0,0
1761121311.6327066,17.6570463180542,0.0,0.0,1.9713509677386185,0.0,0.0,-0.05809129793950715,0.0,0.0,0.0,0.8520004098643098,0.0,0.0,0.0,0.0,0.0,1.9713509677386185,stabilize,85.0,2.0,0.0,0.0,-2.0,0.02864903226138149,0.0,0,0
1761121311.736357,17.76069664955139,0.0,0.0,1.9614546609381394,0.0,0.0,-0.06470262413559268,0.0,0.0,0.0,0.8520004098643098,0.0,0.0,0.0,0.0,0.0,1.9614546609381394,stabilize,85.0,2.0,0.0,0.0,-2.0,0.03854533906186064,0.0,0,0
1761121311.8404849,17.864824533462524,0.0,0.0,1.9511242167124354,0.0,0.0,-0.07047808209515109,0.0,0.0,0.0,0.8520004098643098,0.0,0.0,0.0,0.0,0.0,1.9511242167124354,stabilize,85.0,2.0,0.0,0.0,-2.0,0.04887578328756459,0.0,0,0
1761121311.948836,17.973175764083862,0.0,0.0,1.9417326461179663,0.0,0.0,-0.029745453475499284,0.0,0.0,0.0,0.8520004098643098,0.0,0.0,0.0,0.0,0.0,1.9417326461179663,stabilize,85.0,2.0,0.0,0.0,-2.0,0.058267353882033746,0.0,0,0
1761121312.0513494,18.07568907737732,0.0,0.0,1.9354754824398714,0.0,0.0,-0.03310858427060949,0.0,0.0,0.0,0.8520004098643098,0.0,0.0,0.0,0.0,0.0,1.9354754824398714,stabilize,85.0,2.0,0.0,0.0,-2.0,0.06452451756012856,0.0,0,0
1761121312.1545234,18.178863048553467,0.0,0.0,1.9290570637888924,0.0,0.0,-0.03150922201117719,0.0,0.0,0.0,0.8520004098643098,0.0,0.0,0.0,0.0,0.0,1.9290570637888924,stabilize,85.0,2.0,0.0,0.0,-2.0,0.07094293621110759,0.0,0,0
1761121312.2617395,18.286079168319702,0.0,0.0,1.921600852966426,0.0,0.0,-0.039282493244541174,0.0,0.0,0.0,0.8520004098643098,0.0,0.0,0.0,0.0,0.0,1.921600852966426,stabilize,85.0,2.0,0.0,0.0,-2.0,0.07839914703357409,0.0,0,0
1761121312.367204,18.39154362678528,0.0,0.0,1.9140619019158742,0.0,0.0,-0.03586456759444495,0.0,0.0,0.0,0.8520004098643098,0.0,0.0,0.0,0.0,0.0,1.9140619019158742,stabilize,85.0,2.0,0.0,0.0,-2.0,0.08593809808412578,0.0,0,0
1761121312.4716609,18.49600052833557,0.0,0.0,1.9065810568576598,0.0,0.0,-0.04052695212650545,0.0,0.0,0.0,0.8520004098643098,0.0,0.0,0.0,0.0,0.0,1.9065810568576598,stabilize,85.0,2.0,0.0,0.0,-2.0,0.09341894314234023,0.0,0,0
1761121312.5742974,18.598637104034424,0.0,0.0,1.8993872183741531,0.0,0.0,-0.037248971143353564,0.0,0.0,0.0,0.8520004098643098,0.0,0.0,0.0,0.0,0.0,1.8993872183741531,stabilize,85.0,2.0,0.0,0.0,-2.0,0.10061278162584686,0.0,0,0
1761121312.6838627,18.708202362060547,0.0,0.0,1.8924643460771693,0.0,0.0,-0.10178271249155396,0.0,0.0,0.0,0.15200040986430985,0.0,0.0,0.0,0.0,0.0,1.8924643460771693,stabilize,85.0,2.0,0.0,0.0,-2.0,0.10753565392283071,0.0,0,0
1761121312.7884142,18.812753915786743,0.0,0.0,1.8847808682673581,0.0,0.0,-0.10700905596639666,0.0,0.0,0.0,0.17271460213132045,0.0,0.0,0.0,0.0,0.0,1.8847808682673581,stabilize,85.0,2.0,0.0,0.0,-2.0,0.11521913173264187,0.0,0,0
1761121312.8915071,18.915846824645996,0.0,0.0,1.8772147659253675,0.0,0.0,-0.10310211770851327,0.0,0.0,0.0,0.15200040986430985,0.0,0.0,0.0,0.0,0.0,1.8772147659253675,stabilize,85.0,2.0,0.0,0.0,-2.0,0.12278523407463249,0.0,0,0
1761121312.9958894,19.02022910118103,0.0,0.0,1.8700023921695486,0.0,0.0,-0.09961008842657315,0.0,0.0,0.0,0.15200040986430985,0.0,0.0,0.0,0.0,0.0,1.8700023921695486,stabilize,85.0,2.0,0.0,0.0,-2.0,0.12999760783045144,0.0,0,0
1761121313.1007798,19.12511944770813,0.0,0.0,1.8635725227101378,0.0,0.0,-0.0925709317149858,0.0,0.0,0.0,0.15200040986430985,0.0,0.0,0.0,0.0,0.0,1.8635725227101378,stabilize,85.0,2.0,0.0,0.0,-2.0,0.13642747728986215,0.0,0,0
1761121313.2056491,19.22998881340027,0.0,0.0,1.8572093120178645,0.0,0.0,-0.0983651182016507,0.0,0.0,0.0,0.15200040986430985,0.0,0.0,0.0,0.0,0.0,1.8572093120178645,stabilize,85.0,2.0,0.0,0.0,-2.0,0.14279068798213546,0.0,0,0
1761121313.3092895,19.33362913131714,0.0,0.0,1.8514946534017769,0.0,0.0,-0.08382754815905986,0.0,0.0,0.0,0.15200040986430985,0.0,0.0,0.0,0.0,0.0,1.8514946534017769,stabilize,85.0,2.0,0.0,0.0,-2.0,0.14850534659822312,0.0,0,0
1761121313.4136891,19.438028812408447,0.0,0.0,1.846590195426918,0.0,0.0,-0.07349559850994283,0.0,0.0,0.0,0.15200040986430985,0.0,0.0,0.0,0.0,0.0,1.846590195426918,stabilize,85.0,2.0,0.0,0.0,-2.0,0.15340980457308206,0.0,0,0
1761121313.51952,19.543859720230103,0.0,0.0,1.842290345971191,0.0,0.0,-0.07092364923231596,0.0,0.0,0.0,0.15200040986430985,0.0,0.0,0.0,0.0,0.0,1.842290345971191,stabilize,85.0,2.0,0.0,0.0,-2.0,0.157709654028809,0.0,0,0
1761121313.623036,19.64737558364868,0.0,0.0,1.8381996028481205,0.0,0.0,-0.07103616696262077,0.0,0.0,0.0,0.15200040986430985,0.0,0.0,0.0,0.0,0.0,1.8381996028481205,stabilize,85.0,2.0,0.0,0.0,-2.0,0.16180039715187955,0.0,0,0
1761121313.7303379,19.754677534103394,0.0,0.0,1.8346618202058769,0.0,0.0,-0.05682909618065003,0.0,0.0,0.0,0.15200040986430985,0.0,0.0,0.0,0.0,0.0,1.8346618202058769,stabilize,85.0,2.0,0.0,0.0,-2.0,0.16533817979412313,0.0,0,0
1761121313.8357713,19.860110998153687,0.0,0.0,1.8321159906696005,0.0,0.0,-0.057792099272067736,0.0,0.0,0.0,0.15200040986430985,0.0,0.0,0.0,0.0,0.0,1.8321159906696005,stabilize,85.0,2.0,0.0,0.0,-2.0,0.1678840093303995,0.0,0,0
1761121313.9398437,19.96418333053589,0.0,0.0,1.8296837972210138,0.0,0.0,-0.05363125103479032,0.0,0.0,0.0,0.15200040986430985,0.0,0.0,0.0,0.0,0.0,1.8296837972210138,stabilize,85.0,2.0,0.0,0.0,-2.0,0.17031620277898618,0.0,0,0
1761121314.0425813,20.06692099571228,0.0,0.0,1.8273467379633161,0.0,0.0,-0.052214284373620815,0.0,0.0,0.0,0.15200040986430985,0.0,0.0,0.0,0.0,0.0,1.8273467379633161,stabilize,85.0,2.0,0.0,0.0,-2.0,0.17265326203668385,0.0,0,0
1761121314.146578,20.170917749404907,0.0,0.0,1.8256277036867326,0.0,0.0,-0.046729769501023526,0.0,0.0,0.0,0.15200040986430985,0.0,0.0,0.0,0.0,0.0,1.8256277036867326,stabilize,85.0,2.0,0.0,0.0,-2.0,0.17437229631326745,0.0,0,0
1761121314.2511458,20.275485515594482,0.0,0.0,1.8244915554239505,0.0,0.0,-0.03767891959218276,0.0,0.0,0.0,0.15200040986430985,0.0,0.0,0.0,0.0,0.0,1.8244915554239505,stabilize,85.0,2.0,0.0,0.0,-2.0,0.17550844457604953,0.0,0,0
1761121314.3554578,20.37979745864868,0.0,0.0,1.8239873973309726,0.0,0.0,-0.03548862314225523,0.0,0.0,0.0,0.15200040986430985,0.0,0.0,0.0,0.0,0.0,1.8239873973309726,stabilize,85.0,2.0,0.0,0.0,-2.0,0.1760126026690274,0.0,0,0
1761121314.4592066,20.483546257019043,0.0,0.0,1.8234858993028225,0.0,0.0,-0.035632656396067657,0.0,0.0,0.0,0.15200040986430985,0.0,0.0,0.0,0.0,0.0,1.8234858993028225,stabilize,85.0,2.0,0.0,0.0,-2.0,0.17651410069717755,0.0,0,0
1761121314.5622253,20.586565017700195,0.0,0.0,1.8227784755695484,0.0,0.0,-0.03896390845679556,0.0,0.0,0.0,0.15200040986430985,0.0,0.0,0.0,0.0,0.0,1.8227784755695484,stabilize,85.0,2.0,0.0,0.0,-2.0,0.17722152443045158,0.0,0,0
1761121314.6665597,20.69089937210083,0.0,0.0,1.822174221103944,0.0,0.0,-0.04028883059679292,0.0,0.0,0.0,0.15200040986430985,0.0,0.0,0.0,0.0,0.0,1.822174221103944,stabilize,85.0,2.0,0.0,0.0,-2.0,0.177825778896056,0.0,0,0
1761121314.7714958,20.795835494995117,0.0,0.0,1.8217349803173135,0.0,0.0,-0.03345050603228174,0.0,0.0,0.0,0.15200040986430985,0.0,0.0,0.0,0.0,0.0,1.8217349803173135,stabilize,85.0,2.0,0.0,0.0,-2.0,0.1782650196826865,0.0,0,0
1761121314.8750627,20.899402379989624,0.0,0.0,1.821654918690699,0.0,0.0,-0.03262788685105741,0.0,0.0,0.0,0.15200040986430985,0.0,0.0,0.0,0.0,0.0,1.821654918690699,stabilize,85.0,2.0,0.0,0.0,-2.0,0.17834508130930105,0.0,0,0
1761121314.9809563,21.005295991897583,0.0,0.0,1.8212157734474446,0.0,0.0,-0.041648323600341895,0.0,0.0,0.0,0.15200040986430985,0.0,0.0,0.0,0.0,0.0,1.8212157734474446,stabilize,85.0,2.0,0.0,0.0,-2.0,0.17878422655255544,0.0,0,0
1761121315.0850499,21.109389543533325,0.0,0.0,1.8203234493187448,0.0,0.0,-0.04245328121104135,0.0,0.0,0.0,0.15200040986430985,0.0,0.0,0.0,0.0,0.0,1.8203234493187448,stabilize,85.0,2.0,0.0,0.0,-2.0,0.1796765506812552,0.0,0,0
1761121315.1910887,21.215428352355957,0.0,0.0,1.8190363239519713,0.0,0.0,-0.04151675550064173,0.0,0.0,0.0,0.15200040986430985,0.0,0.0,0.0,0.0,0.0,1.8190363239519713,stabilize,85.0,2.0,0.0,0.0,-2.0,0.18096367604802865,0.0,0,0
1761121315.2934546,21.31779432296753,0.0,0.0,1.8180255719451361,0.0,0.0,-0.03988592690118879,0.0,0.0,0.0,0.15200040986430985,0.0,0.0,0.0,0.0,0.0,1.8180255719451361,stabilize,85.0,2.0,0.0,0.0,-2.0,0.18197442805486386,0.0,0,0
1761121315.3990815,21.423421144485474,0.0,0.0,1.8166209428234352,0.0,0.0,-0.05007692403764902,0.0,0.0,0.0,0.15200040986430985,0.0,0.0,0.0,0.0,0.0,1.8166209428234352,stabilize,85.0,2.0,0.0,0.0,-2.0,0.18337905717656477,0.0,0,0
1761121315.5023787,21.526718378067017,0.0,0.0,1.8148812188829098,0.0,0.0,-0.048820460616751694,0.0,0.0,0.0,0.15200040986430985,0.0,0.0,0.0,0.0,0.0,1.8148812188829098,stabilize,85.0,2.0,0.0,0.0,-2.0,0.18511878111709024,0.0,0,0
1761121315.6057706,21.630110263824463,0.0,0.0,1.8130905153303352,0.0,0.0,-0.05313021706324295,0.0,0.0,0.0,0.15200040986430985,0.0,0.0,0.0,0.0,0.0,1.8130905153303352,stabilize,85.0,2.0,0.0,0.0,-2.0,0.18690948466966484,0.0,0,0
1761121315.7097604,21.734100103378296,0.0,0.0,1.8108415841997698,0.0,0.0,-0.05155595759381347,0.0,0.0,0.0,0.15200040986430985,0.0,0.0,0.0,0.0,0.0,1.8108415841997698,stabilize,85.0,2.0,0.0,0.0,-2.0,0.18915841580023018,0.0,0,0
1761121315.8126557,21.836995363235474,0.0,0.0,1.809153289532276,0.0,0.0,-0.04725784636889008,0.0,0.0,0.0,0.15200040986430985,0.0,0.0,0.0,0.0,0.0,1.809153289532276,stabilize,85.0,2.0,0.0,0.0,-2.0,0.19084671046772406,0.0,0,0
1761121315.9149005,21.939240217208862,0.0,0.0,1.8075826043686392,0.0,0.0,-0.0462247299127451,0.0,0.0,0.0,0.15200040986430985,0.0,0.0,0.0,0.0,0.0,1.8075826043686392,stabilize,85.0,2.0,0.0,0.0,-2.0,0.19241739563136084,0.0,0,0
1761121316.0189497,22.04328942298889,0.0,0.0,1.8059088385597262,0.0,0.0,-0.04187726267218293,0.0,0.0,0.0,0.15200040986430985,0.0,0.0,0.0,0.0,0.0,1.8059088385597262,stabilize,85.0,2.0,0.0,0.0,-2.0,0.19409116144027383,0.0,0,0
1761121316.1218839,22.146223545074463,0.0,0.0,1.8043802312121184,0.0,0.0,-0.04469009658200349,0.0,0.0,0.0,0.15200040986430985,0.0,0.0,0.0,0.0,0.0,1.8043802312121184,stabilize,85.0,2.0,0.0,0.0,-2.0,0.19561976878788156,0.0,0,0
1761121316.2246292,22.248968839645386,0.0,0.0,1.8035085780704128,0.0,0.0,-0.03861905127202405,0.0,0.0,0.0,0.15200040986430985,0.0,0.0,0.0,0.0,0.0,1.8035085780704128,stabilize,85.0,2.0,0.0,0.0,-2.0,0.19649142192958724,0.0,0,0
1761121316.3296456,22.35398530960083,0.0,0.0,1.8035013133140287,0.0,0.0,-0.02409249820461159,0.0,0.0,0.0,0.15200040986430985,0.0,0.0,0.0,0.0,0.0,1.8035013133140287,stabilize,85.0,2.0,0.0,0.0,-2.0,0.19649868668597126,0.0,0,0
1761121316.4363904,22.46073007583618,0.0,0.0,1.8048326816344233,0.0,0.0,-0.01204538036333029,0.0,0.0,0.0,0.15200040986430985,0.0,0.0,0.0,0.0,0.0,1.8048326816344233,stabilize,85.0,2.0,0.0,0.0,-2.0,0.19516731836557666,0.0,0,0
1761121316.5417886,22.566128253936768,0.0,0.0,1.806601621866343,0.0,0.0,-0.020348587252272156,0.0,0.0,0.0,0.15200040986430985,0.0,0.0,0.0,0.0,0.0,1.806601621866343,stabilize,85.0,2.0,0.0,0.0,-2.0,0.193398378133657,0.0,0,0
1761121316.6448488,22.669188499450684,0.0,0.0,1.807913708374621,0.0,0.0,-0.015593161142566606,0.0,0.0,0.0,0.15200040986430985,0.0,0.0,0.0,0.0,0.0,1.807913708374621,stabilize,85.0,2.0,0.0,0.0,-2.0,0.19208629162537894,0.0,0,0
1761121316.7504091,22.77474880218506,0.0,0.0,1.809594903878967,0.0,0.0,-0.017854969326324563,0.0,0.0,0.0,0.15200040986430985,0.0,0.0,0.0,0.0,0.0,1.809594903878967,stabilize,85.0,2.0,0.0,0.0,-2.0,0.19040509612103307,0.0,0,0
1761121316.853471,22.87781071662903,0.0,0.0,1.8111867740377936,0.0,0.0,-0.013665006825844449,0.0,0.0,0.0,0.15200040986430985,0.0,0.0,0.0,0.0,0.0,1.8111867740377936,stabilize,85.0,2.0,0.0,0.0,-2.0,0.1888132259622064,0.0,0,0
1761121316.9584334,22.982773065567017,0.0,0.0,1.8130767654391506,0.0,0.0,-0.012172200506736043,0.0,0.0,0.0,0.15200040986430985,0.0,0.0,0.0,0.0,0.0,1.8130767654391506,stabilize,85.0,2.0,0.0,0.0,-2.0,0.18692323456084936,0.0,0,0
1761121317.062204,23.086543560028076,0.0,0.0,1.814976069754532,0.0,0.0,-0.017840369766698137,0.0,0.0,0.0,0.15200040986430985,0.0,0.0,0.0,0.0,0.0,1.814976069754532,stabilize,85.0,2.0,0.0,0.0,-2.0,0.18502393024546793,0.0,0,0
1761121317.16934,23.193679571151733,0.0,0.0,1.8163509697031164,0.0,0.0,-0.018151974419697695,0.0,0.0,0.0,0.15200040986430985,0.0,0.0,0.0,0.0,0.0,1.8163509697031164,stabilize,85.0,2.0,0.0,0.0,-2.0,0.18364903029688362,0.0,0,0
1761121317.2736201,23.297959804534912,0.0,0.0,1.8179256641149066,0.0,0.0,-0.015732492744908545,0.0,0.0,0.0,0.15200040986430985,0.0,0.0,0.0,0.0,0.0,1.8179256641149066,stabilize,85.0,2.0,0.0,0.0,-2.0,0.18207433588509336,0.0,0,0
1761121317.3789887,23.40332841873169,0.0,0.0,1.819336058198958,0.0,0.0,-0.017882023736592645,0.0,0.0,0.0,0.15200040986430985,0.0,0.0,0.0,0.0,0.0,1.819336058198958,stabilize,85.0,2.0,0.0,0.0,-2.0,0.18066394180104206,0.0,0,0
1761121317.4835992,23.507938861846924,0.0,0.0,1.8206907461057118,0.0,0.0,-0.021826880787614036,0.0,0.0,0.0,0.15200040986430985,0.0,0.0,0.0,0.0,0.0,1.8206907461057118,stabilize,85.0,2.0,0.0,0.0,-2.0,0.1793092538942882,0.0,0,0
1761121317.587415,23.611754655838013,0.0,0.0,1.821832339789437,0.0,0.0,-0.02220805852366759,0.0,0.0,0.0,0.15200040986430985,0.0,0.0,0.0,0.0,0.0,1.821832339789437,stabilize,85.0,2.0,0.0,0.0,-2.0,0.17816766021056307,0.0,0,0
1761121317.691463,23.715802669525146,0.0,0.0,1.822801670071315,0.0,0.0,-0.029202736673874463,0.0,0.0,0.0,0.15200040986430985,0.0,0.0,0.0,0.0,0.0,1.822801670071315,stabilize,85.0,2.0,0.0,0.0,-2.0,0.177198329928685,0.0,0,0
1761121317.7976658,23.8220055103302,0.0,0.0,1.8229419200284345,0.0,0.0,-0.035417451249181435,0.0,0.0,0.0,0.15200040986430985,0.0,0.0,0.0,0.0,0.0,1.8229419200284345,stabilize,85.0,2.0,0.0,0.0,-2.0,0.17705807997156553,0.0,0,0
1761121317.901307,23.925646781921387,0.0,0.0,1.823035343195539,0.0,0.0,-0.031044087036935154,0.0,0.0,0.0,0.15200040986430985,0.0,0.0,0.0,0.0,0.0,1.823035343195539,stabilize,85.0,2.0,0.0,0.0,-2.0,0.17696465680446094,0.0,0,0
1761121318.008918,24.033257722854614,0.0,0.0,1.8249648712858195,0.0,0.0,-0.016305928052931143,0.0,0.0,0.0,0.15200040986430985,0.0,0.0,0.0,0.0,0.0,1.8249648712858195,stabilize,85.0,2.0,0.0,0.0,-2.0,0.17503512871418048,0.0,0,0
1761121318.1128445,24.137184143066406,0.0,0.0,1.8265739521116495,0.0,0.0,-0.018319940586605264,0.0,0.0,0.0,0.15200040986430985,0.0,0.0,0.0,0.0,0.0,1.8265739521116495,stabilize,85.0,2.0,0.0,0.0,-2.0,0.17342604788835048,0.0,0,0
1761121318.2168653,24.241204977035522,0.0,0.0,1.827935565295198,0.0,0.0,-0.02076561697484,0.0,0.0,0.0,0.15200040986430985,0.0,0.0,0.0,0.0,0.0,1.827935565295198,stabilize,85.0,2.0,0.0,0.0,-2.0,0.17206443470480193,0.0,0,0
1761121318.3204477,24.34478735923767,0.0,0.0,1.8294025502529971,0.0,0.0,-0.0121327460364226,0.0,0.0,0.0,0.15200040986430985,0.0,0.0,0.0,0.0,0.0,1.8294025502529971,stabilize,85.0,2.0,0.0,0.0,-2.0,0.17059744974700286,0.0,0,0
1761121318.424795,24.449134588241577,0.0,0.0,1.8311091817645435,0.0,0.0,-0.018927629109456987,0.0,0.0,0.0,0.15200040986430985,0.0,0.0,0.0,0.0,0.0,1.8311091817645435,stabilize,85.0,2.0,0.0,0.0,-2.0,0.16889081823545649,0.0,0,0
1761121318.5296621,24.554001808166504,0.0,0.0,1.8321997778637342,0.0,0.0,-0.020050239384253453,0.0,0.0,0.0,0.15200040986430985,0.0,0.0,0.0,0.0,0.0,1.8321997778637342,stabilize,85.0,2.0,0.0,0.0,-2.0,0.16780022213626578,0.0,0,0
1761121318.6343808,24.65872049331665,0.0,0.0,1.8337192922156451,0.0,0.0,-0.015280292630913773,0.0,0.0,0.0,0.15200040986430985,0.0,0.0,0.0,0.0,0.0,1.8337192922156451,stabilize,85.0,2.0,0.0,0.0,-2.0,0.1662807077843549,0.0,0,0
1761121318.73971,24.764049768447876,0.0,0.0,1.8352488662858135,0.0,0.0,-0.022972977901718684,0.0,0.0,0.0,0.15200040986430985,0.0,0.0,0.0,0.0,0.0,1.8352488662858135,stabilize,85.0,2.0,0.0,0.0,-2.0,0.16475113371418648,0.0,0,0
1761121318.8425198,24.866859436035156,0.0,0.0,1.8356588979549087,0.0,0.0,-0.03284952324798716,0.0,0.0,0.0,0.15200040986430985,0.0,0.0,0.0,0.0,0.0,1.8356588979549087,stabilize,85.0,2.0,0.0,0.0,-2.0,0.16434110204509134,0.0,0,0
1761121318.9468343,24.971174001693726,0.0,0.0,1.8359775598757222,0.0,0.0,-0.022202751189530558,0.0,0.0,0.0,0.15200040986430985,0.0,0.0,0.0,0.0,0.0,1.8359775598757222,stabilize,85.0,2.0,0.0,0.0,-2.0,0.1640224401242778,0.0,0,0
1761121319.0518875,25.07622718811035,0.0,0.0,1.8372974580442263,0.0,0.0,-0.01618682407435311,0.0,0.0,0.0,0.15200040986430985,0.0,0.0,0.0,0.0,0.0,1.8372974580442263,stabilize,85.0,2.0,0.0,0.0,-2.0,0.16270254195577372,0.0,0,0
1761121319.1551278,25.17946743965149,0.0,0.0,1.8387978162379663,0.0,0.0,-0.01818219830715495,0.0,0.0,0.0,0.15200040986430985,0.0,0.0,0.0,0.0,0.0,1.8387978162379663,stabilize,85.0,2.0,0.0,0.0,-2.0,0.16120218376203366,0.0,0,0
1761121319.259978,25.2843177318573,0.0,0.0,1.8403807078756385,0.0,0.0,-0.016915798867546607,0.0,0.0,0.0,0.15200040986430985,0.0,0.0,0.0,0.0,0.0,1.8403807078756385,stabilize,85.0,2.0,0.0,0.0,-2.0,0.15961929212436154,0.0,0,0
1761121319.363824,25.388163566589355,0.0,0.0,1.841881400851607,0.0,0.0,-0.018721571599045715,0.0,0.0,0.0,0.15200040986430985,0.0,0.0,0.0,0.0,0.0,1.841881400851607,stabilize,85.0,2.0,0.0,0.0,-2.0,0.1581185991483931,0.0,0,0
1761121319.4700599,25.494399547576904,0.0,0.0,1.8436670870042504,0.0,0.0,-0.011009262900880619,0.0,0.0,0.0,0.15200040986430985,0.0,0.0,0.0,0.0,0.0,1.8436670870042504,stabilize,85.0,2.0,0.0,0.0,-2.0,0.15633291299574958,0.0,0,0
1761121319.5743077,25.598647356033325,0.0,0.0,1.8462353610048694,0.0,0.0,-0.006301948198909731,0.0,0.0,0.0,0.15200040986430985,0.0,0.0,0.0,0.0,0.0,1.8462353610048694,stabilize,85.0,2.0,0.0,0.0,-2.0,0.1537646389951306,0.0,0,0
1761121319.6805701,25.704909801483154,0.0,0.0,1.8488343426789127,0.0,0.0,-0.007848432621834267,0.0,0.0,0.0,0.15200040986430985,0.0,0.0,0.0,0.0,0.0,1.8488343426789127,stabilize,85.0,2.0,0.0,0.0,-2.0,0.15116565732108733,0.0,0,0
1761121319.7842016,25.808541297912598,0.0,0.0,1.8510948482342946,0.0,0.0,-0.01386079001782009,0.0,0.0,0.0,0.15200040986430985,0.0,0.0,0.0,0.0,0.0,1.8510948482342946,stabilize,85.0,2.0,0.0,0.0,-2.0,0.1489051517657054,0.0,0,0
1761121319.8885684,25.91290807723999,0.0,0.0,1.853271165109628,0.0,0.0,-0.0159947513017921,0.0,0.0,0.0,0.15200040986430985,0.0,0.0,0.0,0.0,0.0,1.853271165109628,stabilize,85.0,2.0,0.0,0.0,-2.0,0.14672883489037192,0.0,0,0
1761121319.9928598,26.017199516296387,0.0,0.0,1.8551225591102027,0.0,0.0,-0.015416208749455068,0.0,0.0,0.0,0.15200040986430985,0.0,0.0,0.0,0.0,0.0,1.8551225591102027,stabilize,85.0,2.0,0.0,0.0,-2.0,0.14487744088979726,0.0,0,0
1761121320.1028755,26.127215147018433,0.0,0.0,1.856919626310494,0.0,0.0,-0.0319211127067349,0.0,0.0,0.0,0.24300906291801683,0.0,0.0,0.0,0.0,0.0,1.856919626310494,stabilize,85.0,2.0,0.0,0.0,-2.0,0.1430803736895061,0.0,0,0
1761121320.2048976,26.22923731803894,0.0,0.0,1.858774790401604,0.0,0.0,-0.012043200741950762,0.0,0.0,0.0,0.15200040986430985,0.0,0.0,0.0,0.0,0.0,1.858774790401604,stabilize,85.0,2.0,0.0,0.0,-2.0,0.1412252095983959,0.0,0,0
1761121320.3085148,26.332854509353638,0.0,0.0,1.8609300843609349,0.0,0.0,-0.016393922662879562,0.0,0.0,0.0,0.15200040986430985,0.0,0.0,0.0,0.0,0.0,1.8609300843609349,stabilize,85.0,2.0,0.0,0.0,-2.0,0.13906991563906512,0.0,0,0
1761121320.411262,26.435601711273193,0.0,0.0,1.8628775378169733,0.0,0.0,-0.011203990481636401,0.0,0.0,0.0,0.15200040986430985,0.0,0.0,0.0,0.0,0.0,1.8628775378169733,stabilize,85.0,2.0,0.0,0.0,-2.0,0.1371224621830267,0.0,0,0
1761121320.514702,26.539041757583618,0.0,0.0,1.8650099337231822,0.0,0.0,-0.01366107522043887,0.0,0.0,0.0,0.15200040986430985,0.0,0.0,0.0,0.0,0.0,1.8650099337231822,stabilize,85.0,2.0,0.0,0.0,-2.0,0.13499006627681776,0.0,0,0
1761121320.6170716,26.641411304473877,0.0,0.0,1.8667065537941987,0.0,0.0,-0.017902782544561534,0.0,0.0,0.0,0.15200040986430985,0.0,0.0,0.0,0.0,0.0,1.8667065537941987,stabilize,85.0,2.0,0.0,0.0,-2.0,0.1332934462058013,0.0,0,0
1761121320.7228067,26.747146368026733,0.0,0.0,1.8671225466090917,0.0,0.0,-0.03558994275852046,0.0,0.0,0.0,0.15200040986430985,0.0,0.0,0.0,0.0,0.0,1.8671225466090917,stabilize,85.0,2.0,0.0,0.0,-2.0,0.13287745339090828,0.0,0,0
1761121320.826051,26.850390672683716,0.0,0.0,1.867226463932857,0.0,0.0,-0.030102299530125325,0.0,0.0,0.0,0.15200040986430985,0.0,0.0,0.0,0.0,0.0,1.867226463932857,stabilize,85.0,2.0,0.0,0.0,-2.0,0.13277353606714293,0.0,0,0
1761121320.927357,26.951696634292603,0.0,0.0,1.8681139571301637,0.0,0.0,-0.037678755990626756,0.0,0.0,0.0,0.2693439582504565,0.0,0.0,0.0,0.0,0.0,1.8681139571301637,stabilize,85.0,2.0,0.0,0.0,-2.0,0.1318860428698363,0.0,0,0
1761121321.0307934,27.05513310432434,0.0,0.0,1.8678661077574645,0.0,0.0,-0.032189328949101405,0.0,0.0,0.0,0.15200040986430985,0.0,0.0,0.0,0.0,0.0,1.8678661077574645,stabilize,85.0,2.0,0.0,0.0,-2.0,0.13213389224253547,0.0,0,0
1761121321.1335015,27.157841205596924,0.0,0.0,1.8678942096448228,0.0,0.0,-0.029659638484641454,0.0,0.0,0.0,0.15200040986430985,0.0,0.0,0.0,0.0,0.0,1.8678942096448228,stabilize,85.0,2.0,0.0,0.0,-2.0,0.13210579035517722,0.0,0,0
1761121321.2379858,27.262325525283813,0.0,0.0,1.8680816008628651,0.0,0.0,0.031189470966132456,0.0,0.0,0.0,0.8520004098643098,0.0,0.0,0.0,0.0,0.0,1.8680816008628651,stabilize,85.0,2.0,0.0,0.0,-2.0,0.13191839913713488,0.0,0,0
1761121321.3416152,27.365954875946045,0.0,0.0,1.8671107542757623,0.0,0.0,0.01616302315041454,0.0,0.0,0.0,0.8520004098643098,0.0,0.0,0.0,0.0,0.0,1.8671107542757623,stabilize,85.0,2.0,0.0,0.0,-2.0,0.13288924572423766,0.0,0,0
1761121321.444493,27.46883273124695,0.0,0.0,1.8652833919732004,0.0,0.0,0.007789536435765694,0.0,0.0,0.0,0.8520004098643098,0.0,0.0,0.0,0.0,0.0,1.8652833919732004,stabilize,85.0,2.0,0.0,0.0,-2.0,0.13471660802679963,0.0,0,0
1761121321.5501595,27.574499130249023,0.0,0.0,1.8632323177523569,0.0,0.0,0.015412642837854491,0.0,0.0,0.0,0.8520004098643098,0.0,0.0,0.0,0.0,0.0,1.8632323177523569,stabilize,85.0,2.0,0.0,0.0,-2.0,0.13676768224764313,0.0,0,0
1761121321.6537797,27.67811942100525,0.0,0.0,1.8615557793775968,0.0,0.0,0.015318202127975099,0.0,0.0,0.0,0.8520004098643098,0.0,0.0,0.0,0.0,0.0,1.8615557793775968,stabilize,85.0,2.0,0.0,0.0,-2.0,0.13844422062240325,0.0,0,0
1761121321.7577682,27.782107830047607,0.0,0.0,1.8599563576686569,0.0,0.0,0.015470910272471904,0.0,0.0,0.0,0.8520004098643098,0.0,0.0,0.0,0.0,0.0,1.8599563576686569,stabilize,85.0,2.0,0.0,0.0,-2.0,0.14004364233134314,0.0,0,0
1761121321.862165,27.886504650115967,0.0,0.0,1.85890223922374,0.0,0.0,0.025110837447259594,0.0,0.0,0.0,0.8520004098643098,0.0,0.0,0.0,0.0,0.0,1.85890223922374,stabilize,85.0,2.0,0.0,0.0,-2.0,0.14109776077626002,0.0,0,0
1761121321.9666846,27.991024255752563,0.0,0.0,1.8585321645676207,0.0,0.0,0.03175084711911893,0.0,0.0,0.0,0.8520004098643098,0.0,0.0,0.0,0.0,0.0,1.8585321645676207,stabilize,85.0,2.0,0.0,0.0,-2.0,0.14146783543237929,0.0,0,0
1761121322.0711756,28.095515251159668,0.0,0.0,1.8574952119152768,0.0,0.0,0.016076986072018747,0.0,0.0,0.0,0.8520004098643098,0.0,0.0,0.0,0.0,0.0,1.8574952119152768,stabilize,85.0,2.0,0.0,0.0,-2.0,0.14250478808472322,0.0,0,0
1761121322.1800337,28.204373359680176,0.0,0.0,1.858215505089256,0.0,0.0,0.04061517228592258,0.0,0.0,0.0,0.8520004098643098,0.0,0.0,0.0,0.0,0.0,1.858215505089256,stabilize,85.0,2.0,0.0,0.0,-2.0,0.14178449491074407,0.0,0,0
1761121322.2827685,28.307108163833618,0.0,0.0,1.8591088779191998,0.0,0.0,0.0379320889464426,0.0,0.0,0.0,0.8520004098643098,0.0,0.0,0.0,0.0,0.0,1.8591088779191998,stabilize,85.0,2.0,0.0,0.0,-2.0,0.14089112208080024,0.0,0,0
1761121322.384781,28.409120559692383,0.0,0.0,1.8597074440648342,0.0,0.0,0.036578723808968865,0.0,0.0,0.0,0.8520004098643098,0.0,0.0,0.0,0.0,0.0,1.8597074440648342,stabilize,85.0,2.0,0.0,0.0,-2.0,0.14029255593516576,0.0,0,0
1761121322.4893947,28.513734340667725,0.0,0.0,1.8603088291545167,0.0,0.0,0.03444741595188841,0.0,0.0,0.0,0.8520004098643098,0.0,0.0,0.0,0.0,0.0,1.8603088291545167,stabilize,85.0,2.0,0.0,0.0,-2.0,0.13969117084548333,0.0,0,0
1761121322.5932138,28.61755347251892,0.0,0.0,1.860086799095114,0.0,0.0,0.03230154300347035,0.0,0.0,0.0,0.8520004098643098,0.0,0.0,0.0,0.0,0.0,1.860086799095114,stabilize,85.0,2.0,0.0,0.0,-2.0,0.13991320090488601,0.0,0,0
1761121322.6954198,28.719759464263916,0.0,0.0,1.8598472528717795,0.0,0.0,0.025672371940627846,0.0,0.0,0.0,0.8520004098643098,0.0,0.0,0.0,0.0,0.0,1.8598472528717795,stabilize,85.0,2.0,0.0,0.0,-2.0,0.14015274712822046,0.0,0,0
1761121322.7992785,28.823618173599243,0.0,0.0,1.8589012594032057,0.0,0.0,0.01710390176540154,0.0,0.0,0.0,0.8520004098643098,0.0,0.0,0.0,0.0,0.0,1.8589012594032057,stabilize,85.0,2.0,0.0,0.0,-2.0,0.14109874059679428,0.0,0,0
1761121322.9075708,28.931910514831543,0.0,0.0,1.857392542604918,0.0,0.0,0.03701424199741106,0.0,0.0,0.0,0.8520004098643098,0.0,0.0,0.0,0.0,0.0,1.857392542604918,stabilize,85.0,2.0,0.0,0.0,-2.0,0.14260745739508196,0.0,0,0
1761121323.011601,29.035940647125244,0.0,0.0,1.8577446800302104,0.0,0.0,0.02762475184520024,0.0,0.0,0.0,0.8520004098643098,0.0,0.0,0.0,0.0,0.0,1.8577446800302104,stabilize,85.0,2.0,0.0,0.0,-2.0,0.14225531996978957,0.0,0,0
1761121323.1147432,29.13908290863037,0.0,0.0,1.8565848545910864,0.0,0.0,0.016428486968351058,0.0,0.0,0.0,0.8520004098643098,0.0,0.0,0.0,0.0,0.0,1.8565848545910864,stabilize,85.0,2.0,0.0,0.0,-2.0,0.14341514540891365,0.0,0,0
1761121323.220623,29.244962692260742,0.0,0.0,1.8548602431076024,0.0,0.0,0.012901114311421373,0.0,0.0,0.0,0.8520004098643098,0.0,0.0,0.0,0.0,0.0,1.8548602431076024,stabilize,85.0,2.0,0.0,0.0,-2.0,0.14513975689239755,0.0,0,0
1761121323.3229442,29.347283840179443,0.0,0.0,1.8530778329634723,0.0,0.0,0.011579963274937037,0.0,0.0,0.0,0.8520004098643098,0.0,0.0,0.0,0.0,0.0,1.8530778329634723,stabilize,85.0,2.0,0.0,0.0,-2.0,0.14692216703652772,0.0,0,0
1761121323.4264905,29.450830221176147,0.0,0.0,1.8514273861612176,0.0,0.0,0.014470401731091986,0.0,0.0,0.0,0.8520004098643098,0.0,0.0,0.0,0.0,0.0,1.8514273861612176,stabilize,85.0,2.0,0.0,0.0,-2.0,0.1485726138387824,0.0,0,0
1761121323.5313537,29.55569338798523,0.0,0.0,1.8499555131925438,0.0,0.0,0.02072787918320792,0.0,0.0,0.0,0.8520004098643098,0.0,0.0,0.0,0.0,0.0,1.8499555131925438,stabilize,85.0,2.0,0.0,0.0,-2.0,0.1500444868074562,0.0,0,0
1761121323.6390667,29.663406372070312,0.0,0.0,1.848233072739844,0.0,0.0,0.02617911882312822,0.0,0.0,0.0,0.8520004098643098,0.0,0.0,0.0,0.0,0.0,1.848233072739844,stabilize,85.0,2.0,0.0,0.0,-2.0,0.15176692726015606,0.0,0,0
1761121323.7433648,29.767704486846924,0.0,0.0,1.8473822431184224,0.0,0.0,0.02397225105704858,0.0,0.0,0.0,0.8520004098643098,0.0,0.0,0.0,0.0,0.0,1.8473822431184224,stabilize,85.0,2.0,0.0,0.0,-2.0,0.15261775688157764,0.0,0,0
1761121323.8470225,29.87136220932007,0.0,0.0,1.846383510058579,0.0,0.0,0.02613441272237066,0.0,0.0,0.0,0.8520004098643098,0.0,0.0,0.0,0.0,0.0,1.846383510058579,stabilize,85.0,2.0,0.0,0.0,-2.0,0.15361648994142096,0.0,0,0
1761121323.9518006,29.97614026069641,0.0,0.0,1.8451516283577136,0.0,0.0,0.015442424248330498,0.0,0.0,0.0,0.8520004098643098,0.0,0.0,0.0,0.0,0.0,1.8451516283577136,stabilize,85.0,2.0,0.0,0.0,-2.0,0.15484837164228638,0.0,0,0
1761121324.0559063,30.080245971679688,0.0,0.0,1.8430206437305672,0.0,0.0,0.0089210769197074,0.0,0.0,0.0,0.8520004098643098,0.0,0.0,0.0,0.0,0.0,1.8430206437305672,stabilize,85.0,2.0,0.0,0.0,-2.0,0.15697935626943282,0.0,0,0
1761121324.1609755,30.185315132141113,0.0,0.0,1.840610714808039,0.0,0.0,0.00413441243034892,0.0,0.0,0.0,0.8520004098643098,0.0,0.0,0.0,0.0,0.0,1.840610714808039,stabilize,85.0,2.0,0.0,0.0,-2.0,0.15938928519196094,0.0,0,0
1761121324.2653759,30.28971552848816,0.0,0.0,1.8372293569618494,0.0,0.0,-0.00017151727365688485,0.0,0.0,0.0,0.8520004098643098,0.0,0.0,0.0,0.0,0.0,1.8372293569618494,stabilize,85.0,2.0,0.0,0.0,-2.0,0.1627706430381506,0.0,0,0
1761121324.3705528,30.39489245414734,0.0,0.0,1.8337282447244823,0.0,0.0,0.0021471495208793684,0.0,0.0,0.0,0.8520004098643098,0.0,0.0,0.0,0.0,0.0,1.8337282447244823,stabilize,85.0,2.0,0.0,0.0,-2.0,0.16627175527551774,0.0,0,0
1761121324.475041,30.499380588531494,0.0,0.0,1.8301009816717442,0.0,0.0,-0.00477634288898196,0.0,0.0,0.0,0.8520004098643098,0.0,0.0,0.0,0.0,0.0,1.8301009816717442,stabilize,85.0,2.0,0.0,0.0,-2.0,0.16989901832825582,0.0,0,0
1761121324.5794084,30.603748083114624,0.0,0.0,1.8260133090135267,0.0,0.0,-0.014488890408902812,0.0,0.0,0.0,0.8520004098643098,0.0,0.0,0.0,0.0,0.0,1.8260133090135267,stabilize,85.0,2.0,0.0,0.0,-2.0,0.17398669098647335,0.0,0,0
1761121324.684073,30.708412647247314,0.0,0.0,1.822431859701903,0.0,0.0,0.005738005445737625,0.0,0.0,0.0,0.8520004098643098,0.0,0.0,0.0,0.0,0.0,1.822431859701903,stabilize,85.0,2.0,0.0,0.0,-2.0,0.1775681402980971,0.0,0,0
1761121324.789021,30.813360691070557,0.0,0.0,1.8197475572101092,0.0,0.0,0.010816514519998974,0.0,0.0,0.0,0.8520004098643098,0.0,0.0,0.0,0.0,0.0,1.8197475572101092,stabilize,85.0,2.0,0.0,0.0,-2.0,0.18025244278989083,0.0,0,0
1761121324.8942568,30.918596506118774,0.0,0.0,1.8180079713353723,0.0,0.0,0.02261567536659638,0.0,0.0,0.0,0.8520004098643098,0.0,0.0,0.0,0.0,0.0,1.8180079713353723,stabilize,85.0,2.0,0.0,0.0,-2.0,0.18199202866462771,0.0,0,0
1761121324.9969199,31.021259546279907,0.0,0.0,1.8167297776736016,0.0,0.0,0.015888819399884804,0.0,0.0,0.0,0.8520004098643098,0.0,0.0,0.0,0.0,0.0,1.8167297776736016,stabilize,85.0,2.0,0.0,0.0,-2.0,0.18327022232639845,0.0,0,0
1761121325.1076338,31.13197350502014,0.0,0.0,1.8149523042800861,0.0,0.0,0.040305634953620585,0.0,0.0,0.0,0.8520004098643098,0.0,0.0,0.0,0.0,0.0,1.8149523042800861,stabilize,85.0,2.0,0.0,0.0,-2.0,0.18504769571991386,0.0,0,0
1761121325.2110221,31.2353618144989,0.0,0.0,1.8157411170526674,0.0,0.0,0.03847552408271876,0.0,0.0,0.0,0.8520004098643098,0.0,0.0,0.0,0.0,0.0,1.8157411170526674,stabilize,85.0,2.0,0.0,0.0,-2.0,0.18425888294733261,0.0,0,0
1761121325.3151844,31.339524030685425,0.0,0.0,1.8159889927948742,0.0,0.0,0.031100010932920003,0.0,0.0,0.0,0.8520004098643098,0.0,0.0,0.0,0.0,0.0,1.8159889927948742,stabilize,85.0,2.0,0.0,0.0,-2.0,0.18401100720512575,0.0,0,0
1761121325.419867,31.444206714630127,0.0,0.0,1.8156577758909491,0.0,0.0,0.03185111281076763,0.0,0.0,0.0,0.8520004098643098,0.0,0.0,0.0,0.0,0.0,1.8156577758909491,stabilize,85.0,2.0,0.0,0.0,-2.0,0.18434222410905088,0.0,0,0
1761121325.5233855,31.547725200653076,0.0,0.0,1.8154400873507661,0.0,0.0,0.028351146284509944,0.0,0.0,0.0,0.8520004098643098,0.0,0.0,0.0,0.0,0.0,1.8154400873507661,stabilize,85.0,2.0,0.0,0.0,-2.0,0.18455991264923388,0.0,0,0
1761121325.628012,31.65235161781311,0.0,0.0,1.8146416519212243,0.0,0.0,0.024093239275731135,0.0,0.0,0.0,0.8520004098643098,0.0,0.0,0.0,0.0,0.0,1.8146416519212243,stabilize,85.0,2.0,0.0,0.0,-2.0,0.18535834807877571,0.0,0,0
1761121325.732832,31.757171630859375,0.0,0.0,1.813469534254414,0.0,0.0,0.024441388532580308,0.0,0.0,0.0,0.8520004098643098,0.0,0.0,0.0,0.0,0.0,1.813469534254414,stabilize,85.0,2.0,0.0,0.0,-2.0,0.18653046574558596,0.0,0,0
1761121325.8367813,31.86112093925476,0.0,0.0,1.8128106570856264,0.0,0.0,0.02394005694138055,0.0,0.0,0.0,0.8520004098643098,0.0,0.0,0.0,0.0,0.0,1.8128106570856264,stabilize,85.0,2.0,0.0,0.0,-2.0,0.1871893429143736,0.0,0,0
1761121325.9473984,31.97173810005188,0.0,0.0,1.8130294606153103,0.0,0.0,-0.01691566453021732,0.0,0.0,0.0,0.15200040986430985,0.0,0.0,0.0,0.0,0.0,1.8130294606153103,stabilize,85.0,2.0,0.0,0.0,-2.0,0.18697053938468966,0.0,0,0
1761121326.0525143,32.07685399055481,0.0,0.0,1.8148737754135462,0.0,0.0,-0.01662305203753936,0.0,0.0,0.0,0.15200040986430985,0.0,0.0,0.0,0.0,0.0,1.8148737754135462,stabilize,85.0,2.0,0.0,0.0,-2.0,0.18512622458645378,0.0,0,0
1761121326.1560233,32.180362939834595,0.0,0.0,1.8164051779857715,0.0,0.0,-0.015407486899481564,0.0,0.0,0.0,0.15200040986430985,0.0,0.0,0.0,0.0,0.0,1.8164051779857715,stabilize,85.0,2.0,0.0,0.0,-2.0,0.1835948220142285,0.0,0,0
1761121326.2610908,32.28543043136597,0.0,0.0,1.8174083786854824,0.0,0.0,-0.022710001571876547,0.0,0.0,0.0,0.15200040986430985,0.0,0.0,0.0,0.0,0.0,1.8174083786854824,stabilize,85.0,2.0,0.0,0.0,-2.0,0.18259162131451756,0.0,0,0
1761121326.3640263,32.38836598396301,0.0,0.0,1.8181390187114028,0.0,0.0,-0.025931920477306976,0.0,0.0,0.0,0.15200040986430985,0.0,0.0,0.0,0.0,0.0,1.8181390187114028,stabilize,85.0,2.0,0.0,0.0,-2.0,0.18186098128859718,0.0,0,0
1761121326.4669988,32.49133849143982,0.0,0.0,1.8183514717522935,0.0,0.0,-0.033431465375838805,0.0,0.0,0.0,0.15200040986430985,0.0,0.0,0.0,0.0,0.0,1.8183514717522935,stabilize,85.0,2.0,0.0,0.0,-2.0,0.1816485282477065,0.0,0,0
1761121326.5708725,32.59521222114563,0.0,0.0,1.8177483524517268,0.0,0.0,-0.041287573364253406,0.0,0.0,0.0,0.15200040986430985,0.0,0.0,0.0,0.0,0.0,1.8177483524517268,stabilize,85.0,2.0,0.0,0.0,-2.0,0.18225164754827317,0.0,0,0
1761121326.6760685,32.70040822029114,0.0,0.0,1.8180392334365982,0.0,0.0,-0.022627466944991056,0.0,0.0,0.0,0.15200040986430985,0.0,0.0,0.0,0.0,0.0,1.8180392334365982,stabilize,85.0,2.0,0.0,0.0,-2.0,0.18196076656340177,0.0,0,0
1761121326.7791584,32.80349802970886,0.0,0.0,1.818911333914306,0.0,0.0,-0.021139995963914027,0.0,0.0,0.0,0.15200040986430985,0.0,0.0,0.0,0.0,0.0,1.818911333914306,stabilize,85.0,2.0,0.0,0.0,-2.0,0.18108866608569407,0.0,0,0
1761121326.882446,32.90678572654724,0.0,0.0,1.8202890799628249,0.0,0.0,-0.019239440577413502,0.0,0.0,0.0,0.15200040986430985,0.0,0.0,0.0,0.0,0.0,1.8202890799628249,stabilize,85.0,2.0,0.0,0.0,-2.0,0.17971092003717515,0.0,0,0
1761121326.9862702,33.0106098651886,0.0,0.0,1.82071399508081,0.0,0.0,-0.032403512219052376,0.0,0.0,0.0,0.15200040986430985,0.0,0.0,0.0,0.0,0.0,1.82071399508081,stabilize,85.0,2.0,0.0,0.0,-2.0,0.17928600491919,0.0,0,0
1761121327.0899138,33.114253520965576,0.0,0.0,1.820568080683407,0.0,0.0,-0.03386575983148127,0.0,0.0,0.0,0.15200040986430985,0.0,0.0,0.0,0.0,0.0,1.820568080683407,stabilize,85.0,2.0,0.0,0.0,-2.0,0.17943191931659297,0.0,0,0
1761121327.193815,33.21815466880798,0.0,0.0,1.8205753751920635,0.0,0.0,-0.03321637028750496,0.0,0.0,0.0,0.15200040986430985,0.0,0.0,0.0,0.0,0.0,1.8205753751920635,stabilize,85.0,2.0,0.0,0.0,-2.0,0.17942462480793653,0.0,0,0
1761121327.2975965,33.32193613052368,0.0,0.0,1.8196921895158689,0.0,0.0,-0.04575404700192458,0.0,0.0,0.0,0.15200040986430985,0.0,0.0,0.0,0.0,0.0,1.8196921895158689,stabilize,85.0,2.0,0.0,0.0,-2.0,0.18030781048413114,0.0,0,0
1761121327.402934,33.427273750305176,0.0,0.0,1.818333780548804,0.0,0.0,-0.0455204747569548,0.0,0.0,0.0,0.15200040986430985,0.0,0.0,0.0,0.0,0.0,1.818333780548804,stabilize,85.0,2.0,0.0,0.0,-2.0,0.181666219451196,0.0,0,0
1761121327.5033312,33.52767086029053,0.0,0.0,1.8167531100440144,0.0,0.0,-0.06015416180919664,0.0,0.0,0.0,0.15200040986430985,0.0,0.0,0.0,0.0,0.0,1.8167531100440144,stabilize,85.0,2.0,0.0,0.0,-2.0,0.1832468899559856,0.0,0,0
1761121327.6066844,33.63102412223816,0.0,0.0,1.8139030868640014,0.0,0.0,-0.06004557378063851,0.0,0.0,0.0,0.15200040986430985,0.0,0.0,0.0,0.0,0.0,1.8139030868640014,stabilize,85.0,2.0,0.0,0.0,-2.0,0.18609691313599863,0.0,0,0
1761121327.7140474,33.73838710784912,0.0,0.0,1.8116888829852986,0.0,0.0,-0.047788280169972566,0.0,0.0,0.0,0.15200040986430985,0.0,0.0,0.0,0.0,0.0,1.8116888829852986,stabilize,85.0,2.0,0.0,0.0,-2.0,0.18831111701470138,0.0,0,0
1761121327.817635,33.84197473526001,0.0,0.0,1.8100055852354568,0.0,0.0,-0.04759294080031014,0.0,0.0,0.0,0.15200040986430985,0.0,0.0,0.0,0.0,0.0,1.8100055852354568,stabilize,85.0,2.0,0.0,0.0,-2.0,0.18999441476454315,0.0,0,0
1761121327.9208384,33.94517803192139,0.0,0.0,1.8078505753152734,0.0,0.0,-0.05283455475663677,0.0,0.0,0.0,0.15200040986430985,0.0,0.0,0.0,0.0,0.0,1.8078505753152734,stabilize,85.0,2.0,0.0,0.0,-2.0,0.19214942468472662,0.0,0,0
1761121328.0236278,34.04796743392944,0.0,0.0,1.8053662277309381,0.0,0.0,-0.06070658834293482,0.0,0.0,0.0,0.15200040986430985,0.0,0.0,0.0,0.0,0.0,1.8053662277309381,stabilize,85.0,2.0,0.0,0.0,-2.0,0.19463377226906187,0.0,0,0
1761121328.1315753,34.15591502189636,0.0,0.0,1.8030307622395514,0.0,0.0,-0.046295248768355814,0.0,0.0,0.0,0.15200040986430985,0.0,0.0,0.0,0.0,0.0,1.8030307622395514,stabilize,85.0,2.0,0.0,0.0,-2.0,0.1969692377604486,0.0,0,0
1761121328.2351437,34.259483337402344,0.0,0.0,1.8013491414535523,0.0,0.0,-0.04614740920426551,0.0,0.0,0.0,0.15200040986430985,0.0,0.0,0.0,0.0,0.0,1.8013491414535523,stabilize,85.0,2.0,0.0,0.0,-2.0,0.1986508585464477,0.0,0,0
1761121328.339145,34.363484621047974,0.0,0.0,1.7992963364896872,0.0,0.0,-0.058929311492779704,0.0,0.0,0.0,0.15200040986430985,0.0,0.0,0.0,0.0,0.0,1.7992963364896872,stabilize,85.0,2.0,0.0,0.0,-2.0,0.20070366351031277,0.0,0,0
