timestamp,simulation_time,position_x,position_y,position_z,velocity_x,velocity_y,velocity_z,attitude_roll,attitude_pitch,attitude_yaw,control_throttle,control_roll,control_pitch,control_yaw,estimated_position_x,estimated_position_y,estimated_position_z,flight_mode,battery_level,setpoint_altitude,setpoint_position_x,setpoint_position_y,setpoint_position_z,position_error,attitude_error,waypoint_index,mission_complete
1761250734.8818643,0.10780525207519531,0.0,0.0,-0.0,0.0,0.0,-0.0,0.0,0.0,0.0,0.0,0.0,0.0,0.0,0.0,0.0,-0.0,manual,85.0,0.0,0.0,0.0,0.0,0.0,0.0,0,0
1761250734.9865856,0.21252655982971191,0.0,0.0,-0.0,0.0,0.0,-0.0,0.0,0.0,0.0,0.0,0.0,0.0,0.0,0.0,0.0,-0.0,manual,85.0,0.0,0.0,0.0,0.0,0.0,0.0,0,0
1761250735.0906777,0.3166186809539795,0.0,0.0,-0.0,0.0,0.0,-0.0,0.0,0.0,0.0,0.0,0.0,0.0,0.0,0.0,0.0,-0.0,manual,85.0,0.0,0.0,0.0,0.0,0.0,0.0,0,0
1761250735.1952493,0.4211902618408203,0.0,0.0,-0.0,0.0,0.0,-0.0,0.0,0.0,0.0,0.0,0.0,0.0,0.0,0.0,0.0,-0.0,manual,85.0,0.0,0.0,0.0,0.0,0.0,0.0,0,0
1761250735.2986698,0.5246107578277588,0.0,0.0,-0.0,0.0,0.0,-0.0,0.0,0.0,0.0,0.0,0.0,0.0,0.0,0.0,0.0,-0.0,manual,85.0,0.0,0.0,0.0,0.0,0.0,0.0,0,0
1761250735.4034467,0.629387617111206,0.0,0.0,-0.0,0.0,0.0,-0.0,0.0,0.0,0.0,0.0,0.0,0.0,0.0,0.0,0.0,-0.0,manual,85.0,0.0,0.0,0.0,0.0,0.0,0.0,0,0
1761250735.5085216,0.7344624996185303,0.0,0.0,-0.0,0.0,0.0,-0.0,0.0,0.0,0.0,0.0,0.0,0.0,0.0,0.0,0.0,-0.0,manual,85.0,0.0,0.0,0.0,0.0,0.0,0.0,0,0
1761250735.6115875,0.8375284671783447,0.0,0.0,-0.0,0.0,0.0,-0.0,0.0,0.0,0.0,0.0,0.0,0.0,0.0,0.0,0.0,-0.0,manual,85.0,0.0,0.0,0.0,0.0,0.0,0.0,0,0
1761250735.717788,0.9437289237976074,0.0,0.0,-0.0,0.0,0.0,-0.0,0.0,0.0,0.0,0.0,0.0,0.0,0.0,0.0,0.0,-0.0,manual,85.0,0.0,0.0,0.0,0.0,0.0,0.0,0,0
1761250735.8201628,1.0461037158966064,0.0,0.0,-0.0,0.0,0.0,-0.0,0.0,0.0,0.0,0.0,0.0,0.0,0.0,0.0,0.0,-0.0,manual,85.0,0.0,0.0,0.0,0.0,0.0,0.0,0,0
1761250735.9252536,1.1511945724487305,0.0,0.0,-0.0,0.0,0.0,-0.0,0.0,0.0,0.0,0.0,0.0,0.0,0.0,0.0,0.0,-0.0,manual,85.0,0.0,0.0,0.0,0.0,0.0,0.0,0,0
1761250736.029134,1.2550749778747559,0.0,0.0,0.003489518350836266,0.0,0.0,0.32422645006120365,0.0,0.0,0.0,1.0,0.0,0.0,0.0,0.0,0.0,0.003489518350836266,stabilize,85.0,2.0,0.0,0.0,-2.0,1.9965104816491637,0.0,0,0
1761250736.1328247,1.3587656021118164,0.0,0.0,0.10430192083821509,0.0,0.0,1.238412381096899,0.0,0.0,0.0,0.35,0.0,0.0,0.0,0.0,0.0,0.10430192083821509,stabilize,85.0,2.0,0.0,0.0,-2.0,1.895698079161785,0.0,0,0
1761250736.2376485,1.4635894298553467,0.0,0.0,0.23957090243484838,0.0,0.0,1.2975670951179838,0.0,0.0,0.0,0.35,0.0,0.0,0.0,0.0,0.0,0.23957090243484838,stabilize,85.0,2.0,0.0,0.0,-2.0,1.7604290975651515,0.0,0,0
1761250736.3428013,1.568742275238037,0.0,0.0,0.3765906896472407,0.0,0.0,1.299905749389832,0.0,0.0,0.0,0.35,0.0,0.0,0.0,0.0,0.0,0.3765906896472407,stabilize,85.0,2.0,0.0,0.0,-2.0,1.6234093103527594,0.0,0,0
1761250736.4586291,1.684570074081421,0.0,0.0,0.5224414456627385,0.0,0.0,1.1613653968243016,0.0,0.0,0.0,0.35,0.0,0.0,0.0,0.0,0.0,0.5224414456627385,stabilize,85.0,2.0,0.0,0.0,-2.0,1.4775585543372616,0.0,0,0
1761250736.5650759,1.7910168170928955,0.0,0.0,0.6550721588509707,0.0,0.0,1.2131853868572604,0.0,0.0,0.0,0.5267242861239279,0.0,0.0,0.0,0.0,0.0,0.6550721588509707,stabilize,85.0,2.0,0.0,0.0,-2.0,1.3449278411490293,0.0,0,0
1761250736.67034,1.8962810039520264,0.0,0.0,0.7792517772926054,0.0,0.0,1.1451816746730221,0.0,0.0,0.0,0.35,0.0,0.0,0.0,0.0,0.0,0.7792517772926054,stabilize,85.0,2.0,0.0,0.0,-2.0,1.2207482227073947,0.0,0,0
1761250736.7788062,2.004747152328491,0.0,0.0,0.9008148283827142,0.0,0.0,1.0834540555745562,0.0,0.0,0.0,0.35,0.0,0.0,0.0,0.0,0.0,0.9008148283827142,stabilize,85.0,2.0,0.0,0.0,-2.0,1.0991851716172858,0.0,0,0
1761250736.88286,2.1088008880615234,0.0,0.0,1.010457505257339,0.0,0.0,1.0219555572548835,0.0,0.0,0.0,0.35,0.0,0.0,0.0,0.0,0.0,1.010457505257339,stabilize,85.0,2.0,0.0,0.0,-2.0,0.989542494742661,0.0,0,0
1761250736.9882615,2.214202404022217,0.0,0.0,1.1144431709508689,0.0,0.0,0.9391896527412962,0.0,0.0,0.0,0.35,0.0,0.0,0.0,0.0,0.0,1.1144431709508689,stabilize,85.0,2.0,0.0,0.0,-2.0,0.8855568290491311,0.0,0,0
1761250737.0946336,2.3205745220184326,0.0,0.0,1.2117277037839993,0.0,0.0,0.8749060432951061,0.0,0.0,0.0,0.41856038703713083,0.0,0.0,0.0,0.0,0.0,1.2117277037839993,stabilize,85.0,2.0,0.0,0.0,-2.0,0.7882722962160007,0.0,0,0
1761250737.201036,2.4269769191741943,0.0,0.0,1.3015151248584056,0.0,0.0,0.8311564358787259,0.0,0.0,0.0,0.5609647681192057,0.0,0.0,0.0,0.0,0.0,1.3015151248584056,stabilize,85.0,2.0,0.0,0.0,-2.0,0.6984848751415944,0.0,0,0
1761250737.3064594,2.532400369644165,0.0,0.0,1.38375295209101,0.0,0.0,0.7325993291272265,0.0,0.0,0.0,0.35,0.0,0.0,0.0,0.0,0.0,1.38375295209101,stabilize,85.0,2.0,0.0,0.0,-2.0,0.6162470479089901,0.0,0,0
1761250737.4108858,2.636826753616333,0.0,0.0,1.4582191088804297,0.0,0.0,0.668224765049443,0.0,0.0,0.0,0.35,0.0,0.0,0.0,0.0,0.0,1.4582191088804297,stabilize,85.0,2.0,0.0,0.0,-2.0,0.5417808911195703,0.0,0,0
1761250737.5246341,2.750575065612793,0.0,0.0,1.531294677566807,0.0,0.0,0.5896640566143467,0.0,0.0,0.0,0.35819638055896497,0.0,0.0,0.0,0.0,0.0,1.531294677566807,stabilize,85.0,2.0,0.0,0.0,-2.0,0.46870532243319296,0.0,0,0
1761250737.629598,2.855538845062256,0.0,0.0,1.595047175513968,0.0,0.0,0.5671851981408188,0.0,0.0,0.0,0.4647159061757764,0.0,0.0,0.0,0.0,0.0,1.595047175513968,stabilize,85.0,2.0,0.0,0.0,-2.0,0.4049528244860321,0.0,0,0
1761250737.735262,2.96120285987854,0.0,0.0,1.651921327261326,0.0,0.0,0.5014614430596424,0.0,0.0,0.0,0.35,0.0,0.0,0.0,0.0,0.0,1.651921327261326,stabilize,85.0,2.0,0.0,0.0,-2.0,0.348078672738674,0.0,0,0
1761250737.8443112,3.0702521800994873,0.0,0.0,1.7044837540710818,0.0,0.0,0.4466639768872674,0.0,0.0,0.0,0.35,0.0,0.0,0.0,0.0,0.0,1.7044837540710818,stabilize,85.0,2.0,0.0,0.0,-2.0,0.29551624592891823,0.0,0,0
1761250737.948749,3.174690008163452,0.0,0.0,1.7494835232135726,0.0,0.0,0.41616728400929875,0.0,0.0,0.0,0.35,0.0,0.0,0.0,0.0,0.0,1.7494835232135726,stabilize,85.0,2.0,0.0,0.0,-2.0,0.2505164767864274,0.0,0,0
1761250738.053856,3.279796838760376,0.0,0.0,1.7898196496798557,0.0,0.0,0.3480340794665061,0.0,0.0,0.0,0.35,0.0,0.0,0.0,0.0,0.0,1.7898196496798557,stabilize,85.0,2.0,0.0,0.0,-2.0,0.21018035032014426,0.0,0,0
1761250738.1586027,3.3845436573028564,0.0,0.0,1.8265956169107886,0.0,0.0,0.31779410823446036,0.0,0.0,0.0,0.35,0.0,0.0,0.0,0.0,0.0,1.8265956169107886,stabilize,85.0,2.0,0.0,0.0,-2.0,0.17340438308921136,0.0,0,0
1761250738.268369,3.494309902191162,0.0,0.0,1.8608802766189263,0.0,0.0,0.31110106852389735,0.0,0.0,0.0,0.564765741257669,0.0,0.0,0.0,0.0,0.0,1.8608802766189263,stabilize,85.0,2.0,0.0,0.0,-2.0,0.1391197233810737,0.0,0,0
1761250738.3726237,3.598564624786377,0.0,0.0,1.8903302654887049,0.0,0.0,0.26258162175289324,0.0,0.0,0.0,0.35,0.0,0.0,0.0,0.0,0.0,1.8903302654887049,stabilize,85.0,2.0,0.0,0.0,-2.0,0.10966973451129514,0.0,0,0
1761250738.477228,3.7031688690185547,0.0,0.0,1.9171701088196957,0.0,0.0,0.2571173641396348,0.0,0.0,0.0,0.35,0.0,0.0,0.0,0.0,0.0,1.9171701088196957,stabilize,85.0,2.0,0.0,0.0,-2.0,0.08282989118030426,0.0,0,0
1761250738.5817997,3.8077406883239746,0.0,0.0,1.9410343743231158,0.0,0.0,0.2020834701676644,0.0,0.0,0.0,0.35,0.0,0.0,0.0,0.0,0.0,1.9410343743231158,stabilize,85.0,2.0,0.0,0.0,-2.0,0.05896562567688424,0.0,0,0
1761250738.6870277,3.912968635559082,0.0,0.0,1.9620857661035933,0.0,0.0,0.18781357241409108,0.0,0.0,0.0,0.46206147825483346,0.0,0.0,0.0,0.0,0.0,1.9620857661035933,stabilize,85.0,2.0,0.0,0.0,-2.0,0.03791423389640669,0.0,0,0
1761250738.7922575,4.018198490142822,0.0,0.0,1.9814687791608465,0.0,0.0,0.1600563448228767,0.0,0.0,0.0,0.35,0.0,0.0,0.0,0.0,0.0,1.9814687791608465,stabilize,85.0,2.0,0.0,0.0,-2.0,0.018531220839153484,0.0,0,0
1761250738.8964422,4.122383117675781,0.0,0.0,1.9979771695308548,0.0,0.0,0.1439210357065556,0.0,0.0,0.0,0.35,0.0,0.0,0.0,0.0,0.0,1.9979771695308548,stabilize,85.0,2.0,0.0,0.0,-2.0,0.002022830469145198,0.0,0,0
1761250739.0012333,4.227174282073975,0.0,0.0,2.013214030872587,0.0,0.0,0.14188298691147241,0.0,0.0,0.0,0.35,0.0,0.0,0.0,0.0,0.0,2.013214030872587,stabilize,85.0,2.0,0.0,0.0,-2.0,0.013214030872587212,0.0,0,0
1761250739.1108997,4.336840629577637,0.0,0.0,2.027418179047004,0.0,0.0,0.1410799077582764,0.0,0.0,0.0,0.35,0.0,0.0,0.0,0.0,0.0,2.027418179047004,stabilize,85.0,2.0,0.0,0.0,-2.0,0.027418179047003832,0.0,0,0
1761250739.2148314,4.440772294998169,0.0,0.0,2.039083779034611,0.0,0.0,0.08639912747895538,0.0,0.0,0.0,0.3773964756448558,0.0,0.0,0.0,0.0,0.0,2.039083779034611,stabilize,85.0,2.0,0.0,0.0,-2.0,0.0390837790346108,0.0,0,0
1761250739.3201652,4.5461061000823975,0.0,0.0,2.048874060548098,0.0,0.0,0.09155627516323957,0.0,0.0,0.0,0.5184052810819305,0.0,0.0,0.0,0.0,0.0,2.048874060548098,stabilize,85.0,2.0,0.0,0.0,-2.0,0.048874060548098175,0.0,0,0
1761250739.4250846,4.6510255336761475,0.0,0.0,2.057133598195269,0.0,0.0,0.1088063253350094,0.0,0.0,0.0,0.6632676935250605,0.0,0.0,0.0,0.0,0.0,2.057133598195269,stabilize,85.0,2.0,0.0,0.0,-2.0,0.0571335981952692,0.0,0,0
1761250739.5316596,4.757600545883179,0.0,0.0,2.065139396041918,0.0,0.0,0.0693031624668784,0.0,0.0,0.0,0.487246876164019,0.0,0.0,0.0,0.0,0.0,2.065139396041918,stabilize,85.0,2.0,0.0,0.0,-2.0,0.06513939604191821,0.0,0,0
1761250739.6360557,4.861996650695801,0.0,0.0,2.0719770589484128,0.0,0.0,0.07915712583292953,0.0,0.0,0.0,0.35,0.0,0.0,0.0,0.0,0.0,2.0719770589484128,stabilize,85.0,2.0,0.0,0.0,-2.0,0.07197705894841278,0.0,0,0
1761250739.7374828,4.963423728942871,0.0,0.0,2.0797738753742245,0.0,0.0,0.11941268395989324,0.0,0.0,0.0,0.35,0.0,0.0,0.0,0.0,0.0,2.0797738753742245,stabilize,85.0,2.0,0.0,0.0,-2.0,0.07977387537422453,0.0,0,0
1761250739.840909,5.066849946975708,0.0,0.0,2.087437476054373,0.0,0.0,0.05220340097932849,0.0,0.0,0.0,0.4148812054110941,0.0,0.0,0.0,0.0,0.0,2.087437476054373,stabilize,85.0,2.0,0.0,0.0,-2.0,0.0874374760543728,0.0,0,0
1761250739.9466915,5.172632455825806,0.0,0.0,2.093222967191315,0.0,0.0,0.030842137187470007,0.0,0.0,0.0,0.35,0.0,0.0,0.0,0.0,0.0,2.093222967191315,stabilize,85.0,2.0,0.0,0.0,-2.0,0.09322296719131495,0.0,0,0
1761250740.0522926,5.278233528137207,0.0,0.0,2.0981477545557614,0.0,0.0,0.024655501524332296,0.0,0.0,0.0,0.40150508795771667,0.0,0.0,0.0,0.0,0.0,2.0981477545557614,stabilize,85.0,2.0,0.0,0.0,-2.0,0.09814775455576141,0.0,0,0
1761250740.1571965,5.383137464523315,0.0,0.0,2.1014450191254768,0.0,0.0,0.0470433776850462,0.0,0.0,0.0,0.5986977587578111,0.0,0.0,0.0,0.0,0.0,2.1014450191254768,stabilize,85.0,2.0,0.0,0.0,-2.0,0.10144501912547677,0.0,0,0
1761250740.2616577,5.487598657608032,0.0,0.0,2.104171510517076,0.0,0.0,0.010545830755210272,0.0,0.0,0.0,0.35,0.0,0.0,0.0,0.0,0.0,2.104171510517076,stabilize,85.0,2.0,0.0,0.0,-2.0,0.10417151051707618,0.0,0,0
1761250740.3669207,5.592861652374268,0.0,0.0,2.1058982446556254,0.0,0.0,0.056417620368072255,0.0,0.0,0.0,0.6964622070320529,0.0,0.0,0.0,0.0,0.0,2.1058982446556254,stabilize,85.0,2.0,0.0,0.0,-2.0,0.10589824465562536,0.0,0,0
1761250740.4724693,5.698410272598267,0.0,0.0,2.108606073881985,0.0,0.0,0.039093138722139945,0.0,0.0,0.0,0.35,0.0,0.0,0.0,0.0,0.0,2.108606073881985,stabilize,85.0,2.0,0.0,0.0,-2.0,0.10860607388198495,0.0,0,0
1761250740.5793765,5.805317401885986,0.0,0.0,2.1107888368277115,0.0,0.0,0.004282149992372369,0.0,0.0,0.0,0.41133995001802187,0.0,0.0,0.0,0.0,0.0,2.1107888368277115,stabilize,85.0,2.0,0.0,0.0,-2.0,0.11078883682771146,0.0,0,0
1761250740.6867607,5.912701606750488,0.0,0.0,2.1125482808621334,0.0,0.0,0.05603391052030632,0.0,0.0,0.0,0.6954755567419708,0.0,0.0,0.0,0.0,0.0,2.1125482808621334,stabilize,85.0,2.0,0.0,0.0,-2.0,0.11254828086213342,0.0,0,0
1761250740.7892969,6.015237808227539,0.0,0.0,2.114097283098268,0.0,0.0,-0.01300405294883433,0.0,0.0,0.0,0.35,0.0,0.0,0.0,0.0,0.0,2.114097283098268,stabilize,85.0,2.0,0.0,0.0,-2.0,0.11409728309826805,0.0,0,0
1761250740.8945322,6.120473146438599,0.0,0.0,2.1145579543015165,0.0,0.0,-0.021321306488089546,0.0,0.0,0.0,0.35,0.0,0.0,0.0,0.0,0.0,2.1145579543015165,stabilize,85.0,2.0,0.0,0.0,-2.0,0.1145579543015165,0.0,0,0
1761250741.0004382,6.226379156112671,0.0,0.0,2.115906868338769,0.0,0.0,0.017881356141248514,0.0,0.0,0.0,0.35,0.0,0.0,0.0,0.0,0.0,2.115906868338769,stabilize,85.0,2.0,0.0,0.0,-2.0,0.11590686833876918,0.0,0,0
1761250741.1049414,6.33088231086731,0.0,0.0,2.115706842942386,0.0,0.0,-0.004739693683451337,0.0,0.0,0.0,0.47827101014881346,0.0,0.0,0.0,0.0,0.0,2.115706842942386,stabilize,85.0,2.0,0.0,0.0,-2.0,0.11570684294238598,0.0,0,0
1761250741.2099066,6.435847520828247,0.0,0.0,2.1153895765043784,0.0,0.0,0.01961578174124244,0.0,0.0,0.0,0.6168518541419911,0.0,0.0,0.0,0.0,0.0,2.1153895765043784,stabilize,85.0,2.0,0.0,0.0,-2.0,0.11538957650437842,0.0,0,0
1761250741.3122213,6.5381622314453125,0.0,0.0,2.1145230549401686,0.0,0.0,-0.023795363117836997,0.0,0.0,0.0,0.35,0.0,0.0,0.0,0.0,0.0,2.1145230549401686,stabilize,85.0,2.0,0.0,0.0,-2.0,0.11452305494016857,0.0,0,0
1761250741.4181032,6.6440441608428955,0.0,0.0,2.1129231656472096,0.0,0.0,-0.02718470573024352,0.0,0.0,0.0,0.35,0.0,0.0,0.0,0.0,0.0,2.1129231656472096,stabilize,85.0,2.0,0.0,0.0,-2.0,0.11292316564720961,0.0,0,0
1761250741.5243607,6.7503015995025635,0.0,0.0,2.111324734420519,0.0,0.0,0.0018936610722905638,0.0,0.0,0.0,0.35,0.0,0.0,0.0,0.0,0.0,2.111324734420519,stabilize,85.0,2.0,0.0,0.0,-2.0,0.11132473442051882,0.0,0,0
1761250741.6286175,6.85455846786499,0.0,0.0,2.1099184672200946,0.0,0.0,-0.021495887934925295,0.0,0.0,0.0,0.44860014431550227,0.0,0.0,0.0,0.0,0.0,2.1099184672200946,stabilize,85.0,2.0,0.0,0.0,-2.0,0.10991846722009457,0.0,0,0
1761250741.7361379,6.962078809738159,0.0,0.0,2.1090124529876375,0.0,0.0,-0.006497281551832074,0.0,0.0,0.0,0.35,0.0,0.0,0.0,0.0,0.0,2.1090124529876375,stabilize,85.0,2.0,0.0,0.0,-2.0,0.10901245298763751,0.0,0,0
1761250741.8417299,7.067670822143555,0.0,0.0,2.108495052088988,0.0,0.0,0.017126471029155783,0.0,0.0,0.0,0.35,0.0,0.0,0.0,0.0,0.0,2.108495052088988,stabilize,85.0,2.0,0.0,0.0,-2.0,0.1084950520889878,0.0,0,0
1761250741.9458663,7.171807289123535,0.0,0.0,2.108463517794272,0.0,0.0,0.01466301106361876,0.0,0.0,0.0,0.5892390014859576,0.0,0.0,0.0,0.0,0.0,2.108463517794272,stabilize,85.0,2.0,0.0,0.0,-2.0,0.10846351779427188,0.0,0,0
1761250742.0521457,7.2780866622924805,0.0,0.0,2.1080856838703426,0.0,0.0,-0.005773350273311568,0.0,0.0,0.0,0.35,0.0,0.0,0.0,0.0,0.0,2.1080856838703426,stabilize,85.0,2.0,0.0,0.0,-2.0,0.10808568387034256,0.0,0,0
1761250742.1586611,7.384602069854736,0.0,0.0,2.107138663827624,0.0,0.0,-0.007865067873236355,0.0,0.0,0.0,0.35,0.0,0.0,0.0,0.0,0.0,2.107138663827624,stabilize,85.0,2.0,0.0,0.0,-2.0,0.10713866382762394,0.0,0,0
1761250742.2644572,7.490398168563843,0.0,0.0,2.1059452722016925,0.0,0.0,-0.029727742304762196,0.0,0.0,0.0,0.35,0.0,0.0,0.0,0.0,0.0,2.1059452722016925,stabilize,85.0,2.0,0.0,0.0,-2.0,0.10594527220169248,0.0,0,0
1761250742.365217,7.591157913208008,0.0,0.0,2.104354282769293,0.0,0.0,0.006031620187176064,0.0,0.0,0.0,0.35,0.0,0.0,0.0,0.0,0.0,2.104354282769293,stabilize,85.0,2.0,0.0,0.0,-2.0,0.10435428276929315,0.0,0,0
1761250742.4723556,7.698296546936035,0.0,0.0,2.103001475246662,0.0,0.0,-0.03285761258762457,0.0,0.0,0.0,0.35,0.0,0.0,0.0,0.0,0.0,2.103001475246662,stabilize,85.0,2.0,0.0,0.0,-2.0,0.10300147524666192,0.0,0,0
1761250742.5768414,7.802782297134399,0.0,0.0,2.102482332852405,0.0,0.0,0.013244548963469726,0.0,0.0,0.0,0.6003799240621372,0.0,0.0,0.0,0.0,0.0,2.102482332852405,stabilize,85.0,2.0,0.0,0.0,-2.0,0.10248233285240493,0.0,0,0
1761250742.683379,7.909319877624512,0.0,0.0,2.1020899838834506,0.0,0.0,-0.005352580668049438,0.0,0.0,0.0,0.35,0.0,0.0,0.0,0.0,0.0,2.1020899838834506,stabilize,85.0,2.0,0.0,0.0,-2.0,0.10208998388345059,0.0,0,0
1761250742.7872941,8.013235092163086,0.0,0.0,2.1019819165135507,0.0,0.0,-0.005591131511969737,0.0,0.0,0.0,0.35,0.0,0.0,0.0,0.0,0.0,2.1019819165135507,stabilize,85.0,2.0,0.0,0.0,-2.0,0.10198191651355071,0.0,0,0
1761250742.892062,8.118002891540527,0.0,0.0,2.1035800358577803,0.0,0.0,0.017771503436176745,0.0,0.0,0.0,0.35,0.0,0.0,0.0,0.0,0.0,2.1035800358577803,stabilize,85.0,2.0,0.0,0.0,-2.0,0.1035800358577803,0.0,0,0
1761250742.9975736,8.223514556884766,0.0,0.0,2.1046182939728024,0.0,0.0,0.030277848380420396,0.0,0.0,0.0,0.6172496389670272,0.0,0.0,0.0,0.0,0.0,2.1046182939728024,stabilize,85.0,2.0,0.0,0.0,-2.0,0.10461829397280242,0.0,0,0
1761250743.1026435,8.328584432601929,0.0,0.0,2.1049428483853374,0.0,0.0,0.0010845486017551208,0.0,0.0,0.0,0.49713604603542033,0.0,0.0,0.0,0.0,0.0,2.1049428483853374,stabilize,85.0,2.0,0.0,0.0,-2.0,0.1049428483853374,0.0,0,0
1761250743.2089782,8.434919118881226,0.0,0.0,2.104660421082608,0.0,0.0,-0.02127112709749764,0.0,0.0,0.0,0.4031911702634868,0.0,0.0,0.0,0.0,0.0,2.104660421082608,stabilize,85.0,2.0,0.0,0.0,-2.0,0.10466042108260787,0.0,0,0
1761250743.316073,8.542013883590698,0.0,0.0,2.103021333962544,0.0,0.0,-0.010935472953999967,0.0,0.0,0.0,0.5143924243436087,0.0,0.0,0.0,0.0,0.0,2.103021333962544,stabilize,85.0,2.0,0.0,0.0,-2.0,0.10302133396254387,0.0,0,0
1761250743.422429,8.648370027542114,0.0,0.0,2.100960909745748,0.0,0.0,-0.025024694261984275,0.0,0.0,0.0,0.35,0.0,0.0,0.0,0.0,0.0,2.100960909745748,stabilize,85.0,2.0,0.0,0.0,-2.0,0.10096090974574778,0.0,0,0
1761250743.5278752,8.7538161277771,0.0,0.0,2.099676411636339,0.0,0.0,0.014222526408263686,0.0,0.0,0.0,0.6405985811892869,0.0,0.0,0.0,0.0,0.0,2.099676411636339,stabilize,85.0,2.0,0.0,0.0,-2.0,0.09967641163633889,0.0,0,0
1761250743.6334436,8.859384536743164,0.0,0.0,2.098297596850566,0.0,0.0,-0.007725928749333529,0.0,0.0,0.0,0.5265511449262537,0.0,0.0,0.0,0.0,0.0,2.098297596850566,stabilize,85.0,2.0,0.0,0.0,-2.0,0.09829759685056594,0.0,0,0
1761250743.7385192,8.964460134506226,0.0,0.0,2.0965685507146112,0.0,0.0,-0.025395946230897696,0.0,0.0,0.0,0.35,0.0,0.0,0.0,0.0,0.0,2.0965685507146112,stabilize,85.0,2.0,0.0,0.0,-2.0,0.09656855071461123,0.0,0,0
1761250743.8436062,9.069547176361084,0.0,0.0,2.0942089136671522,0.0,0.0,0.014245057199863027,0.0,0.0,0.0,0.6746639022529636,0.0,0.0,0.0,0.0,0.0,2.0942089136671522,stabilize,85.0,2.0,0.0,0.0,-2.0,0.09420891366715223,0.0,0,0
1761250743.9482276,9.174168586730957,0.0,0.0,2.092943166057849,0.0,0.0,0.026777734147869506,0.0,0.0,0.0,0.695587513341441,0.0,0.0,0.0,0.0,0.0,2.092943166057849,stabilize,85.0,2.0,0.0,0.0,-2.0,0.0929431660578488,0.0,0,0
1761250744.0498927,9.27583360671997,0.0,0.0,2.092556283848006,0.0,0.0,-0.022023560412474042,0.0,0.0,0.0,0.35,0.0,0.0,0.0,0.0,0.0,2.092556283848006,stabilize,85.0,2.0,0.0,0.0,-2.0,0.09255628384800607,0.0,0,0
1761250744.15433,9.380270957946777,0.0,0.0,2.0907221611079456,0.0,0.0,-0.03907342676308374,0.0,0.0,0.0,0.35,0.0,0.0,0.0,0.0,0.0,2.0907221611079456,stabilize,85.0,2.0,0.0,0.0,-2.0,0.09072216110794562,0.0,0,0
1761250744.2601764,9.486117362976074,0.0,0.0,2.0897872326119122,0.0,0.0,-0.03550584427229825,0.0,0.0,0.0,0.35,0.0,0.0,0.0,0.0,0.0,2.0897872326119122,stabilize,85.0,2.0,0.0,0.0,-2.0,0.08978723261191224,0.0,0,0
1761250744.3660128,9.591953754425049,0.0,0.0,2.0900264998494698,0.0,0.0,0.004305964516113144,0.0,0.0,0.0,0.35,0.0,0.0,0.0,0.0,0.0,2.0900264998494698,stabilize,85.0,2.0,0.0,0.0,-2.0,0.09002649984946975,0.0,0,0
1761250744.4727492,9.698690176010132,0.0,0.0,2.0897409987637476,0.0,0.0,0.023873095567279314,0.0,0.0,0.0,0.6456604684524425,0.0,0.0,0.0,0.0,0.0,2.0897409987637476,stabilize,85.0,2.0,0.0,0.0,-2.0,0.08974099876374764,0.0,0,0
1761250744.57994,9.805881023406982,0.0,0.0,2.089203874331425,0.0,0.0,-0.026690627115028114,0.0,0.0,0.0,0.37530953698247005,0.0,0.0,0.0,0.0,0.0,2.089203874331425,stabilize,85.0,2.0,0.0,0.0,-2.0,0.08920387433142496,0.0,0,0
1761250744.684453,9.910393953323364,0.0,0.0,2.08818458330993,0.0,0.0,-0.02455692800117155,0.0,0.0,0.0,0.35,0.0,0.0,0.0,0.0,0.0,2.08818458330993,stabilize,85.0,2.0,0.0,0.0,-2.0,0.08818458330993018,0.0,0,0
1761250744.7889316,10.014872550964355,0.0,0.0,2.0869632658670487,0.0,0.0,0.021745196468111794,0.0,0.0,0.0,0.6681979612258668,0.0,0.0,0.0,0.0,0.0,2.0869632658670487,stabilize,85.0,2.0,0.0,0.0,-2.0,0.08696326586704872,0.0,0,0
1761250744.893578,10.119518995285034,0.0,0.0,2.0856579616909294,0.0,0.0,-0.03615893736267063,0.0,0.0,0.0,0.3570995512275481,0.0,0.0,0.0,0.0,0.0,2.0856579616909294,stabilize,85.0,2.0,0.0,0.0,-2.0,0.08565796169092943,0.0,0,0
1761250744.9971485,10.223089456558228,0.0,0.0,2.0849180810836208,0.0,0.0,-0.02948955623374606,0.0,0.0,0.0,0.3850088246505414,0.0,0.0,0.0,0.0,0.0,2.0849180810836208,stabilize,85.0,2.0,0.0,0.0,-2.0,0.08491808108362076,0.0,0,0
1761250745.1003177,10.326258659362793,0.0,0.0,2.083962575969888,0.0,0.0,0.007276647280999138,0.0,0.0,0.0,0.5817550860411624,0.0,0.0,0.0,0.0,0.0,2.083962575969888,stabilize,85.0,2.0,0.0,0.0,-2.0,0.08396257596988788,0.0,0,0
1761250745.2038572,10.429798126220703,0.0,0.0,2.0833637547787562,0.0,0.0,-0.01571136285054822,0.0,0.0,0.0,0.4474387114648099,0.0,0.0,0.0,0.0,0.0,2.0833637547787562,stabilize,85.0,2.0,0.0,0.0,-2.0,0.08336375477875624,0.0,0,0
1761250745.3083699,10.534310817718506,0.0,0.0,2.0826122449337383,0.0,0.0,0.004952915357805798,0.0,0.0,0.0,0.35,0.0,0.0,0.0,0.0,0.0,2.0826122449337383,stabilize,85.0,2.0,0.0,0.0,-2.0,0.08261224493373831,0.0,0,0
1761250745.4122722,10.638213157653809,0.0,0.0,2.081891929771352,0.0,0.0,0.02936843943407919,0.0,0.0,0.0,0.6856830666576352,0.0,0.0,0.0,0.0,0.0,2.081891929771352,stabilize,85.0,2.0,0.0,0.0,-2.0,0.08189192977135207,0.0,0,0
1761250745.5229087,10.748849630355835,0.0,0.0,2.081981158443195,0.0,0.0,-0.022770388680744942,0.0,0.0,0.0,0.35,0.0,0.0,0.0,0.0,0.0,2.081981158443195,stabilize,85.0,2.0,0.0,0.0,-2.0,0.08198115844319487,0.0,0,0
1761250745.627054,10.852994918823242,0.0,0.0,2.08162201847882,0.0,0.0,0.008404394861354799,0.0,0.0,0.0,0.35,0.0,0.0,0.0,0.0,0.0,2.08162201847882,stabilize,85.0,2.0,0.0,0.0,-2.0,0.08162201847882011,0.0,0,0
1761250745.7318907,10.957831621170044,0.0,0.0,2.0811673524015126,0.0,0.0,0.025491845912400727,0.0,0.0,0.0,0.6659815963334881,0.0,0.0,0.0,0.0,0.0,2.0811673524015126,stabilize,85.0,2.0,0.0,0.0,-2.0,0.08116735240151263,0.0,0,0
1761250745.8367882,11.062729120254517,0.0,0.0,2.0810739988167586,0.0,0.0,-0.020391731886015195,0.0,0.0,0.0,0.35,0.0,0.0,0.0,0.0,0.0,2.0810739988167586,stabilize,85.0,2.0,0.0,0.0,-2.0,0.08107399881675859,0.0,0,0
1761250745.9430246,11.168965578079224,0.0,0.0,2.0814738358826506,0.0,0.0,-0.0006701190769964199,0.0,0.0,0.0,0.35,0.0,0.0,0.0,0.0,0.0,2.0814738358826506,stabilize,85.0,2.0,0.0,0.0,-2.0,0.08147383588265056,0.0,0,0
1761250746.0496597,11.275600671768188,0.0,0.0,2.0810842223570876,0.0,0.0,0.025265861970334213,0.0,0.0,0.0,0.6566279201154624,0.0,0.0,0.0,0.0,0.0,2.0810842223570876,stabilize,85.0,2.0,0.0,0.0,-2.0,0.08108422235708757,0.0,0,0
1761250746.1545007,11.380441665649414,0.0,0.0,2.0800157730305115,0.0,0.0,0.033976381939907756,0.0,0.0,0.0,0.7255707140364567,0.0,0.0,0.0,0.0,0.0,2.0800157730305115,stabilize,85.0,2.0,0.0,0.0,-2.0,0.08001577303051155,0.0,0,0
1761250746.2612708,11.48721170425415,0.0,0.0,2.0798275340507573,0.0,0.0,-0.0253220246854412,0.0,0.0,0.0,0.35,0.0,0.0,0.0,0.0,0.0,2.0798275340507573,stabilize,85.0,2.0,0.0,0.0,-2.0,0.07982753405075727,0.0,0,0
1761250746.3675885,11.593529462814331,0.0,0.0,2.0793417146569815,0.0,0.0,-0.021265550421869103,0.0,0.0,0.0,0.35,0.0,0.0,0.0,0.0,0.0,2.0793417146569815,stabilize,85.0,2.0,0.0,0.0,-2.0,0.07934171465698148,0.0,0,0
1761250746.470808,11.696748971939087,0.0,0.0,2.077995151588805,0.0,0.0,-0.029730355242360024,0.0,0.0,0.0,0.35,0.0,0.0,0.0,0.0,0.0,2.077995151588805,stabilize,85.0,2.0,0.0,0.0,-2.0,0.0779951515888051,0.0,0,0
1761250746.5750253,11.800966262817383,0.0,0.0,2.077008016089059,0.0,0.0,-0.027544529394324373,0.0,0.0,0.0,0.3947565418833122,0.0,0.0,0.0,0.0,0.0,2.077008016089059,stabilize,85.0,2.0,0.0,0.0,-2.0,0.07700801608905916,0.0,0,0
1761250746.6806884,11.90662932395935,0.0,0.0,2.0764587163773767,0.0,0.0,-0.02459890754201429,0.0,0.0,0.0,0.35,0.0,0.0,0.0,0.0,0.0,2.0764587163773767,stabilize,85.0,2.0,0.0,0.0,-2.0,0.07645871637737667,0.0,0,0
1761250746.7870333,12.012974262237549,0.0,0.0,2.075028851728028,0.0,0.0,0.006910664996547605,0.0,0.0,0.0,0.6072965291028163,0.0,0.0,0.0,0.0,0.0,2.075028851728028,stabilize,85.0,2.0,0.0,0.0,-2.0,0.0750288517280282,0.0,0,0
1761250746.8903327,12.116273641586304,0.0,0.0,2.0737531596588417,0.0,0.0,-0.011129255121645424,0.0,0.0,0.0,0.35,0.0,0.0,0.0,0.0,0.0,2.0737531596588417,stabilize,85.0,2.0,0.0,0.0,-2.0,0.07375315965884166,0.0,0,0
1761250746.9946935,12.220634460449219,0.0,0.0,2.071949995210367,0.0,0.0,-0.0004522857553107759,0.0,0.0,0.0,0.35,0.0,0.0,0.0,0.0,0.0,2.071949995210367,stabilize,85.0,2.0,0.0,0.0,-2.0,0.07194999521036705,0.0,0,0
1761250747.102183,12.328124046325684,0.0,0.0,2.070001478103469,0.0,0.0,-0.01899886831297673,0.0,0.0,0.0,0.35,0.0,0.0,0.0,0.0,0.0,2.070001478103469,stabilize,85.0,2.0,0.0,0.0,-2.0,0.0700014781034688,0.0,0,0
1761250747.2077339,12.433674812316895,0.0,0.0,2.0693399501967176,0.0,0.0,0.03421813712174014,0.0,0.0,0.0,0.7009374127544501,0.0,0.0,0.0,0.0,0.0,2.0693399501967176,stabilize,85.0,2.0,0.0,0.0,-2.0,0.06933995019671757,0.0,0,0
1761250747.3166876,12.542628526687622,0.0,0.0,2.0691825754813844,0.0,0.0,0.00763370672844637,0.0,0.0,0.0,0.5758007410591276,0.0,0.0,0.0,0.0,0.0,2.0691825754813844,stabilize,85.0,2.0,0.0,0.0,-2.0,0.0691825754813844,0.0,0,0
1761250747.4230604,12.649001359939575,0.0,0.0,2.0688792955973714,0.0,0.0,0.012530576671924774,0.0,0.0,0.0,0.5915127985403864,0.0,0.0,0.0,0.0,0.0,2.0688792955973714,stabilize,85.0,2.0,0.0,0.0,-2.0,0.06887929559737138,0.0,0,0
1761250747.5280175,12.753958463668823,0.0,0.0,2.0681339040959257,0.0,0.0,-0.016238562071231425,0.0,0.0,0.0,0.35,0.0,0.0,0.0,0.0,0.0,2.0681339040959257,stabilize,85.0,2.0,0.0,0.0,-2.0,0.06813390409592568,0.0,0,0
1761250747.6334796,12.859420537948608,0.0,0.0,2.0672675931167355,0.0,0.0,0.002165619292009157,0.0,0.0,0.0,0.35,0.0,0.0,0.0,0.0,0.0,2.0672675931167355,stabilize,85.0,2.0,0.0,0.0,-2.0,0.06726759311673547,0.0,0,0
1761250747.7420173,12.967958211898804,0.0,0.0,2.06663243703713,0.0,0.0,-0.014472004441953245,0.0,0.0,0.0,0.35,0.0,0.0,0.0,0.0,0.0,2.06663243703713,stabilize,85.0,2.0,0.0,0.0,-2.0,0.06663243703712984,0.0,0,0
1761250747.846326,13.072267055511475,0.0,0.0,2.0648845784813474,0.0,0.0,-0.03143386549554467,0.0,0.0,0.0,0.39233325572806554,0.0,0.0,0.0,0.0,0.0,2.0648845784813474,stabilize,85.0,2.0,0.0,0.0,-2.0,0.06488457848134743,0.0,0,0
1761250747.9514349,13.177375793457031,0.0,0.0,2.0640018012606904,0.0,0.0,-0.02242447332942268,0.0,0.0,0.0,0.35,0.0,0.0,0.0,0.0,0.0,2.0640018012606904,stabilize,85.0,2.0,0.0,0.0,-2.0,0.06400180126069044,0.0,0,0
1761250748.0566864,13.28262734413147,0.0,0.0,2.062282636941377,0.0,0.0,-0.03126088936224337,0.0,0.0,0.0,0.35,0.0,0.0,0.0,0.0,0.0,2.062282636941377,stabilize,85.0,2.0,0.0,0.0,-2.0,0.062282636941377145,0.0,0,0
1761250748.1630952,13.389036178588867,0.0,0.0,2.0608791630772596,0.0,0.0,-0.004147791346056487,0.0,0.0,0.0,0.35,0.0,0.0,0.0,0.0,0.0,2.0608791630772596,stabilize,85.0,2.0,0.0,0.0,-2.0,0.0608791630772596,0.0,0,0
1761250748.2688203,13.494761228561401,0.0,0.0,2.058568852906291,0.0,0.0,-0.0401425419393694,0.0,0.0,0.0,0.36307436773076485,0.0,0.0,0.0,0.0,0.0,2.058568852906291,stabilize,85.0,2.0,0.0,0.0,-2.0,0.0585688529062911,0.0,0,0
1761250748.3745537,13.600494623184204,0.0,0.0,2.0572067688580966,0.0,0.0,-0.014515120388545782,0.0,0.0,0.0,0.4963389704471457,0.0,0.0,0.0,0.0,0.0,2.0572067688580966,stabilize,85.0,2.0,0.0,0.0,-2.0,0.05720676885809661,0.0,0,0
1761250748.480829,13.706769943237305,0.0,0.0,2.056414490376301,0.0,0.0,0.007787940160337872,0.0,0.0,0.0,0.35,0.0,0.0,0.0,0.0,0.0,2.056414490376301,stabilize,85.0,2.0,0.0,0.0,-2.0,0.056414490376301085,0.0,0,0
