timestamp,simulation_time,position_x,position_y,position_z,velocity_x,velocity_y,velocity_z,attitude_roll,attitude_pitch,attitude_yaw,control_throttle,control_roll,control_pitch,control_yaw,flight_mode
1761301620.2807484,0.10754942893981934,0.0,0.0,-0.0,0.0,0.0,-0.0,0.0,0.0,0.0,0.0,0.0,0.0,0.0,manual
1761301620.3869102,0.21371126174926758,0.0,0.0,-0.0,0.0,0.0,-0.0,0.0,0.0,0.0,0.0,0.0,0.0,0.0,manual
1761301620.4922056,0.31900668144226074,0.0,0.0,-0.0,0.0,0.0,-0.0,0.0,0.0,0.0,0.0,0.0,0.0,0.0,manual
1761301620.5983315,0.42513251304626465,0.0,0.0,-0.0,0.0,0.0,-0.0,0.0,0.0,0.0,0.0,0.0,0.0,0.0,manual
1761301620.7038348,0.5306358337402344,0.0,0.0,-0.0,0.0,0.0,-0.0,0.0,0.0,0.0,0.0,0.0,0.0,0.0,manual
1761301620.8083694,0.6351704597473145,0.0,0.0,-0.0,0.0,0.0,-0.0,0.0,0.0,0.0,0.0,0.0,0.0,0.0,manual
1761301620.9143276,0.74112868309021,0.0,0.0,-0.0,0.0,0.0,-0.0,0.0,0.0,0.0,0.0,0.0,0.0,0.0,manual
1761301621.0335178,0.8603188991546631,0.0,0.0,-0.0,0.0,0.0,-0.0,0.0,0.0,0.0,0.0,0.0,0.0,0.0,manual
1761301621.1393313,0.966132402420044,0.0,0.0,-0.0,0.0,0.0,-0.0,0.0,0.0,0.0,0.0,0.0,0.0,0.0,manual
1761301621.2429624,1.069763422012329,0.0,0.0,-0.0,0.0,0.0,-0.0,0.0,0.0,0.0,0.0,0.0,0.0,0.0,manual
1761301621.3472292,1.1740303039550781,0.0,0.0,-0.0,0.0,0.0,-0.0,0.0,0.0,0.0,0.0,0.0,0.0,0.0,manual
1761301621.451591,1.2783920764923096,0.0,0.0,-0.0,0.0,0.0,-0.0,0.0,0.0,0.0,0.0,0.0,0.0,0.0,manual
1761301621.5541325,1.3809335231781006,0.0,0.0,-0.0,0.0,0.0,-0.0,0.0,0.0,0.0,0.0,0.0,0.0,0.0,manual
1761301621.6576755,1.4844765663146973,0.0,0.0,-0.0,0.0,0.0,-0.0,0.0,0.0,0.0,0.0,0.0,0.0,0.0,manual
1761301621.762108,1.5889091491699219,0.0,0.0,-0.0,0.0,0.0,-0.0,0.0,0.0,0.0,0.0,0.0,0.0,0.0,manual
1761301621.8684423,1.6952433586120605,0.0,0.0,-0.0,0.0,0.0,-0.0,0.0,0.0,0.0,0.0,0.0,0.0,0.0,manual
1761301621.9787652,1.8055663108825684,0.0,0.0,0.021232058712458167,0.0,0.0,0.7994801161087576,0.0,0.0,0.0,1.0,0.0,0.0,0.0,stabilize
1761301622.0832946,1.9100956916809082,0.0,0.0,0.17018869284339389,0.0,0.0,1.66629183714439,0.0,0.0,0.0,0.5158133234320068,0.0,0.0,0.0,stabilize
1761301622.190181,2.016982078552246,0.0,0.0,0.35162795342394915,0.0,0.0,1.7057334157204536,0.0,0.0,0.0,0.4347118857634924,0.0,0.0,0.0,stabilize
1761301622.2937534,2.1205544471740723,0.0,0.0,0.5258115967544456,0.0,0.0,1.6459232268255892,0.0,0.0,0.0,0.4093193646362149,0.0,0.0,0.0,stabilize
1761301622.3977692,2.2245702743530273,0.0,0.0,0.6915222831793364,0.0,0.0,1.5346855669530388,0.0,0.0,0.0,0.3850926942934576,0.0,0.0,0.0,stabilize
1761301622.502264,2.3290650844573975,0.0,0.0,0.8450059527014844,0.0,0.0,1.4012587321264076,0.0,0.0,0.0,0.38118120415961737,0.0,0.0,0.0,stabilize
1761301622.6061454,2.4329464435577393,0.0,0.0,0.9827406392087337,0.0,0.0,1.264017899463677,0.0,0.0,0.0,0.37965785809052893,0.0,0.0,0.0,stabilize
1761301622.712767,2.5395679473876953,0.0,0.0,1.1107014553514836,0.0,0.0,1.125979135091552,0.0,0.0,0.0,0.3826095180334196,0.0,0.0,0.0,stabilize
1761301622.8168013,2.6436023712158203,0.0,0.0,1.2212319723553975,0.0,0.0,1.0006491558078203,0.0,0.0,0.0,0.3865933376858287,0.0,0.0,0.0,stabilize
1761301622.9227018,2.7495028972625732,0.0,0.0,1.3209238768305909,0.0,0.0,0.8839632151750119,0.0,0.0,0.0,0.3914222824389544,0.0,0.0,0.0,stabilize
1761301623.028268,2.855069160461426,0.0,0.0,1.4086079789702148,0.0,0.0,0.779129005532107,0.0,0.0,0.0,0.3965984612881664,0.0,0.0,0.0,stabilize
1761301623.1344295,2.961230516433716,0.0,0.0,1.486226857742375,0.0,0.0,0.684969707785086,0.0,0.0,0.0,0.4015631594065874,0.0,0.0,0.0,stabilize
1761301623.239878,3.066679000854492,0.0,0.0,1.5539904833694704,0.0,0.0,0.6019347661354847,0.0,0.0,0.0,0.4061894273682673,0.0,0.0,0.0,stabilize
1761301623.3430498,3.1698508262634277,0.0,0.0,1.6123065647224697,0.0,0.0,0.5299716678766996,0.0,0.0,0.0,0.4102373462409146,0.0,0.0,0.0,stabilize
1761301623.4486015,3.275402545928955,0.0,0.0,1.664740639169127,0.0,0.0,0.46489263431862965,0.0,0.0,0.0,0.4138197708425104,0.0,0.0,0.0,stabilize
1761301623.5560944,3.3828954696655273,0.0,0.0,1.7115158754113156,0.0,0.0,0.4066513656590347,0.0,0.0,0.0,0.41743690613301376,0.0,0.0,0.0,stabilize
1761301623.659886,3.486686944961548,0.0,0.0,1.7511004395342396,0.0,0.0,0.3571514816012426,0.0,0.0,0.0,0.42023297106602203,0.0,0.0,0.0,stabilize
1761301623.769006,3.5958070755004883,0.0,0.0,1.7875269048727291,0.0,0.0,0.31148614829010834,0.0,0.0,0.0,0.42275737794760193,0.0,0.0,0.0,stabilize
1761301623.8743167,3.701117753982544,0.0,0.0,1.8182540578357,0.0,0.0,0.2728791055066694,0.0,0.0,0.0,0.42530125805991525,0.0,0.0,0.0,stabilize
1761301623.9791615,3.805962562561035,0.0,0.0,1.8450546047394738,0.0,0.0,0.2390935667386721,0.0,0.0,0.0,0.42730520643970826,0.0,0.0,0.0,stabilize
1761301624.0850122,3.911813259124756,0.0,0.0,1.8687434915419703,0.0,0.0,0.20915073348395907,0.0,0.0,0.0,0.42906961443335495,0.0,0.0,0.0,stabilize
1761301624.1930103,4.019811391830444,0.0,0.0,1.8896704646070321,0.0,0.0,0.1826203632376681,0.0,0.0,0.0,0.4306120719866198,0.0,0.0,0.0,stabilize
1761301624.2969296,4.123730659484863,0.0,0.0,1.9076101930461893,0.0,0.0,0.1598106477602423,0.0,0.0,0.0,0.43202308947039675,0.0,0.0,0.0,stabilize
1761301624.402073,4.22887396812439,0.0,0.0,1.9233360965445112,0.0,0.0,0.1397412910873278,0.0,0.0,0.0,0.4331826526006151,0.0,0.0,0.0,stabilize
1761301624.508293,4.335093975067139,0.0,0.0,1.9372157011103452,0.0,0.0,0.12196992419375113,0.0,0.0,0.0,0.43429280567331063,0.0,0.0,0.0,stabilize
1761301624.613267,4.440068006515503,0.0,0.0,1.9491939203624662,0.0,0.0,0.10656949395489752,0.0,0.0,0.0,0.43521096685221744,0.0,0.0,0.0,stabilize
1761301624.7187169,4.545517921447754,0.0,0.0,1.959700243268595,0.0,0.0,0.09299571364409347,0.0,0.0,0.0,0.43610940818740934,0.0,0.0,0.0,stabilize
1761301624.8251252,4.651926279067993,0.0,0.0,1.9689423528132273,0.0,0.0,0.08098110511276686,0.0,0.0,0.0,0.4367886402716399,0.0,0.0,0.0,stabilize
1761301624.9291236,4.755924701690674,0.0,0.0,1.9768176907395838,0.0,0.0,0.07068880564329239,0.0,0.0,0.0,0.4374170474330823,0.0,0.0,0.0,stabilize
1761301625.0299287,4.856729745864868,0.0,0.0,1.9834913294388463,0.0,0.0,0.06190695207012264,0.0,0.0,0.0,0.4379205582271729,0.0,0.0,0.0,stabilize
1761301625.1367884,4.963589429855347,0.0,0.0,1.9896599738466216,0.0,0.0,0.053724649801449816,0.0,0.0,0.0,0.4384431112602387,0.0,0.0,0.0,stabilize
1761301625.2439446,5.0707457065582275,0.0,0.0,1.9950237710319751,0.0,0.0,0.0465506469155964,0.0,0.0,0.0,0.43889074290821567,0.0,0.0,0.0,stabilize
1761301625.3492234,5.176024436950684,0.0,0.0,1.9995919182423039,0.0,0.0,0.04036892556985791,0.0,0.0,0.0,0.43925260461360127,0.0,0.0,0.0,stabilize
1761301625.4551759,5.281976938247681,0.0,0.0,2.0035741916851997,0.0,0.0,0.03492254532258099,0.0,0.0,0.0,0.43959150883681536,0.0,0.0,0.0,stabilize
1761301625.5592988,5.386099815368652,0.0,0.0,2.0069607743554307,0.0,0.0,0.030231160852105476,0.0,0.0,0.0,0.43987452897008616,0.0,0.0,0.0,stabilize
1761301625.661677,5.488477945327759,0.0,0.0,2.0098427409792943,0.0,0.0,0.026226840615097596,0.0,0.0,0.0,0.4406598530583513,0.0,0.0,0.0,stabilize
1761301625.766385,5.593186140060425,0.0,0.0,2.012389343030322,0.0,0.0,0.022535959534549423,0.0,0.0,0.0,0.44031532308977595,0.0,0.0,0.0,stabilize
1761301625.8708005,5.697601556777954,0.0,0.0,2.014572592701275,0.0,0.0,0.019352198901779027,0.0,0.0,0.0,0.4405214297539066,0.0,0.0,0.0,stabilize
1761301625.9743953,5.801196336746216,0.0,0.0,2.01643052241274,0.0,0.0,0.016577144316638877,0.0,0.0,0.0,0.4406704700646914,0.0,0.0,0.0,stabilize
1761301626.0790107,5.905811786651611,0.0,0.0,2.0180335592515353,0.0,0.0,0.014123695384448904,0.0,0.0,0.0,0.44083368560646186,0.0,0.0,0.0,stabilize
1761301626.1837795,6.010580539703369,0.0,0.0,2.019397857051074,0.0,0.0,0.0119668526765172,0.0,0.0,0.0,0.4409518746713948,0.0,0.0,0.0,stabilize
1761301626.2880034,6.11480450630188,0.0,0.0,2.0205453841203527,0.0,0.0,0.01009284417492915,0.0,0.0,0.0,0.4410706612885576,0.0,0.0,0.0,stabilize
1761301626.3927479,6.219548940658569,0.0,0.0,2.0215140932695106,0.0,0.0,0.008440206111836998,0.0,0.0,0.0,0.4411856948537667,0.0,0.0,0.0,stabilize
1761301626.5000181,6.326819181442261,0.0,0.0,2.022338463946344,0.0,0.0,0.0069588712655858555,0.0,0.0,0.0,0.4412120617918963,0.0,0.0,0.0,stabilize
1761301626.6046798,6.431480884552002,0.0,0.0,2.023000136193416,0.0,0.0,0.005704678910573578,0.0,0.0,0.0,0.4413442572398066,0.0,0.0,0.0,stabilize
1761301626.7090805,6.535881519317627,0.0,0.0,2.0235372733158545,0.0,0.0,0.004607340483318392,0.0,0.0,0.0,0.4414008247651954,0.0,0.0,0.0,stabilize
1761301626.812814,6.639615058898926,0.0,0.0,2.0239647251800927,0.0,0.0,0.0036563823070383055,0.0,0.0,0.0,0.44149448919857975,0.0,0.0,0.0,stabilize
1761301626.9197545,6.74655556678772,0.0,0.0,2.024307051261947,0.0,0.0,0.002799527768160838,0.0,0.0,0.0,0.4415207297672016,0.0,0.0,0.0,stabilize
1761301627.024735,6.85153603553772,0.0,0.0,2.0245626897661912,0.0,0.0,0.0020662915478973304,0.0,0.0,0.0,0.44159916012084044,0.0,0.0,0.0,stabilize
1761301627.1299152,6.956716299057007,0.0,0.0,2.0247453053707267,0.0,0.0,0.0014212748689507147,0.0,0.0,0.0,0.44160314715908294,0.0,0.0,0.0,stabilize
1761301627.2366083,7.063409328460693,0.0,0.0,2.024866319887439,0.0,0.0,0.0008565225130501637,0.0,0.0,0.0,0.44163130391435435,0.0,0.0,0.0,stabilize
1761301627.3382516,7.165052652359009,0.0,0.0,2.0249292368288594,0.0,0.0,0.0003944305150376636,0.0,0.0,0.0,0.44165782995361424,0.0,0.0,0.0,stabilize
1761301627.4434662,7.2702672481536865,0.0,0.0,2.024948212872433,0.0,0.0,-2.7394182774271265e-05,0.0,0.0,0.0,0.44171098249121576,0.0,0.0,0.0,stabilize
1761301627.5481808,7.374981880187988,0.0,0.0,2.0249258889757313,0.0,0.0,-0.0003933859597579091,0.0,0.0,0.0,0.4417217415882282,0.0,0.0,0.0,stabilize
1761301627.653846,7.480647087097168,0.0,0.0,2.0248680420660055,0.0,0.0,-0.000704140287432568,0.0,0.0,0.0,0.4417823093046849,0.0,0.0,0.0,stabilize
1761301627.757057,7.583858013153076,0.0,0.0,2.0247799950368783,0.0,0.0,-0.0009763803780683041,0.0,0.0,0.0,0.441776066777423,0.0,0.0,0.0,stabilize
1761301627.8615527,7.688353776931763,0.0,0.0,2.0246653741246043,0.0,0.0,-0.0012139278739429606,0.0,0.0,0.0,0.4417643178248984,0.0,0.0,0.0,stabilize
1761301627.9657845,7.792585611343384,0.0,0.0,2.0245284724492847,0.0,0.0,-0.0014117262316749655,0.0,0.0,0.0,0.441798675759998,0.0,0.0,0.0,stabilize
1761301628.0689547,7.895755767822266,0.0,0.0,2.024373897108127,0.0,0.0,-0.0015812368090475212,0.0,0.0,0.0,0.4418150498905595,0.0,0.0,0.0,stabilize
1761301628.175277,8.00207805633545,0.0,0.0,2.024197513793119,0.0,0.0,-0.0017289919932853668,0.0,0.0,0.0,0.44184815929062693,0.0,0.0,0.0,stabilize
1761301628.2805884,8.107389450073242,0.0,0.0,2.0240084076239495,0.0,0.0,-0.0018569068418985014,0.0,0.0,0.0,0.44184413115357835,0.0,0.0,0.0,stabilize
1761301628.3861985,8.21299958229065,0.0,0.0,2.02380653618941,0.0,0.0,-0.001965336981960228,0.0,0.0,0.0,0.44182510632369754,0.0,0.0,0.0,stabilize
1761301628.4960408,8.322841882705688,0.0,0.0,2.02358549230616,0.0,0.0,-0.002047494418989976,0.0,0.0,0.0,0.4419316959279537,0.0,0.0,0.0,stabilize
1761301628.6011014,8.427902460098267,0.0,0.0,2.023365774207094,0.0,0.0,-0.002125890780801921,0.0,0.0,0.0,0.44187159256953273,0.0,0.0,0.0,stabilize
1761301628.702751,8.529551982879639,0.0,0.0,2.0231485030917087,0.0,0.0,-0.0021927404532405656,0.0,0.0,0.0,0.44176765901613924,0.0,0.0,0.0,stabilize
1761301628.8032866,8.630087614059448,0.0,0.0,2.0229249901558886,0.0,0.0,-0.002236081941450453,0.0,0.0,0.0,0.44191980513746976,0.0,0.0,0.0,stabilize
1761301628.9153104,8.742111444473267,0.0,0.0,2.022673147144597,0.0,0.0,-0.0022715267930229046,0.0,0.0,0.0,0.44171811759001334,0.0,0.0,0.0,stabilize
1761301629.0334413,8.860242366790771,0.0,0.0,2.022403763970331,0.0,0.0,-0.0023535268978080682,0.0,0.0,0.0,0.44174060414484645,0.0,0.0,0.0,stabilize
1761301629.1398792,8.96668028831482,0.0,0.0,2.022158649226424,0.0,0.0,-0.0022617922523184455,0.0,0.0,0.0,0.44226167942213757,0.0,0.0,0.0,stabilize
1761301629.248595,9.075396060943604,0.0,0.0,2.021905897220672,0.0,0.0,-0.0023350965099146505,0.0,0.0,0.0,0.4418476684139764,0.0,0.0,0.0,stabilize
1761301629.356583,9.18338418006897,0.0,0.0,2.0216524368659585,0.0,0.0,-0.002345589198257887,0.0,0.0,0.0,0.4419680218484056,0.0,0.0,0.0,stabilize
1761301629.4730995,9.299900531768799,0.0,0.0,2.0213703545117054,0.0,0.0,-0.0026872568595570764,0.0,0.0,0.0,0.4415462130846907,0.0,0.0,0.0,stabilize
1761301629.6151154,9.441916465759277,0.0,0.0,2.0210072827407726,0.0,0.0,-0.0035759122716559994,0.0,0.0,0.0,0.4405018722824692,0.0,0.0,0.0,stabilize
1761301629.722495,9.549296140670776,0.0,0.0,2.0207891952432293,0.0,0.0,-0.0017882269386693137,0.0,0.0,0.0,0.4438410091145385,0.0,0.0,0.0,stabilize
1761301629.8306007,9.65740180015564,0.0,0.0,2.0205707888525075,0.0,0.0,-0.0023046582315003655,0.0,0.0,0.0,0.4412919389318938,0.0,0.0,0.0,stabilize
1761301629.9323397,9.759140729904175,0.0,0.0,2.0194625852071435,0.0,0.0,-0.05906313524562526,0.0,0.0,0.0,0.35,0.0,0.0,0.0,auto
1761301630.0389013,9.865702390670776,0.0,0.0,2.0028383228489997,0.0,0.0,-0.25290597270834664,0.0,0.0,0.0,0.35,0.0,0.0,0.0,auto
1761301630.1422381,9.96903920173645,0.0,0.0,1.9670071808024332,0.0,0.0,-0.4404870486393295,0.0,0.0,0.0,0.35,0.0,0.0,0.0,auto
1761301630.247787,10.074588060379028,0.0,0.0,1.9104325306600265,0.0,0.0,-0.6313777135117147,0.0,0.0,0.0,0.35,0.0,0.0,0.0,auto
1761301630.3512557,10.178056716918945,0.0,0.0,1.8354649886809382,0.0,0.0,-0.8175232154055841,0.0,0.0,0.0,0.35,0.0,0.0,0.0,auto
1761301630.4549417,10.281742811203003,0.0,0.0,1.7410817644545338,0.0,0.0,-1.0028006653783514,0.0,0.0,0.0,0.35,0.0,0.0,0.0,auto
1761301630.5579553,10.384756326675415,0.0,0.0,1.628362707142526,0.0,0.0,-1.1853573709536438,0.0,0.0,0.0,0.35,0.0,0.0,0.0,auto
1761301630.6636693,10.49047040939331,0.0,0.0,1.4937388031300893,0.0,0.0,-1.3356248835124849,0.0,0.0,0.0,0.40279128023550853,0.0,0.0,0.0,auto
1761301630.767928,10.594728946685791,0.0,0.0,1.3546838361538058,0.0,0.0,-1.3199090581066217,0.0,0.0,0.0,0.46812283294614215,0.0,0.0,0.0,auto
1761301630.8724947,10.69929575920105,0.0,0.0,1.2198820916624828,0.0,0.0,-1.250575587507011,0.0,0.0,0.0,0.47821716612047704,0.0,0.0,0.0,auto
1761301630.9728928,10.799693822860718,0.0,0.0,1.098840380944382,0.0,0.0,-1.1534206701364118,0.0,0.0,0.0,0.5172588411135892,0.0,0.0,0.0,auto
1761301631.0769901,10.903791189193726,0.0,0.0,0.9839092303302142,0.0,0.0,-1.0508129717309596,0.0,0.0,0.0,0.48981780858291074,0.0,0.0,0.0,auto
1761301631.1814613,11.008262395858765,0.0,0.0,0.8790194338989423,0.0,0.0,-0.9696939461088564,0.0,0.0,0.0,0.540316788849537,0.0,0.0,0.0,auto
1761301631.2904289,11.11722993850708,0.0,0.0,0.7775661222676543,0.0,0.0,-0.8858364020230213,0.0,0.0,0.0,0.47821346041112067,0.0,0.0,0.0,auto
1761301631.39692,11.223721027374268,0.0,0.0,0.6880784232201687,0.0,0.0,-0.7954481707039182,0.0,0.0,0.0,0.47937526455881063,0.0,0.0,0.0,auto
1761301631.5012095,11.328010559082031,0.0,0.0,0.609591465337943,0.0,0.0,-0.7105285871179715,0.0,0.0,0.0,0.47863863911009186,0.0,0.0,0.0,auto
1761301631.6060128,11.432813882827759,0.0,0.0,0.5393374868125298,0.0,0.0,-0.6312213165278674,0.0,0.0,0.0,0.47543463907783423,0.0,0.0,0.0,auto
1761301631.7111075,11.537908554077148,0.0,0.0,0.4800683761046265,0.0,0.0,-0.2554334353081099,0.0,0.0,0.0,1.0,0.0,0.0,0.0,auto
1761301631.8170946,11.643895626068115,0.0,0.0,0.5375628912303552,0.0,0.0,1.3391187885806086,0.0,0.0,0.0,1.0,0.0,0.0,0.0,auto
1761301631.9220328,11.748833894729614,0.0,0.0,0.7602412123389762,0.0,0.0,2.9002341729487027,0.0,0.0,0.0,1.0,0.0,0.0,0.0,auto
1761301632.0267367,11.853537797927856,0.0,0.0,1.1136204882183776,0.0,0.0,3.5726716863263883,0.0,0.0,0.0,0.4831523983349608,0.0,0.0,0.0,auto
1761301632.1330693,11.959870338439941,0.001229189589487277,0.0,1.49992677928366,0.05475493717944811,0.0,3.6376463889584643,0.0,-0.16683018818106846,0.0,0.399071716272245,0.0,-0.3,0.0,auto
1761301632.238883,12.065684080123901,0.020136169381937394,0.0,1.8779303443294253,0.33941066552930904,0.0,3.481498283657817,0.0,-0.43339071748410796,0.0,0.35,0.0,-0.26988507840482595,0.0,auto
1761301632.3459122,12.172713279724121,0.07980050635904368,0.0,2.236876751037293,0.7763116639514953,0.0,3.218795965509151,0.0,-0.48682204227068865,0.0,0.37877015334434283,0.0,-0.07530681692548424,0.0,auto
1761301632.4499693,12.27677035331726,0.18220295642929216,0.0,2.5569192003092582,1.1944123896944767,0.0,2.9296528652857328,0.0,-0.5124787805716646,0.0,0.36981074434368266,0.0,0.005223590622288544,0.0,auto
1761301632.5603702,12.387171268463135,0.33819410178695564,0.0,2.863084805162244,1.6333557571431219,0.0,2.6179579323355395,0.0,-0.5199746471073079,0.0,0.377267693951161,0.0,0.015311510842168391,0.0,auto
1761301632.665102,12.491903066635132,0.5300425980013753,0.0,3.122476897765837,2.004290843199515,0.0,2.3365133969361547,0.0,-0.38126115045400444,0.0,0.35582092572286567,0.0,-0.0020059448049605296,0.0,auto
1761301632.7715538,12.598354816436768,0.7577905751528788,0.0,3.356843722898449,2.2634539205671365,0.0,2.071522045133029,0.0,-0.29191244465820143,0.0,0.35,0.0,0.05556418777199233,0.0,auto
1761301632.8768897,12.703690767288208,1.006187118986685,0.0,3.5621093187540147,2.444780575840943,0.0,1.82974390725907,0.0,-0.22470798689392077,0.0,0.3517653049798528,0.0,0.05348865319301291,0.0,auto
1761301632.9809036,12.80770468711853,1.2676032361155265,0.0,3.741072584903633,2.5747168487283156,0.0,1.6154043517984278,0.0,-0.17131820026286346,0.0,0.3593248867306691,0.0,0.026503456171277955,0.0,auto
1761301633.0855827,12.912383794784546,1.5424045919673897,0.0,3.899899306999766,2.6698591829961265,0.0,1.42283137404978,0.0,-0.13137661362838696,0.0,0.3669156385002106,0.0,0.00938130343604604,0.0,auto
1761301633.196309,13.023110151290894,1.8422611027304563,0.0,4.04725500519395,2.741833812996182,0.0,1.2425825416348901,0.0,-0.10229740358491286,0.0,0.37497133013394723,0.0,0.005499267147689895,0.0,auto
1761301633.301478,13.128278970718384,2.1333074797577276,0.0,4.169843629630831,2.7903598262464744,0.0,1.0917446363880001,0.0,-0.08354801637542983,0.0,0.38260367984995547,0.0,0.006186672375286537,0.0,auto
1761301633.407395,13.234195947647095,2.429318410239453,0.0,4.277734571637606,2.825044901428705,0.0,0.9584221830828248,0.0,-0.07018153428745037,0.0,0.3896150350208414,0.0,0.005869323002518789,0.0,auto
1761301633.510881,13.337682008743286,2.72432618087269,0.0,4.371282840301164,2.8406469444351563,0.0,0.8425531267945356,0.0,-0.023190913802734907,0.0,0.39463110597339657,0.0,0.01660834556056226,0.0,auto
1761301633.6153367,13.442137718200684,3.019748090397794,0.0,4.453827150379645,2.8122734419283515,0.0,0.7400492866957916,0.0,0.008037630688080222,0.0,0.39985403780103296,0.0,0.031511646174573124,0.0,auto
1761301633.7215946,13.54839563369751,3.3143351117531994,0.0,4.5271498527652385,2.7559431905569722,0.0,0.6486543197653453,0.0,0.032264473720701334,0.0,0.40561836063461304,0.0,0.019632646153091814,0.0,auto
1761301633.8270614,13.653862476348877,3.602603571538549,0.0,4.591540854819434,2.681807697565776,0.0,0.5683123071677796,0.0,0.04993314428437348,0.0,0.4106123707356516,0.0,0.007199904943836096,0.0,auto
1761301633.932527,13.759328126907349,3.8810668527924346,0.0,4.6476965261965715,2.597037652990996,0.0,0.49813303730868735,0.0,0.06139751633899711,0.0,0.4149431148770673,0.0,0.0007003265417793701,0.0,auto
1761301634.036609,13.863409996032715,4.146735263611263,0.0,4.696307011984008,2.5070333398988836,0.0,0.4372550468142004,0.0,0.06799950693029039,0.0,0.4182287600412669,0.0,-0.0005274873986670021,0.0,auto
1761301634.1415765,13.968377590179443,4.4049738843071236,0.0,4.739313229446532,2.413013499817302,0.0,0.3833075560294458,0.0,0.07143488177859286,0.0,0.42125376436716994,0.0,0.0001686744892084234,0.0,auto
1761301634.25142,14.078221082687378,4.66456276692889,0.0,4.778642723162903,2.3135684143382007,0.0,0.3339141132032471,0.0,0.07296728838344566,0.0,0.4242858508415728,0.0,0.0006130002901605714,0.0,auto
1761301634.356261,14.183062076568604,4.902161760279528,0.0,4.8114387071384375,2.2192532490267554,0.0,0.29258981637780757,0.0,0.07310681217425619,0.0,0.426320721979793,0.0,0.00028434526509867877,0.0,auto
1761301634.4614725,14.288273572921753,5.130743982693715,0.0,4.84026871708805,2.1262904975375942,0.0,0.25620837450361733,0.0,0.07250780340977153,0.0,0.4283635166547738,0.0,-0.0003090885092643734,0.0,auto
1761301634.5675187,14.394319772720337,5.35136441273215,0.0,4.865695747811524,2.0349665026096226,0.0,0.2240386113490187,0.0,0.07133150844636925,0.0,0.4302224568721766,0.0,-0.000782091571870512,0.0,auto
1761301634.6739202,14.500721216201782,5.56313720742308,0.0,4.887994238957161,1.9461526144242247,0.0,0.19573288325279983,0.0,0.06971805547170036,0.0,0.4317724908612004,0.0,-0.000990708103476402,0.0,auto
1761301634.7785115,14.605312585830688,5.76225210265232,0.0,4.9071612085243235,1.8618345944785661,0.0,0.17129968422240047,0.0,0.06785418763293632,0.0,0.43290455696411256,0.0,-0.0010627960396103334,0.0,auto
1761301634.8825495,14.7093505859375,5.951722944860736,0.0,4.92384977342252,1.781021833823086,0.0,0.14996530131628588,0.0,0.0658386205140597,0.0,0.4340962473147687,0.0,-0.0009427826605156718,0.0,auto
1761301634.9869509,14.813751935958862,6.133566156872516,0.0,4.938502677855043,1.7030549725683517,0.0,0.13114793442708572,0.0,0.06366617647656889,0.0,0.4351439297635859,0.0,-0.000904305161333878,0.0,auto
1761301635.0907362,14.917537212371826,6.306431905210286,0.0,4.9512419380578505,1.6286764110796583,0.0,0.11470371486881185,0.0,0.06151547881321097,0.0,0.4359828275222894,0.0,-0.0009512346057941595,0.0,auto
1761301635.1958592,15.022660255432129,6.473820065856,0.0,4.962513849884181,1.5564472606644917,0.0,0.10007412244832771,0.0,0.05936306793570998,0.0,0.4367348390994937,0.0,-0.0010016408636439132,0.0,auto
1761301635.300093,15.126893997192383,6.632452559590532,0.0,4.97226646576038,1.487828092355621,0.0,0.08733284554193593,0.0,0.05723335222603061,0.0,0.437343933673297,0.0,-0.0009522010779164866,0.0,auto
1761301635.404789,15.231590032577515,6.784741419764587,0.0,4.980808947303789,1.4218142283342898,0.0,0.07609044563089039,0.0,0.05513347419189374,0.0,0.43791786482246914,0.0,-0.0009713096224604818,0.0,auto
1761301635.5119343,15.338735342025757,6.933593143534858,0.0,4.988410249114482,1.357167701880279,0.0,0.0660233175391639,0.0,0.05306527576989613,0.0,0.4385029159357297,0.0,-0.0009608975114360263,0.0,auto
1761301635.6167996,15.44360065460205,7.0727158316523004,0.0,4.994870172434079,1.2966467654158151,0.0,0.05737072823735137,0.0,0.05103287702174095,0.0,0.4389089268091411,0.0,-0.0008343165728976772,0.0,auto
1761301635.7250373,15.551838397979736,7.208567000102705,0.0,5.0005979165569565,1.237458527865823,0.0,0.0496030569444969,0.0,0.04904336451703043,0.0,0.439189330564902,0.0,-0.0009200137307536458,0.0,auto
1761301635.8299496,15.656750679016113,7.336647852009114,0.0,5.00549141857772,1.1815708221238665,0.0,0.04291740625637537,0.0,0.04714044344769853,0.0,0.43960431920733917,0.0,-0.0009301230086547283,0.0,auto
1761301635.9340932,15.760894298553467,7.456944358384129,0.0,5.009654828670635,1.1290158108071835,0.0,0.03715283840159631,0.0,0.04533541818001203,0.0,0.4399532260395514,0.0,-0.000898331970647662,0.0,auto
1761301636.038966,15.865767002105713,7.572673370820527,0.0,5.0132774331328935,1.07839801535076,0.0,0.03204391784378677,0.0,0.043558372860411754,0.0,0.4401957308936553,0.0,-0.0008475164862595514,0.0,auto
1761301636.15064,15.97744107246399,7.690205477200095,0.0,5.016584230432471,1.0269294293732032,0.0,0.027214459692719635,0.0,0.04170855967232371,0.0,0.4402074375461504,0.0,-0.000985513828400257,0.0,auto
1761301636.2556648,16.082465887069702,7.795611976131633,0.0,5.019242896821285,0.9806840509826164,0.0,0.023412739235977406,0.0,0.040039867486179104,0.0,0.44067145838158744,0.0,-0.0006937893277008262,0.0,auto
1761301636.3609073,16.187708377838135,7.896475315855385,0.0,5.021522341676677,0.9364144651944815,0.0,0.01999002929425832,0.0,0.03846326124407088,0.0,0.44083369069729905,0.0,-0.0008146591682437714,0.0,auto
1761301636.466593,16.293394088745117,7.993179224841068,0.0,5.023471903725141,0.8939296465418443,0.0,0.016975032862949754,0.0,0.036913586138487005,0.0,0.44096426726032506,0.0,-0.000820786204787112,0.0,auto
1761301636.571354,16.398154973983765,8.084703631983373,0.0,5.025110485510332,0.8536759446340025,0.0,0.014361802635455898,0.0,0.035410591094746216,0.0,0.44109166799244454,0.0,-0.0007263144502061118,0.0,auto
1761301636.675061,16.501862049102783,8.171245218423035,0.0,5.026480149852498,0.8155732457817894,0.0,0.01209644301653512,0.0,0.03397210343534135,0.0,0.441195223693136,0.0,-0.0006481125732131817,0.0,auto
1761301636.7787066,16.605507612228394,8.253874558042545,0.0,5.027629090291123,0.7791576946367497,0.0,0.010112348355076572,0.0,0.03259928338860937,0.0,0.4412865477528239,0.0,-0.0006504954225726696,0.0,auto
1761301636.8844078,16.711208820343018,8.334342387091219,0.0,5.028602401794479,0.7436642685325545,0.0,0.008340055642554224,0.0,0.031248455048509937,0.0,0.44136748736639303,0.0,-0.0006235021263733589,0.0,auto
1761301636.9897025,16.816503524780273,8.410854361358036,0.0,5.029397845218356,0.7098833090334677,0.0,0.006796417425173627,0.0,0.029952994011636848,0.0,0.4414123029169891,0.0,-0.0006170731070708574,0.0,auto
1761301637.0947676,16.921568632125854,8.48373371993727,0.0,5.030040228890559,0.677678576357057,0.0,0.005453301528716139,0.0,0.028706293681301537,0.0,0.4414753569882351,0.0,-0.0005934366291096109,0.0,auto
1761301637.2003686,17.027169704437256,8.553652135798481,0.0,5.0305528620691495,0.6467566172047514,0.0,0.004271442073872731,0.0,0.02749850971998815,0.0,0.4415418224563277,0.0,-0.0005932231290500147,0.0,auto
1761301637.3013968,17.12819790840149,8.617553658422835,0.0,5.030934001902886,0.6184679689371995,0.0,0.0032918241104635034,0.0,0.026409239065142594,0.0,0.4415977333934906,0.0,-0.0006563965957281268,0.0,auto
1761301637.4064598,17.23326086997986,8.681043073604616,0.0,5.0312318841965205,0.5903473405572638,0.0,0.002398728849248317,0.0,0.025279471320461735,0.0,0.44168248111557146,0.0,-0.0005302431932338515,0.0,auto
1761301637.5113175,17.33811855316162,8.741528919160814,0.0,5.031441313551707,0.5635367786265258,0.0,0.001617578876857886,0.0,0.024199443797975336,0.0,0.4417012487877237,0.0,-0.0004456384791396472,0.0,auto
1761301637.616361,17.443161964416504,8.799366704068346,0.0,5.031574487132167,0.5378799629443389,0.0,0.0009349063868616549,0.0,0.023161536578021183,0.0,0.44173041512455163,0.0,-0.0004210829587545788,0.0,auto
1761301637.7239485,17.55074954032898,8.855875871473815,0.0,5.031641751964413,0.5127919414683704,0.0,0.000335926657953225,0.0,0.022160155584001875,0.0,0.44179229054381797,0.0,-0.00046921776476043897,0.0,auto
1761301637.8285792,17.655380249023438,8.908302099743016,0.0,5.031649264565295,0.48950458925866114,0.0,-0.00017492065027437077,0.0,0.02121351276091232,0.0,0.441794531824823,0.0,-0.00044514263464623144,0.0,auto
1761301637.9334984,17.76029944419861,8.958481500108014,0.0,5.0316069199911055,0.46720146548159946,0.0,-0.0006219311249097185,0.0,0.020300145347265017,0.0,0.4417726951317075,0.0,-0.00041544236935106695,0.0,auto
1761301638.0377817,17.864582777023315,9.00609025037624,0.0,5.0315219873445605,0.4460267374475339,0.0,-0.0009996639138913847,0.0,0.019427267882895585,0.0,0.4418151821444874,0.0,-0.00038241323879271446,0.0,auto
1761301638.1442237,17.971024751663208,9.052459402599865,0.0,5.031397161391286,0.4253918102896829,0.0,-0.0013333225795690178,0.0,0.01857514751316266,0.0,0.4418437294504485,0.0,-0.00035626649895305584,0.0,auto
1761301638.25002,18.076821088790894,9.096420683594836,0.0,5.031240325518634,0.405815156984391,0.0,-0.001619524979809964,0.0,0.017761745535104078,0.0,0.44186474310640594,0.0,-0.0003559935148079557,0.0,auto
1761301638.353778,18.18057894706726,9.137568881127226,0.0,5.0310593010988285,0.3874822248768411,0.0,-0.0018611738191220094,0.0,0.01699803925908218,0.0,0.44186645410333936,0.0,-0.0003506804583637515,0.0,auto
1761301638.4599142,18.286715269088745,9.17773725307761,0.0,5.03085009959956,0.3695773147076496,0.0,-0.0020780653555307806,0.0,0.016249670486117748,0.0,0.4418436109420584,0.0,-0.0003548137352200947,0.0,auto
1761301638.5667756,18.393576622009277,9.216304511119171,0.0,5.030618552083213,0.35237588234479833,0.0,-0.002254068341537322,0.0,0.015525415321483224,0.0,0.4418786330040891,0.0,-0.0003335011788431977,0.0,auto
1761301638.670473,18.497274160385132,9.252012599044924,0.0,5.030377020630085,0.3364423382657618,0.0,-0.002397570828527552,0.0,0.014851042674953909,0.0,0.4419202181723287,0.0,-0.0003062380710179681,0.0,auto
1761301638.772601,18.59940195083618,9.285601375214423,0.0,5.030124948594573,0.32144741251209474,0.0,-0.0025155073759874106,0.0,0.014231438020730906,0.0,0.44195224790332766,0.0,-0.0003276980602368628,0.0,auto
1761301638.876565,18.70336604118347,9.318256109282776,0.0,5.029857177010407,0.30686199106620554,0.0,-0.0026281461436835373,0.0,0.013592726568413736,0.0,0.441895993649991,0.0,-0.0002596139696309935,0.0,auto
1761301638.9810455,18.807846546173096,9.349580321551594,0.0,5.029577838557858,0.29286636231984187,0.0,-0.0027215479165025275,0.0,0.012990581849909305,0.0,0.4418524774507199,0.0,-0.00024422954602140707,0.0,auto
1761301639.0860844,18.912885427474976,9.379631735012733,0.0,5.029288548791629,0.2794338458895827,0.0,-0.00278962910531775,0.0,0.012416041589612094,0.0,0.4419041210624419,0.0,-0.0002477974094315747,0.0,auto
1761301639.1907887,19.017589807510376,9.40821544719156,0.0,5.028993327068339,0.2666528773733165,0.0,-0.0028464037439085836,0.0,0.011869585945947083,0.0,0.44191043208013353,0.0,-0.0002450983971725036,0.0,auto
1761301639.2966068,19.12340784072876,9.435774832270631,0.0,5.028689368409426,0.2543256663906977,0.0,-0.0028960211873306726,0.0,0.011339323276383914,0.0,0.44189486290008845,0.0,-0.00024200100540475148,0.0,auto
1761301639.4008002,19.227601289749146,9.46166567558656,0.0,5.028385865006819,0.2427400224006324,0.0,-0.0029302683730199367,0.0,0.010838881649405573,0.0,0.4418952145553705,0.0,-0.0002304716584953199,0.0,auto
1761301639.5068586,19.333659648895264,9.486808755513474,0.0,5.028073581495891,0.2314856056720089,0.0,-0.0029576886719455825,0.0,0.010349279354847129,0.0,0.4419071394399497,0.0,-0.00021454176860280695,0.0,auto
1761301639.613743,19.44054412841797,9.510830689888111,7.944793736321274e-05,5.03353699029743,0.20760071652557974,0.009452406568463528,0.3543659820321871,0.039607504753121275,0.04956682841945417,0.001888929759224586,1.0,0.3,0.3,-0.002691479637471803,auto
1761301639.7185245,19.54532551765442,9.517983078816647,0.014418923826242377,5.1281219922846235,-0.1527615087635424,0.34549711834251373,1.4122951509129353,0.28006711711680593,0.29039053275467525,0.02147977782986419,1.0,0.3,0.3,-0.05108286367948646,auto
1761301639.8242896,19.651090621948242,9.462157718699608,0.09000326395536017,5.321702223925133,-0.9900458053540467,1.183537954959982,2.243605697652619,0.49985407170961593,0.498844959930976,0.0414181775801403,1.0,-0.052591701882997166,-0.050353749371540246,-0.09578909713491818,auto
1761301639.9297924,19.756593465805054,9.305007673891524,0.2692027249137462,5.5938186320766965,-1.975907287435833,2.164050765625134,2.8996801672097554,0.4053125832080513,0.4880436187604653,0.04484854606590991,1.0,-0.3,-0.3,-0.09408390827682342,auto
1761301640.0369797,19.863780736923218,9.04967550422608,0.5342677548493805,5.9454768263437066,-2.6896130281294393,2.6734634881807824,3.675400007446976,0.16374255640443044,0.2486155538537536,0.05510661557704071,1.0,-0.267889492354217,-0.3,-0.11612654162105641,auto
1761301640.141454,19.968255043029785,8.75456422087461,0.8212143531262596,6.368273018307583,-2.8694415733696554,2.7876561080436377,4.301424384037788,0.08669622375528016,0.033150963412293906,0.056689750734109354,0.6174620442228975,0.006712694596271246,0.13827840162369986,-0.1186184806788248,auto
1761301640.2478433,20.074644327163696,8.448321435042285,1.120302440593277,6.844004313036249,-2.8836875505028683,2.823475414344909,4.61052192017378,0.06587896415413183,0.030957226357466134,0.040842373012243104,0.5824299800769575,0.04789898788905693,0.08071699918056763,-0.07724888265352546,auto
1761301640.3512979,20.178098917007446,8.150346912205473,1.4134851502976362,7.331017292712219,-2.880011025661913,2.8380001793488723,4.787958394020684,0.05602692060590638,0.041467553202559695,0.02629496558475184,0.5524100809393367,0.05554315766324383,0.014454578672615657,-0.046191686141423265,auto
1761301640.456957,20.28375816345215,7.846774785917047,1.713731001193416,7.843043669178279,-2.8708790334928773,2.843521258390129,4.894837098937789,0.0552137096330182,0.05164326131764247,0.01621981470061772,0.5384442171229684,0.034082113809375536,-0.018729877989458334,-0.02811685255780951,auto
1761301640.5609672,20.387768268585205,7.548829510484292,2.0094726706387522,8.355544527000017,-2.8617840250835833,2.8444867245602006,4.955612253425985,0.05904619579766632,0.059069983959952506,0.009996199587534733,0.5247321438710539,0.0056428331630216,-0.027337179889163447,-0.01784926499254258,auto
1761301640.6618466,20.48864769935608,7.2608873412573205,2.296262858290517,8.857365498546068,-2.8396451335125144,2.8431914039466326,4.987616106972067,0.06387088756084995,0.02114152029810684,0.00617774752550633,0.49423384401312603,-0.01415595723868301,-0.006501851629660079,-0.011577782330415447,auto
1761301640.7667084,20.593509435653687,6.966189765089368,2.5942781871869665,9.381838421019498,-2.778624160388498,2.8413209403013178,5.011912421326098,0.059214705042003234,0.0014740515013226957,0.0036081480712005834,0.5073933472889365,-0.07411338683404893,-0.017371395166585864,-0.007685586184176939,auto
1761301640.870783,20.69758415222168,6.681110306020468,2.888231448987949,9.904149367953385,-2.69877462873415,2.80048772656732,5.024343793096794,0.021547952277637634,-0.010278555573366863,0.001939549107325437,0.5048419274746557,-0.02601181862666154,-0.017737654531814542,-0.005055178092017111,auto
1761301640.9762418,20.803042888641357,6.401237710343377,3.1802630080800336,10.434441675536716,-2.6081717440238594,2.732248718129762,5.031765671184503,-0.0025419097375569363,-0.018686920427422482,0.0008459656461115346,0.5033789553635342,0.0019853220030984645,-0.010848222482300154,-0.0032977709670313823,auto
1761301641.080809,20.907610177993774,6.133393630371742,3.4618573131187236,10.960841554130317,-2.5140740988731576,2.650142964326454,5.0359675233556525,-0.0171277561556038,-0.024563541247099092,0.00014408330288907345,0.5017018663935708,0.011622623175433111,-0.0037090607788658144,-0.002162449953365195,auto
1761301641.1846018,21.01140284538269,5.877335409999338,3.732378438786864,11.48367449471959,-2.4195432727811803,2.5610414412708478,5.038356435298316,-0.02489675881043278,-0.02841135887563144,-0.00031013146548432665,0.5007416319865505,0.009218486869582444,0.0010937738632787442,-0.0014307911018975772,auto
1761301641.287635,21.114436149597168,5.6328403666025295,3.991521188837579,12.002866531531879,-2.32634456335648,2.469046643811518,5.039652418903834,-0.028489097783732837,-0.03052735333421448,-0.00060634336578701,0.49986648675021755,0.0023256312927171065,0.002284695184060167,-0.000945936599044823,auto
1761301641.3920681,21.21886920928955,5.394752720062787,4.244426925742001,12.529212159226415,-2.2335600027364277,2.3747744926090104,5.040321227601187,-0.030215623098113497,-0.031396376805628096,-0.0008036918054707898,0.4990109227136985,-0.002065387353978138,0.0013971665162343478,-0.0006179269539959738,auto
1761301641.495487,21.322288036346436,5.168417917660072,4.4852044725048446,13.050493626241414,-2.1439634297222057,2.2821175007052603,5.040609575525994,-0.031110252347221052,-0.03153912790887319,-0.0009316290617110613,0.49827795958634913,-0.0030871414795631017,0.00033476662256400134,-0.0004030113297781834,auto
1761301641.5976853,21.4244863986969,4.953725966239167,4.713821731220731,13.565640099778822,-2.058041833097275,2.1923221875762695,5.040670007830352,-0.031668271205922485,-0.03131650562968944,-0.0010143082334504987,0.49762103316929157,-0.0018982684962247558,-0.0002789293405085528,-0.0002616038680036783,auto
1761301641.7023818,21.52918291091919,4.742739624201605,4.938643158758201,14.093377174017661,-1.9729446017337657,2.102812560875859,5.0405888896917155,-0.031956436940223584,-0.030944023885094256,-0.0010691172249832912,0.4970083489723137,-0.0004916383091399945,-0.0003518874584425946,-0.0001641358155041721,auto
1761301641.8118126,21.6386137008667,4.531559548004816,5.16377528060333,14.644963076577092,-1.8872277437784222,2.0122446007551305,5.040404039858208,-0.03186212177318262,-0.03045396623229532,-0.0011049839332690904,0.49638366063791706,0.0006345657258039024,0.0002233999298028278,-9.761091481201136e-05,auto
1761301641.9168694,21.74367046356201,4.337475329587677,5.370747000961918,15.174480099977533,-1.8081221355172672,1.9283978813890317,5.040177554341589,-0.03146852455173409,-0.029847213662109354,-0.0011258457596512055,0.4958565510102665,0.0007744066145148121,0.00029297205850210525,-5.55835338088477e-05,auto
1761301642.0226448,21.849445819854736,4.150295974261753,5.570396833074842,15.70759259761863,-1.7315683247492768,1.847081843820832,5.039912298773893,-0.030860872663935893,-0.0291659640452178,-0.0011380938775293174,0.49537811067174353,0.0006425984357142608,0.000360791470322182,-2.7647757051084285e-05,auto
1761301642.1283693,21.955170392990112,3.9709012094017595,5.76176919357301,16.232385466091344,-1.6643405017694937,1.775546070873457,4.823863468652957,-0.03267272788824255,-0.030839915662124465,-0.001145028361047444,0.35,-0.002874436811517951,-0.0026924457723395303,-8.113690280758756e-06,auto
1761301642.2349586,22.06175971031189,3.796923399513409,5.947377081300779,16.73048146269846,-1.6004829710513813,1.7075257999418336,4.5243450137809464,-0.03497361176377839,-0.0329832117219627,-0.0011483707848108484,0.35,-0.002930750838620783,-0.002652403613257466,5.9759003310855294e-06,auto
1761301642.338906,22.165707111358643,3.6337237928791635,6.121495424867918,17.18610527140408,-1.5398143680159777,1.6428669827007596,4.24390522066952,-0.03712477190451156,-0.03497424645175296,-0.001148695884388551,0.35,-0.0013340673179875278,-0.0012002538994615622,1.4274237065600802e-05,auto
1761301642.44177,22.268571138381958,3.4783477717304856,6.287272673989879,17.608821604242966,-1.4814140866919547,1.5806038882909728,3.976641386297627,-0.03890466197830512,-0.036617551458431576,-0.0011472181466433498,0.35,-0.0003174053410976949,-0.0003002526835182535,1.9465454561488996e-05,auto
1761301642.546444,22.373245000839233,3.3263190390968433,6.449482483038044,18.011255103206683,-1.423663793581515,1.5190178176250761,3.7141577788032496,-0.04024190990906459,-0.03785684799622613,-0.0011445955379008788,0.35,-0.00024728725640526714,-0.00024280114622936917,2.3041983761909657e-05,auto
1761301642.651705,22.478506088256836,3.1794449657407178,6.606194979882639,18.38870590795266,-1.3672917744216861,1.4588895167283928,3.4589378731835394,-0.04122850150607768,-0.038775706176470005,-0.0011412452615622306,0.35,-0.00044781840900125897,-0.00042122330378995394,2.5408753288476987e-05,auto
1761301642.756739,22.583539962768555,3.038712430074903,6.756356122519289,18.738986519963102,-1.3127554348290928,1.4007111629694997,3.2121737387087683,-0.041973537634162346,-0.03947128858928784,-0.0011374405967870713,0.35,-0.0003030049710381177,-0.00027995309533298954,2.711387659235733e-05,auto
1761301642.861725,22.688526153564453,2.9036775924076257,6.900438789202156,19.06358828004425,-1.2599604766733523,1.344385631401871,2.972660682619112,-0.04251432332643974,-0.039976175637128186,-0.0011333303669874794,0.35,-0.0002062226218573358,-0.00019035697408838136,2.8137437737034244e-05,auto
1761301642.9697177,22.796518802642822,2.770463709230742,7.042579076555577,19.37161541045535,-1.2074323125467232,1.2883419656753734,2.7330125635294484,-0.042835111005298784,-0.04027538852587104,-0.0011288904693947607,0.35,9.867620755916376e-05,9.291968570305766e-05,2.9287471276861224e-05,auto
1761301643.0751536,22.901954650878906,2.6457849533591165,7.175612675063801,19.647702044254256,-1.1578622334586377,1.2354529954659295,2.504966614695057,-0.042985109907208066,-0.04041510365438029,-0.0011244193885303379,0.35,3.974300204954088e-05,3.6904863581380333e-05,2.9425644322840847e-05,auto
1761301643.1795967,23.00639772415161,2.5279127679681443,7.301383851408356,19.896593521459483,-1.110651253152884,1.1850807473346832,2.285329973618765,-0.04298082634435586,-0.040410509242865204,-0.0011199305461598663,0.35,0.00012400450492081863,0.00011608190823166756,2.968941944562212e-05,auto
1761301643.281185,23.107985973358154,2.416817222384796,7.419924515284856,20.119101667397963,-1.0658242235166944,1.1372522133646028,2.074045874824972,-0.04292306373732059,-0.040355784242977796,-0.0011154670340245683,0.35,0.0004967871495164753,0.0004658875104668242,2.9834379778130767e-05,auto
1761301643.3840337,23.210834741592407,2.3094546561334512,7.534481938322094,20.321643847253668,-1.0222301779325151,1.0907272595299453,1.8652320116793568,-0.042536854243568956,-0.0399696973915395,-0.0011109612750476482,0.35,0.0001654062593757533,9.467054503256728e-05,2.9967357846097975e-05,auto
1761301643.4876502,23.314451217651367,2.205742802214091,7.645142901401081,20.504172464894943,-0.9798741201340212,1.045526752754069,1.6584999449028224,-0.04210234172503287,-0.03956849535901871,-0.0011063954120899009,0.35,0.00014652859862243845,0.00011841534845363313,3.000944511123456e-05,auto
1761301643.5922146,23.419015645980835,2.105450042561436,7.7521550744202985,20.666829757870808,-0.9386725209985771,1.0015606672176112,1.4531544317567946,-0.041614464717935805,-0.03911805940072005,-0.001101774140814007,0.35,0.00029690829475029337,0.0002874581666224362,3.000263522720396e-05,auto
1761301643.6975036,23.524304628372192,2.0087352669434533,7.855349325367681,20.809075387234323,-0.898704472380317,0.9589137825868035,1.2493046223209985,-0.04103992353111187,-0.03858120239689093,-0.0010971222014783545,0.35,0.00033838368936990994,0.00032630850901364767,2.9936520764199263e-05,auto
1761301643.8015075,23.628308534622192,1.9172567818950645,7.952956550023558,20.928646635523435,-0.8606675795051321,0.9183302935698853,1.050439663922069,-0.04038755638041002,-0.03796826586051745,-0.0010925368308511833,0.35,0.0004092018165962265,0.0003849344147038348,2.9964157539350864e-05,auto
1761301643.9048977,23.731698751449585,1.8301673448974052,8.045880979009501,21.02712461652138,-0.8242331039365145,0.8794587979213687,0.8548607702198177,-0.03967044086293465,-0.0372940776123102,-0.001087991410648809,0.35,0.00038210157141895694,0.0003568941913674361,2.9823211215159057e-05,auto
1761301644.009497,23.8362979888916,1.745822196947093,8.135877756911562,21.106274531413746,-0.7887195684339762,0.8415715553249751,0.6588117444680399,-0.038879559399280915,-0.036550839858505116,-0.001083406518196395,0.35,0.00038973637750901473,0.0003655207882836101,2.9761599100284903e-05,auto
1761301644.1135528,23.940353870391846,1.6655333161850097,8.221547143321702,21.16474766766296,-0.7546781058455434,0.8052561001832542,0.4652966465477635,-0.03803281554999821,-0.03575491627764349,-0.001078860264897872,0.35,0.00044833394354817864,0.00042194204541254115,2.966225712348704e-05,auto
1761301644.2182207,24.045021772384644,1.5882803254925049,8.303978004089487,21.20331830613706,-0.7216772652317283,0.7700519187895244,0.27190417257696936,-0.03711644411549809,-0.03489313381797003,-0.0010743047508211686,0.35,0.000515378689612417,0.0004851286464496593,2.9592254970920876e-05,auto
1761301644.32294,24.149741172790527,1.5143836311339662,8.382828545656182,21.221707546931427,-0.6898427377345538,0.7360929052786355,0.0794657809460538,-0.03611810895993785,-0.03395404799817168,-0.001069767038462789,0.35,0.0005467411741667035,0.0005144236175557097,2.9570873532157378e-05,auto
1761301644.4264984,24.253299474716187,1.444527107252098,8.457369091282363,21.220121728828957,-0.6594595720673021,0.7036829234473314,-0.10995353343923138,-0.03505240922977913,-0.03295152920283681,-0.0010652996368017674,0.35,0.0005958690206181482,0.0005604447746900153,2.9496411104119165e-05,auto
1761301644.532508,24.35930895805359,1.376219026859443,8.530258506940084,21.198225212586387,-0.6294321365787027,0.6716531339999817,-0.3030088000118728,-0.03388413851396549,-0.03185250581692033,-0.0010607449040418973,0.35,0.0006620335349349097,0.0006225817800608282,2.9410305598316632e-05,auto
1761301644.6369257,24.46372675895691,1.3109348225636248,8.599919989985581,21.15833765584181,-0.6268558717094388,0.668854139033312,-0.46928826207110613,-0.004496800710711008,-0.004157652558897684,-0.0020314771884372114,0.35,-0.011224796087101835,-0.010619356042529228,0.0024065533766362986,auto
1761301644.7387435,24.565544605255127,1.2474919885226574,8.667610510817502,21.101468268765565,-0.6224295349408927,0.6640787646519728,-0.6483686687305517,0.006593531443659927,0.006272204240281014,-0.002436214982956737,0.35,-0.04305537619524434,-0.04050747547891892,0.00319094014762089,auto
1761301644.843476,24.67027711868286,1.1824720548193637,8.736977935578587,21.023815290768653,-0.6188021262713017,0.6601499359252565,-0.8345376652118942,0.002482322674631459,0.0023934767087135387,-0.0022943902821528973,0.35,-0.009065312955877553,-0.008483612618904054,0.00258405817450688,auto
1761301644.9469502,24.773751258850098,1.1185617144087558,8.80515530676422,20.934500466006458,-0.6157269041316298,0.6568026936060811,-0.8771893568363892,-0.00011778137329166272,-5.182867043883115e-05,-0.0019870914041453646,0.4349582826825015,0.0039795649613236245,0.0037677593805125627,0.0018211441078151418,auto
1761301645.052327,24.879127979278564,1.0538233323610835,8.87420877466552,20.842787102184666,-0.612649299587928,0.6534486722655738,-0.8566199003342769,-0.0006016839077935109,-0.0005041790683368993,-0.0016916661698827696,0.45203737582430814,0.003975004150509424,0.0037431774311307868,0.001215223875787477,auto
1761301645.1595018,24.986302852630615,0.9886392603803776,8.943729892258348,20.75414701766915,-0.6095210443003249,0.6500382664382683,-0.8016069530831099,-0.0004266593014854606,-0.0003380834537181239,-0.0014657218541640179,0.4746706079427369,0.0017575473397808024,0.0016501079920672825,0.0008012922706081995,auto
1761301645.2646842,25.091485261917114,0.9243824793486967,9.012254196832487,20.67285514355538,-0.6064869136174442,0.6467286799839936,-0.734921125760397,-0.0002188889301451385,-0.00014224412128117236,-0.0013093336063135647,0.4715791818892588,0.0003663185971549967,0.00034081378711073426,0.0005364178407099876,auto
1761301645.3719273,25.198728322982788,0.8595031974195879,9.081434342028327,20.59792018208124,-0.6035280185259293,0.643498379739537,-0.6624188005897995,-0.00011085652078023485,-4.085378556041461e-05,-0.0012012279180028016,0.4729111767528906,-0.0001059837961577866,-0.00010182150459367903,0.0003607784585396591,auto
1761301645.477703,25.30450415611267,0.7958142407028818,9.149337370165714,20.53156538832242,-0.600739987774281,0.6404518696980623,-0.5926250110834136,-7.443590962344489e-05,-6.9279170406389874e-06,-0.0011288053442940176,0.4715618987038156,-0.00018546835695083892,-0.0001752045836404143,0.0002495473050463301,auto
1761301645.581891,25.408692121505737,0.7333624959001912,9.215913706865754,20.473229954494993,-0.5981123936955501,0.6375782460770716,-0.5279523374145471,-7.30616777638862e-05,-5.9284805996058874e-06,-0.0010796885865894331,0.46921895898563604,-0.00011147432498137828,-0.00010489525546616326,0.00017519155215881097,auto
1761301645.6850286,25.511829614639282,0.671804307006403,9.281530076135418,20.42185843771328,-0.5956126479245916,0.6348424447967809,-0.46911021416823284,-8.2833569725709e-05,-1.5332207699398263e-05,-0.0010456232122335036,0.46688544112136354,-3.143413199260393e-05,-2.9445456495555193e-05,0.00012631035520310865,auto
1761301645.7900465,25.6168475151062,0.6093839512803396,9.348057943215045,20.375491852868933,-0.5931549216327421,0.6321509787647681,-0.4148559564656537,-8.932220570002255e-05,-2.160121783371493e-05,-0.0010209237963748092,0.46453832305748527,5.716727934074653e-06,5.414662120637077e-06,9.333756340341313e-05,auto
1761301645.896406,25.723206996917725,0.5464252259200146,9.415151944878609,20.334033997039313,-0.5907408265294244,0.6295059507608116,-0.3656640486737352,-9.140898359633317e-05,-2.3719448413871208e-05,-0.0010028001269476383,0.46209771528480803,1.0286690370042166e-05,9.637295349003485e-06,6.989224243568539e-05,auto
1761301646.005165,25.831966161727905,0.48230796391163605,9.48347266573365,20.296740935337592,-0.5883375439022218,0.6268716703014378,-0.32103506110217317,-9.121325983517811e-05,-2.3696701813652293e-05,-0.000989061056450527,0.4597766657682602,6.45898592261513e-06,6.008352427977305e-06,5.3988123582043266e-05,auto
1761301646.109928,25.936728954315186,0.4209338105551004,9.54887164815302,20.265992236651872,-0.5734694651111574,0.6117143971400599,-0.2538511572488955,-0.07516939141897018,-0.07507325325872663,-0.0026772851834578663,0.35,-0.3,-0.3,0.0030707912139527464,auto
1761301646.2180185,26.044819593429565,0.36730170673482515,9.60619504667998,20.239495529166614,-0.4257555996943293,0.45301009875781584,-0.24229224335115726,-0.10243851856191206,-0.09160356548656903,-0.011075609323559178,0.4472088682231493,0.061563361610280073,0.03026334078465308,0.02379188456351586,auto
1761301646.320942,26.147742986679077,0.3277190172702588,9.648213863803786,20.215874401734816,-0.3311446735665206,0.3509609900640977,-0.21495727142286936,-0.0935284240894239,-0.08657491825936131,-0.012695466947661254,0.44057172037213893,0.11419723021597643,0.10034476685919413,0.02565354754619166,auto
1761301646.425789,26.25259017944336,0.2965548016060908,9.681150226798248,20.194456262769975,-0.2638313722890423,0.27894818694042406,-0.1926498492968589,-0.07051974674544179,-0.06731914146379692,-0.010704532245199287,0.4508064579825059,0.06502520340158363,0.06584296308935222,0.019426214512001678,auto
1761301646.5319912,26.358792304992676,0.2714096766442972,9.707684625238022,20.175098033174084,-0.2136082013486713,0.22567919660578722,-0.17191502292401137,-0.046901574141151266,-0.04595395986167194,-0.008059444432896884,0.45200040064846325,0.012022373938820843,0.017834349774492022,0.013295846597875404,auto
1761301646.6368542,26.46365523338318,0.2511444366832653,9.729090124318889,20.158098244229485,-0.17684924083189704,0.18701903160984257,-0.1527558243160746,-0.02965295730915165,-0.029551450607157893,-0.005869063168793007,0.45020801566094315,-0.013029449912925078,-0.008194506061377732,0.008919082402274334,auto
1761301646.745835,26.572636127471924,0.2335494799154094,9.747721425199803,20.142451194616452,-0.148701538895604,0.1576493998059585,-0.13475234813267767,-0.01991767476864871,-0.019821179384560562,-0.004207269170404612,0.4493208625147759,-0.013357068303207964,-0.011131260796572926,0.005906183861188365,auto
1761301646.850463,26.677263975143433,0.21909217465156766,9.763079075771957,20.129173134962922,-0.1287939907261874,0.13697618982253681,-0.11933646885276464,-0.014992619512388868,-0.014655688772192406,-0.0030993986645252987,0.4486811927206431,-0.00480907192705074,-0.004964563950646817,0.004013512383597035,auto
1761301646.9547222,26.78152322769165,0.20645456138512858,9.776546922711622,20.117458410098628,-0.11398387372363974,0.12163879509731353,-0.10565023923105195,-0.012394419979171163,-0.011902877433613367,-0.002336645885422645,0.44786556407290146,0.002674685267026392,0.0016494607663292001,0.002751386395376174,auto
1761301647.0599465,26.88674759864807,0.1950681181421635,9.788718392006913,20.106999845164868,-0.10262003740331924,0.10985800753271241,-0.09338069041592618,-0.01029758676049382,-0.009819887812292523,-0.0018082337309370752,0.4471920762798664,0.004163110434401145,0.0034384544177550555,0.001863392840142227,auto
1761301647.1672819,26.994082927703857,0.1845544341005655,9.79998771699072,20.09758154368592,-0.09351995117350896,0.10037934580378526,-0.08233839619830939,-0.008347865731553729,-0.007959694178723853,-0.0014413702878472907,0.44654339895897355,0.0027644880762000435,0.0025392070649633406,0.001262527010893394,auto
1761301647.2731874,27.09998846054077,0.1750484153975112,9.81020047593645,20.08938039858869,-0.08625921070313919,0.09277496555643636,-0.07274060327800999,-0.006742007339423888,-0.0064389543482401695,-0.0011957588261486032,0.44597293073684563,0.000950517742293948,0.0010455967031603773,0.0008607581728610861,auto
1761301647.3798926,27.206693649291992,0.16618135758665423,9.819744535037888,20.08208251748556,-0.0801718056358109,0.08636499548314047,-0.06422732219196409,-0.005541549995528246,-0.005284415799172236,-0.0010273930202359637,0.44549141088995087,-1.5669152006694722e-06,0.000152183063641838,0.0005850154344398265,auto
1761301647.488525,27.31532597541809,0.15776747864875218,9.828814221800107,20.075527304231827,-0.0749083929163538,0.08079724140535911,-0.05662004832894811,-0.004707503648347109,-0.004466837078219316,-0.000911023689117552,0.4450678446199426,-0.0002111289643493153,-0.00011220155491325579,0.00039670304336829646,auto
1761301647.595222,27.422023057937622,0.15002006758728073,9.83717500917816,20.069842905848326,-0.07042336535215965,0.0760328171648681,-0.05007082485747752,-0.004152039249004141,-0.003914790097260352,-0.0008332277083616305,0.4446588220741371,-6.231296548423204e-05,-4.2924227208333376e-05,0.00027472419971424813,auto
1761301647.6998646,27.526665687561035,0.14285817684739338,9.844910483460556,20.06490525913529,-0.06652622545628602,0.07187818331848661,-0.04441980190332693,-0.0037635001676697842,-0.0035283552908176754,-0.0007805958112939689,0.44434508014049856,0.00013050301076123822,0.0001047095411611378,0.00019221293142904886,auto
1761301647.8060765,27.632877588272095,0.13598411378657246,9.852339841127298,20.060460555040645,-0.06296385401898166,0.06806827255143827,-0.039381547043914646,-0.0034504242452266984,-0.003222749122815744,-0.0007433812772729492,0.4440373611178064,0.00019807902149741565,0.000168861917177149,0.0001356290652857558,auto
1761301647.9124925,27.739293575286865,0.12945930395209929,9.85939518826517,20.05651072843037,-0.05970600975970056,0.06457419571571765,-0.03494726140877089,-0.0031868983736944192,-0.0029699721400464284,-0.0007172173671302715,0.4437781635926471,0.00017334926263265252,0.00015680464542488506,9.706086777552935e-05,auto
1761301648.0159276,27.84272861480713,0.12343675348126978,9.86590982267908,20.053096180664326,-0.05678018385665471,0.06142906706023638,-0.0311549749341131,-0.0029658038068095588,-0.00276011564286863,-0.0006990505645298563,0.4435570262212518,0.00011297473927472041,0.0001091637123437372,7.143934541784091e-05,auto
1761301648.1214018,27.94820284843445,0.11759628328475166,9.872229246812452,20.049993244506737,-0.05399948766717748,0.058434703471679776,-0.027752803915542034,-0.0027721163752873123,-0.002576620949217458,-0.0006855234504679755,0.4433674742890497,7.035209845262686e-05,7.080130265079444e-05,5.3790749635997996e-05,auto
1761301648.2268667,28.053667783737183,0.11204012324726975,9.87824231872484,20.047227256360042,-0.05139385596144996,0.0556251360180398,-0.024762434498772464,-0.0026060907497166643,-0.002419494897889341,-0.0006754403632421921,0.4431705047333944,5.452384317737413e-05,5.399901359925089e-05,4.160078445394809e-05,auto
1761301648.3314548,28.15825581550598,0.10679340901690258,9.883921407825648,20.044776721387258,-0.04896110562931888,0.052999415590738855,-0.022150686581873826,-0.0024626423304209217,-0.0022840234251085526,-0.0006677606246685909,0.44303989483185896,5.267668553452388e-05,4.984348020992139e-05,3.344614963282116e-05,auto
1761301648.4359941,28.262795209884644,0.10179624886714204,9.889331039149498,20.0425834530444,-0.046663238443277404,0.050517448172936796,-0.01985637259309005,-0.0023344726445129085,-0.002163478903202262,-0.0006616533153651706,0.44288502394522355,5.5698135030306924e-05,5.143213703244414e-05,2.793851387245483e-05,auto
1761301648.5411866,28.367987632751465,0.09700383847200549,9.894519513924184,20.040603950796072,-0.044472973203746796,0.04815035540431887,-0.01782406733272897,-0.0022163737736146604,-0.002052921858810471,-0.0006565893342064373,0.4427597850550479,5.506942543630646e-05,5.076654450290909e-05,2.4152461441518915e-05,auto
1761301648.6465526,28.473353624343872,0.09242851391971316,9.899473333857328,20.038822554549814,-0.04239114391073196,0.04589946237893442,-0.016030052167370218,-0.0021066724832814756,-0.0019505899997604422,-0.0006522597879317442,0.4426596149731367,4.983158778496865e-05,4.620628674016153e-05,2.1495777680652487e-05,auto
1761301648.7510836,28.577884674072266,0.08810077472638297,9.90415936718565,20.037230681123567,-0.04042806141714609,0.043776255520624224,-0.014457956908433364,-0.0020053436866610515,-0.0018562786178168615,-0.000648468200218887,0.44260380167508856,4.568624927468136e-05,4.254850685693966e-05,1.9629546270403557e-05,auto
1761301648.8546572,28.681458234786987,0.084010145439321,9.908588874805528,20.03580533107317,-0.03857676303495855,0.04177346009402622,-0.013093923217704336,-0.0019110392868463527,-0.0017686230161475711,-0.000645054036542995,0.4424815309844415,4.4892339069450885e-05,4.1791563559399756e-05,1.8483646084073417e-05,auto
1761301648.9584634,28.785264492034912,0.08009811016279231,9.912825164193775,20.034510008879863,-0.03680931487743171,0.03986102932446807,-0.011933156631617564,-0.0018217142885428989,-0.0016856784747100876,-0.0006418633561177591,0.4422830165332244,4.926965282395963e-05,4.564226381179871e-05,1.819998339091406e-05,auto
1761301649.0642405,28.89104151725769,0.07629606788664117,9.916942487415763,20.033312593425652,-0.035092410410220945,0.03800302684887173,-0.010787084191179519,-0.0017355315215723988,-0.0016057116811921113,-0.000638780265244296,0.44236755776530323,3.901788138731873e-05,3.613699221769001e-05,1.6903418786997133e-05,auto
1761301649.1694973,28.99629831314087,0.07268862580441841,9.920849193773458,20.032228430354166,-0.03346578455173207,0.036242541005472736,-0.009833922025993392,-0.0016554289615455927,-0.0015314392028973542,-0.0006358403402230204,0.442298875620743,4.038352386037574e-05,3.735112847142443e-05,1.650682929084538e-05,auto
1761301649.2741358,29.100936889648438,0.06926809166295629,9.924553589125711,20.031244299680967,-0.031924348037357136,0.03457411953372709,-0.00899734955121115,-0.0015793740904709683,-0.0014609671098675136,-0.0006329987712897111,0.4422435156918113,3.8673011023338865e-05,3.577292643500455e-05,1.6218312644609935e-05,auto
1761301649.3794293,29.206230401992798,0.06598514650383865,9.928109067977491,20.03033724629708,-0.030445413788199135,0.03297324755755306,-0.008254208487248026,-0.0015060448335382892,-0.0013930535133597612,-0.0006301984889284306,0.44218328572005694,3.502582770543037e-05,3.241581246970758e-05,1.5995427298851957e-05,auto
1761301649.4836702,29.310471296310425,0.06288484501286767,9.931466821520637,20.029512042354437,-0.02904901812270235,0.03146164423476069,-0.00759719572945367,-0.0014369010655473293,-0.0013290351983843468,-0.0006274699584060485,0.4421602546401146,3.040304869471143e-05,2.8156064211300664e-05,1.5734273079700626e-05,auto
1761301649.5881636,29.41496467590332,0.0599197300880252,9.934678236085782,20.028749113937096,-0.027713735184757542,0.0300161393406016,-0.007017139735066516,-0.001371087015431759,-0.0012681107526694546,-0.0006247688709418412,0.4421395982143415,2.8841822194465435e-05,2.670630978883728e-05,1.5589493685068716e-05,auto
1761301649.6949916,29.52179265022278,0.05702921049122676,9.93780892976805,20.02802793492464,-0.026412201525197482,0.028607125248192488,-0.006493772454674484,-0.001307107294423515,-0.0012088941640702319,-0.000622033474067024,0.4420918896096038,2.6036862395364653e-05,2.4116935704050508e-05,1.5445276627328325e-05,auto
1761301649.798534,29.625334978103638,0.05435721796679031,9.940703003114065,20.027379416889314,-0.02520893107222501,0.027304453135706397,-0.006042225421195157,-0.0012474011673134268,-0.0011536416885731889,-0.0006194057809106605,0.44209175117022337,2.4855472259777507e-05,2.30130608533144e-05,1.536496853588523e-05,auto
1761301649.902271,29.729072093963623,0.05180225324291336,9.943470382191695,20.026773739531954,-0.024058491043584415,0.026058949140737468,-0.005643947023938481,-0.0011907831024545424,-0.0011012501502790705,-0.0006167920244111707,0.442060215609114,2.553163941141034e-05,2.3621920511525304e-05,1.53239119809429e-05,auto
