timestamp,simulation_time,position_x,position_y,position_z,velocity_x,velocity_y,velocity_z,attitude_roll,attitude_pitch,attitude_yaw,control_throttle,control_roll,control_pitch,control_yaw,estimated_position_x,estimated_position_y,estimated_position_z,flight_mode,battery_level,setpoint_altitude,setpoint_position_x,setpoint_position_y,setpoint_position_z,position_error,attitude_error,waypoint_index,mission_complete
1761249152.3802793,0.10278773307800293,0.0,0.0,-0.0,0.0,0.0,-0.0,0.0,0.0,0.0,0.0,0.0,0.0,0.0,0.0,0.0,-0.0,manual,85.0,0.0,0.0,0.0,0.0,0.0,0.0,0,0
1761249152.4850092,0.2075176239013672,0.0,0.0,-0.0,0.0,0.0,-0.0,0.0,0.0,0.0,0.0,0.0,0.0,0.0,0.0,0.0,-0.0,manual,85.0,0.0,0.0,0.0,0.0,0.0,0.0,0,0
1761249152.5880342,0.31054258346557617,0.0,0.0,-0.0,0.0,0.0,-0.0,0.0,0.0,0.0,0.0,0.0,0.0,0.0,0.0,0.0,-0.0,manual,85.0,0.0,0.0,0.0,0.0,0.0,0.0,0,0
1761249152.6921682,0.4146766662597656,0.0,0.0,-0.0,0.0,0.0,-0.0,0.0,0.0,0.0,0.0,0.0,0.0,0.0,0.0,0.0,-0.0,manual,85.0,0.0,0.0,0.0,0.0,0.0,0.0,0,0
1761249152.7951193,0.5176277160644531,0.0,0.0,-0.0,0.0,0.0,-0.0,0.0,0.0,0.0,0.0,0.0,0.0,0.0,0.0,0.0,-0.0,manual,85.0,0.0,0.0,0.0,0.0,0.0,0.0,0,0
1761249152.9031725,0.6256809234619141,0.0,0.0,-0.0,0.0,0.0,-0.0,0.0,0.0,0.0,0.0,0.0,0.0,0.0,0.0,0.0,-0.0,manual,85.0,0.0,0.0,0.0,0.0,0.0,0.0,0,0
1761249153.004684,0.7271924018859863,0.0,0.0,-0.0,0.0,0.0,-0.0,0.0,0.0,0.0,0.0,0.0,0.0,0.0,0.0,0.0,-0.0,manual,85.0,0.0,0.0,0.0,0.0,0.0,0.0,0,0
1761249153.108288,0.830796480178833,0.0,0.0,-0.0,0.0,0.0,-0.0,0.0,0.0,0.0,0.0,0.0,0.0,0.0,0.0,0.0,-0.0,manual,85.0,0.0,0.0,0.0,0.0,0.0,0.0,0,0
1761249153.2142587,0.9367671012878418,0.0,0.0,-0.0,0.0,0.0,-0.0,0.0,0.0,0.0,0.0,0.0,0.0,0.0,0.0,0.0,-0.0,manual,85.0,0.0,0.0,0.0,0.0,0.0,0.0,0,0
1761249153.3164046,1.0389130115509033,0.0,0.0,-0.0,0.0,0.0,-0.0,0.0,0.0,0.0,0.0,0.0,0.0,0.0,0.0,0.0,-0.0,manual,85.0,0.0,0.0,0.0,0.0,0.0,0.0,0,0
1761249153.4190671,1.141575574874878,0.0,0.0,-0.0,0.0,0.0,-0.0,0.0,0.0,0.0,0.0,0.0,0.0,0.0,0.0,0.0,-0.0,manual,85.0,0.0,0.0,0.0,0.0,0.0,0.0,0,0
1761249153.5232706,1.245779037475586,0.0,0.0,-0.0,0.0,0.0,-0.0,0.0,0.0,0.0,0.0,0.0,0.0,0.0,0.0,0.0,-0.0,manual,85.0,0.0,0.0,0.0,0.0,0.0,0.0,0,0
1761249153.6286185,1.3511269092559814,0.0,0.0,-0.0,0.0,0.0,-0.0,0.0,0.0,0.0,0.0,0.0,0.0,0.0,0.0,0.0,-0.0,manual,85.0,0.0,0.0,0.0,0.0,0.0,0.0,0,0
1761249153.7337515,1.4562599658966064,0.0,0.0,-0.0,0.0,0.0,-0.0,0.0,0.0,0.0,0.0,0.0,0.0,0.0,0.0,0.0,-0.0,manual,85.0,0.0,0.0,0.0,0.0,0.0,0.0,0,0
1761249153.8372314,1.5597398281097412,0.0,0.0,-0.0,0.0,0.0,-0.0,0.0,0.0,0.0,0.0,0.0,0.0,0.0,0.0,0.0,-0.0,manual,85.0,0.0,0.0,0.0,0.0,0.0,0.0,0,0
1761249153.939749,1.662257432937622,0.0,0.0,-0.0,0.0,0.0,-0.0,0.0,0.0,0.0,0.0,0.0,0.0,0.0,0.0,0.0,-0.0,manual,85.0,0.0,0.0,0.0,0.0,0.0,0.0,0,0
1761249154.0426443,1.7651526927947998,0.0,0.0,-0.0,0.0,0.0,-0.0,0.0,0.0,0.0,0.0,0.0,0.0,0.0,0.0,0.0,-0.0,manual,85.0,0.0,0.0,0.0,0.0,0.0,0.0,0,0
1761249154.1444163,1.86692476272583,0.0,0.0,-0.0,0.0,0.0,-0.0,0.0,0.0,0.0,0.0,0.0,0.0,0.0,0.0,0.0,-0.0,manual,85.0,0.0,0.0,0.0,0.0,0.0,0.0,0,0
1761249154.2469795,1.9694879055023193,0.0,0.0,-0.0,0.0,0.0,-0.0,0.0,0.0,0.0,0.0,0.0,0.0,0.0,0.0,0.0,-0.0,manual,85.0,0.0,0.0,0.0,0.0,0.0,0.0,0,0
1761249154.3519397,2.0744481086730957,0.0,0.0,-0.0,0.0,0.0,-0.0,0.0,0.0,0.0,0.0,0.0,0.0,0.0,0.0,0.0,-0.0,manual,85.0,0.0,0.0,0.0,0.0,0.0,0.0,0,0
1761249154.455206,2.1777143478393555,0.0,0.0,-0.0,0.0,0.0,-0.0,0.0,0.0,0.0,0.0,0.0,0.0,0.0,0.0,0.0,-0.0,manual,85.0,0.0,0.0,0.0,0.0,0.0,0.0,0,0
1761249154.5576515,2.2801599502563477,0.0,0.0,-0.0,0.0,0.0,-0.0,0.0,0.0,0.0,0.0,0.0,0.0,0.0,0.0,0.0,-0.0,manual,85.0,0.0,0.0,0.0,0.0,0.0,0.0,0,0
1761249154.6629117,2.385420083999634,0.0,0.0,-0.0,0.0,0.0,-0.0,0.0,0.0,0.0,0.0,0.0,0.0,0.0,0.0,0.0,-0.0,manual,85.0,0.0,0.0,0.0,0.0,0.0,0.0,0,0
1761249154.7678645,2.490372896194458,0.0,0.0,-0.0,0.0,0.0,-0.0,0.0,0.0,0.0,0.0,0.0,0.0,0.0,0.0,0.0,-0.0,manual,85.0,0.0,0.0,0.0,0.0,0.0,0.0,0,0
1761249154.872191,2.5946993827819824,0.0,0.0,-0.0,0.0,0.0,-0.0,0.0,0.0,0.0,0.0,0.0,0.0,0.0,0.0,0.0,-0.0,manual,85.0,0.0,0.0,0.0,0.0,0.0,0.0,0,0
1761249154.9752235,2.6977319717407227,0.0,0.0,-0.0,0.0,0.0,-0.0,0.0,0.0,0.0,0.0,0.0,0.0,0.0,0.0,0.0,-0.0,manual,85.0,0.0,0.0,0.0,0.0,0.0,0.0,0,0
1761249155.079128,2.8016364574432373,0.0,0.0,-0.0,0.0,0.0,-0.0,0.0,0.0,0.0,0.0,0.0,0.0,0.0,0.0,0.0,-0.0,manual,85.0,0.0,0.0,0.0,0.0,0.0,0.0,0,0
1761249155.1843722,2.9068806171417236,0.0,0.0,-0.0,0.0,0.0,-0.0,0.0,0.0,0.0,0.0,0.0,0.0,0.0,0.0,0.0,-0.0,manual,85.0,0.0,0.0,0.0,0.0,0.0,0.0,0,0
1761249155.288087,3.0105953216552734,0.0,0.0,-0.0,0.0,0.0,-0.0,0.0,0.0,0.0,0.0,0.0,0.0,0.0,0.0,0.0,-0.0,manual,85.0,0.0,0.0,0.0,0.0,0.0,0.0,0,0
1761249155.39169,3.1141984462738037,0.0,0.0,-0.0,0.0,0.0,-0.0,0.0,0.0,0.0,0.0,0.0,0.0,0.0,0.0,0.0,-0.0,manual,85.0,0.0,0.0,0.0,0.0,0.0,0.0,0,0
1761249155.568974,3.291482448577881,0.0,0.0,-0.0,0.0,0.0,-0.0,0.0,0.0,0.0,0.0,0.0,0.0,0.0,0.0,0.0,-0.0,manual,85.0,0.0,0.0,0.0,0.0,0.0,0.0,0,0
1761249155.6722772,3.3947856426239014,0.0,0.0,-0.0,0.0,0.0,-0.0,0.0,0.0,0.0,0.0,0.0,0.0,0.0,0.0,0.0,-0.0,manual,85.0,0.0,0.0,0.0,0.0,0.0,0.0,0,0
1761249155.776535,3.4990434646606445,0.0,0.0,-0.0,0.0,0.0,-0.0,0.0,0.0,0.0,0.0,0.0,0.0,0.0,0.0,0.0,-0.0,manual,85.0,0.0,0.0,0.0,0.0,0.0,0.0,0,0
1761249155.8824892,3.6049976348876953,0.0,0.0,-0.0,0.0,0.0,-0.0,0.0,0.0,0.0,0.0,0.0,0.0,0.0,0.0,0.0,-0.0,manual,85.0,0.0,0.0,0.0,0.0,0.0,0.0,0,0
1761249155.987215,3.709723472595215,0.0,0.0,0.0009002072597732997,0.0,0.0,0.1646870473770992,0.0,0.0,0.0,1.0,0.0,0.0,0.0,0.0,0.0,0.0009002072597732997,stabilize,85.0,2.0,0.0,0.0,-2.0,1.9990997927402268,0.0,0,0
1761249156.0893404,3.8118488788604736,0.0,0.0,0.09110466458595075,0.0,0.0,1.2820970598123889,0.0,0.0,0.0,0.35,0.0,0.0,0.0,0.0,0.0,0.09110466458595075,stabilize,85.0,2.0,0.0,0.0,-2.0,1.9088953354140492,0.0,0,0
1761249156.194414,3.9169223308563232,0.0,0.0,0.22754481395280726,0.0,0.0,1.297677257286355,0.0,0.0,0.0,0.35,0.0,0.0,0.0,0.0,0.0,0.22754481395280726,stabilize,85.0,2.0,0.0,0.0,-2.0,1.7724551860471927,0.0,0,0
1761249156.2983704,4.020878791809082,0.0,0.0,0.36359469317767873,0.0,0.0,1.3202248690770666,0.0,0.0,0.0,0.35,0.0,0.0,0.0,0.0,0.0,0.36359469317767873,stabilize,85.0,2.0,0.0,0.0,-2.0,1.6364053068223212,0.0,0,0
1761249156.4014432,4.12395167350769,0.0,0.0,0.4975380481923922,0.0,0.0,1.3179397587083796,0.0,0.0,0.0,0.6247787439772445,0.0,0.0,0.0,0.0,0.0,0.4975380481923922,stabilize,85.0,2.0,0.0,0.0,-2.0,1.5024619518076077,0.0,0,0
1761249156.508414,4.23092246055603,0.0,0.0,0.6337194615404317,0.0,0.0,1.2365317569814296,0.0,0.0,0.0,0.35,0.0,0.0,0.0,0.0,0.0,0.6337194615404317,stabilize,85.0,2.0,0.0,0.0,-2.0,1.3662805384595682,0.0,0,0
1761249156.6124003,4.334908723831177,0.0,0.0,0.7601242708901736,0.0,0.0,1.1909201059203953,0.0,0.0,0.0,0.35,0.0,0.0,0.0,0.0,0.0,0.7601242708901736,stabilize,85.0,2.0,0.0,0.0,-2.0,1.2398757291098264,0.0,0,0
1761249156.7157462,4.4382545948028564,0.0,0.0,0.8790628636587671,0.0,0.0,1.1363763379134342,0.0,0.0,0.0,0.5484152244547427,0.0,0.0,0.0,0.0,0.0,0.8790628636587671,stabilize,85.0,2.0,0.0,0.0,-2.0,1.120937136341233,0.0,0,0
1761249156.8192735,4.541781902313232,0.0,0.0,0.9911114467921588,0.0,0.0,1.062863897421305,0.0,0.0,0.0,0.5376879951542677,0.0,0.0,0.0,0.0,0.0,0.9911114467921588,stabilize,85.0,2.0,0.0,0.0,-2.0,1.008888553207841,0.0,0,0
1761249156.9234583,4.6459667682647705,0.0,0.0,1.0967372204865333,0.0,0.0,0.9748744879356893,0.0,0.0,0.0,0.35,0.0,0.0,0.0,0.0,0.0,1.0967372204865333,stabilize,85.0,2.0,0.0,0.0,-2.0,0.9032627795134667,0.0,0,0
1761249157.0262036,4.748712062835693,0.0,0.0,1.193816933953333,0.0,0.0,0.899392733394992,0.0,0.0,0.0,0.35,0.0,0.0,0.0,0.0,0.0,1.193816933953333,stabilize,85.0,2.0,0.0,0.0,-2.0,0.8061830660466669,0.0,0,0
1761249157.132905,4.855413436889648,0.0,0.0,1.2859821667567257,0.0,0.0,0.8578810071434393,0.0,0.0,0.0,0.5900316400376079,0.0,0.0,0.0,0.0,0.0,1.2859821667567257,stabilize,85.0,2.0,0.0,0.0,-2.0,0.7140178332432743,0.0,0,0
1761249157.2366433,4.959151744842529,0.0,0.0,1.3697598917285156,0.0,0.0,0.7563391459697818,0.0,0.0,0.0,0.35,0.0,0.0,0.0,0.0,0.0,1.3697598917285156,stabilize,85.0,2.0,0.0,0.0,-2.0,0.6302401082714844,0.0,0,0
1761249157.3411984,5.063706874847412,0.0,0.0,1.4461334511946111,0.0,0.0,0.68288816696486,0.0,0.0,0.0,0.35183217728274846,0.0,0.0,0.0,0.0,0.0,1.4461334511946111,stabilize,85.0,2.0,0.0,0.0,-2.0,0.5538665488053889,0.0,0,0
1761249157.4480271,5.170535564422607,0.0,0.0,1.5175115053415278,0.0,0.0,0.624693590242557,0.0,0.0,0.0,0.40227298673207845,0.0,0.0,0.0,0.0,0.0,1.5175115053415278,stabilize,85.0,2.0,0.0,0.0,-2.0,0.4824884946584722,0.0,0,0
1761249157.5535011,5.276009559631348,0.0,0.0,1.580846338832013,0.0,0.0,0.5567702322800656,0.0,0.0,0.0,0.3553701551500197,0.0,0.0,0.0,0.0,0.0,1.580846338832013,stabilize,85.0,2.0,0.0,0.0,-2.0,0.4191536611679869,0.0,0,0
1761249157.6578908,5.380399227142334,0.0,0.0,1.638221182239241,0.0,0.0,0.5100997597415284,0.0,0.0,0.0,0.35,0.0,0.0,0.0,0.0,0.0,1.638221182239241,stabilize,85.0,2.0,0.0,0.0,-2.0,0.36177881776075904,0.0,0,0
1761249157.7619991,5.4845075607299805,0.0,0.0,1.689376495318082,0.0,0.0,0.45746747429704304,0.0,0.0,0.0,0.35,0.0,0.0,0.0,0.0,0.0,1.689376495318082,stabilize,85.0,2.0,0.0,0.0,-2.0,0.3106235046819179,0.0,0,0
1761249157.8661885,5.5886969566345215,0.0,0.0,1.7352997077679024,0.0,0.0,0.40389459986212606,0.0,0.0,0.0,0.35,0.0,0.0,0.0,0.0,0.0,1.7352997077679024,stabilize,85.0,2.0,0.0,0.0,-2.0,0.26470029223209757,0.0,0,0
1761249157.9704173,5.692925691604614,0.0,0.0,1.7771510523592422,0.0,0.0,0.36830073580672057,0.0,0.0,0.0,0.35,0.0,0.0,0.0,0.0,0.0,1.7771510523592422,stabilize,85.0,2.0,0.0,0.0,-2.0,0.2228489476407578,0.0,0,0
1761249158.0770812,5.79958963394165,0.0,0.0,1.8150538198819646,0.0,0.0,0.327026417098368,0.0,0.0,0.0,0.35,0.0,0.0,0.0,0.0,0.0,1.8150538198819646,stabilize,85.0,2.0,0.0,0.0,-2.0,0.18494618011803543,0.0,0,0
1761249158.1822255,5.904733896255493,0.0,0.0,1.848372608621358,0.0,0.0,0.3126696115097786,0.0,0.0,0.0,0.5350125832695855,0.0,0.0,0.0,0.0,0.0,1.848372608621358,stabilize,85.0,2.0,0.0,0.0,-2.0,0.1516273913786419,0.0,0,0
1761249158.287431,6.009939432144165,0.0,0.0,1.8786922141851023,0.0,0.0,0.3049345139304671,0.0,0.0,0.0,0.6508815413645352,0.0,0.0,0.0,0.0,0.0,1.8786922141851023,stabilize,85.0,2.0,0.0,0.0,-2.0,0.12130778581489765,0.0,0,0
1761249158.3927057,6.115214109420776,0.0,0.0,1.9072032266300356,0.0,0.0,0.25088324041805504,0.0,0.0,0.0,0.35,0.0,0.0,0.0,0.0,0.0,1.9072032266300356,stabilize,85.0,2.0,0.0,0.0,-2.0,0.09279677336996439,0.0,0,0
1761249158.4975317,6.2200400829315186,0.0,0.0,1.9324631401948107,0.0,0.0,0.2227711520932489,0.0,0.0,0.0,0.44263451071166526,0.0,0.0,0.0,0.0,0.0,1.9324631401948107,stabilize,85.0,2.0,0.0,0.0,-2.0,0.06753685980518931,0.0,0,0
1761249158.6037385,6.326246976852417,0.0,0.0,1.955551781633316,0.0,0.0,0.20546631081406475,0.0,0.0,0.0,0.35,0.0,0.0,0.0,0.0,0.0,1.955551781633316,stabilize,85.0,2.0,0.0,0.0,-2.0,0.04444821836668389,0.0,0,0
1761249158.7084093,6.430917739868164,0.0,0.0,1.9753283363026681,0.0,0.0,0.15863787086126663,0.0,0.0,0.0,0.3532673717500322,0.0,0.0,0.0,0.0,0.0,1.9753283363026681,stabilize,85.0,2.0,0.0,0.0,-2.0,0.02467166369733187,0.0,0,0
1761249158.815216,6.537724494934082,0.0,0.0,1.9939753769725692,0.0,0.0,0.16435044681118943,0.0,0.0,0.0,0.35,0.0,0.0,0.0,0.0,0.0,1.9939753769725692,stabilize,85.0,2.0,0.0,0.0,-2.0,0.006024623027430787,0.0,0,0
1761249158.9215918,6.644100189208984,0.0,0.0,2.010021899635523,0.0,0.0,0.11948264350673005,0.0,0.0,0.0,0.3559239031026352,0.0,0.0,0.0,0.0,0.0,2.010021899635523,stabilize,85.0,2.0,0.0,0.0,-2.0,0.010021899635523024,0.0,0,0
1761249159.0278454,6.750353813171387,0.0,0.0,2.0247934149649827,0.0,0.0,0.15978740349018272,0.0,0.0,0.0,0.657824975093547,0.0,0.0,0.0,0.0,0.0,2.0247934149649827,stabilize,85.0,2.0,0.0,0.0,-2.0,0.024793414964982663,0.0,0,0
1761249159.1330643,6.855572700500488,0.0,0.0,2.0382754326111123,0.0,0.0,0.1148402406446671,0.0,0.0,0.0,0.35,0.0,0.0,0.0,0.0,0.0,2.0382754326111123,stabilize,85.0,2.0,0.0,0.0,-2.0,0.038275432611112326,0.0,0,0
1761249159.2379863,6.960494756698608,0.0,0.0,2.049676401843091,0.0,0.0,0.09807640822830832,0.0,0.0,0.0,0.35,0.0,0.0,0.0,0.0,0.0,2.049676401843091,stabilize,85.0,2.0,0.0,0.0,-2.0,0.04967640184309108,0.0,0,0
1761249159.3429363,7.065444707870483,0.0,0.0,2.0602134467574698,0.0,0.0,0.09790803751319765,0.0,0.0,0.0,0.5091353294301669,0.0,0.0,0.0,0.0,0.0,2.0602134467574698,stabilize,85.0,2.0,0.0,0.0,-2.0,0.06021344675746976,0.0,0,0
1761249159.449294,7.171802520751953,0.0,0.0,2.06904182229266,0.0,0.0,0.09859766276941365,0.0,0.0,0.0,0.5972993977341663,0.0,0.0,0.0,0.0,0.0,2.06904182229266,stabilize,85.0,2.0,0.0,0.0,-2.0,0.0690418222926601,0.0,0,0
1761249159.5546043,7.277112722396851,0.0,0.0,2.076428539136848,0.0,0.0,0.05783454916217137,0.0,0.0,0.0,0.35,0.0,0.0,0.0,0.0,0.0,2.076428539136848,stabilize,85.0,2.0,0.0,0.0,-2.0,0.076428539136848,0.0,0,0
1761249159.66009,7.382598400115967,0.0,0.0,2.082594489981457,0.0,0.0,0.038018083999834126,0.0,0.0,0.0,0.35,0.0,0.0,0.0,0.0,0.0,2.082594489981457,stabilize,85.0,2.0,0.0,0.0,-2.0,0.08259448998145702,0.0,0,0
1761249159.7658014,7.488309860229492,0.0,0.0,2.0886290443955384,0.0,0.0,0.04977673900624764,0.0,0.0,0.0,0.35,0.0,0.0,0.0,0.0,0.0,2.0886290443955384,stabilize,85.0,2.0,0.0,0.0,-2.0,0.08862904439553843,0.0,0,0
1761249159.8711858,7.59369421005249,0.0,0.0,2.0935848279199143,0.0,0.0,0.028146258425488554,0.0,0.0,0.0,0.35,0.0,0.0,0.0,0.0,0.0,2.0935848279199143,stabilize,85.0,2.0,0.0,0.0,-2.0,0.09358482791991429,0.0,0,0
1761249159.9782343,7.700742721557617,0.0,0.0,2.0973216666955046,0.0,0.0,0.030460147247419245,0.0,0.0,0.0,0.35,0.0,0.0,0.0,0.0,0.0,2.0973216666955046,stabilize,85.0,2.0,0.0,0.0,-2.0,0.09732166669550457,0.0,0,0
1761249160.0846868,7.80719518661499,0.0,0.0,2.100610362205064,0.0,0.0,0.010027651284063535,0.0,0.0,0.0,0.35,0.0,0.0,0.0,0.0,0.0,2.100610362205064,stabilize,85.0,2.0,0.0,0.0,-2.0,0.10061036220506381,0.0,0,0
1761249160.1894262,7.9119346141815186,0.0,0.0,2.1032987233195017,0.0,0.0,0.0052465138119012975,0.0,0.0,0.0,0.35,0.0,0.0,0.0,0.0,0.0,2.1032987233195017,stabilize,85.0,2.0,0.0,0.0,-2.0,0.10329872331950174,0.0,0,0
1761249160.2936323,8.016140699386597,0.0,0.0,2.10526556313539,0.0,0.0,0.0010266905352350926,0.0,0.0,0.0,0.3987228824788444,0.0,0.0,0.0,0.0,0.0,2.10526556313539,stabilize,85.0,2.0,0.0,0.0,-2.0,0.10526556313539004,0.0,0,0
1761249160.39729,8.119798421859741,0.0,0.0,2.1065996301255185,0.0,0.0,0.018338887010078363,0.0,0.0,0.0,0.5259895814252353,0.0,0.0,0.0,0.0,0.0,2.1065996301255185,stabilize,85.0,2.0,0.0,0.0,-2.0,0.10659963012551854,0.0,0,0
1761249160.5047662,8.227274656295776,0.0,0.0,2.1075093369709306,0.0,0.0,0.03426783981679936,0.0,0.0,0.0,0.6233201631235165,0.0,0.0,0.0,0.0,0.0,2.1075093369709306,stabilize,85.0,2.0,0.0,0.0,-2.0,0.10750933697093057,0.0,0,0
1761249160.6091325,8.33164095878601,0.0,0.0,2.108518332698204,0.0,0.0,-0.01143357886125504,0.0,0.0,0.0,0.3648745213609166,0.0,0.0,0.0,0.0,0.0,2.108518332698204,stabilize,85.0,2.0,0.0,0.0,-2.0,0.10851833269820421,0.0,0,0
1761249160.7187102,8.441218614578247,0.0,0.0,2.109827055660606,0.0,0.0,0.051431063569891716,0.0,0.0,0.0,0.7146097902365869,0.0,0.0,0.0,0.0,0.0,2.109827055660606,stabilize,85.0,2.0,0.0,0.0,-2.0,0.10982705566060602,0.0,0,0
1761249160.8220856,8.544594049453735,0.0,0.0,2.111546945320438,0.0,0.0,0.00372713512623856,0.0,0.0,0.0,0.43375650168471624,0.0,0.0,0.0,0.0,0.0,2.111546945320438,stabilize,85.0,2.0,0.0,0.0,-2.0,0.11154694532043807,0.0,0,0
1761249160.926253,8.648761510848999,0.0,0.0,2.111863996832257,0.0,0.0,0.023985447709173203,0.0,0.0,0.0,0.35,0.0,0.0,0.0,0.0,0.0,2.111863996832257,stabilize,85.0,2.0,0.0,0.0,-2.0,0.11186399683225678,0.0,0,0
1761249161.0306215,8.753129959106445,0.0,0.0,2.1127656098925462,0.0,0.0,0.0021177927128658083,0.0,0.0,0.0,0.35,0.0,0.0,0.0,0.0,0.0,2.1127656098925462,stabilize,85.0,2.0,0.0,0.0,-2.0,0.11276560989254625,0.0,0,0
1761249161.1363995,8.85890793800354,0.0,0.0,2.113841524673854,0.0,0.0,0.0295973875807513,0.0,0.0,0.0,0.6196159631560285,0.0,0.0,0.0,0.0,0.0,2.113841524673854,stabilize,85.0,2.0,0.0,0.0,-2.0,0.113841524673854,0.0,0,0
1761249161.2443106,8.966819047927856,0.0,0.0,2.113781816040538,0.0,0.0,-0.0013157630902580573,0.0,0.0,0.0,0.5007071272876376,0.0,0.0,0.0,0.0,0.0,2.113781816040538,stabilize,85.0,2.0,0.0,0.0,-2.0,0.11378181604053816,0.0,0,0
1761249161.3498895,9.072397947311401,0.0,0.0,2.1137236806814346,0.0,0.0,-0.0020401044328761907,0.0,0.0,0.0,0.35,0.0,0.0,0.0,0.0,0.0,2.1137236806814346,stabilize,85.0,2.0,0.0,0.0,-2.0,0.11372368068143457,0.0,0,0
1761249161.4566252,9.179133653640747,0.0,0.0,2.1138909552652723,0.0,0.0,0.022315578569704616,0.0,0.0,0.0,0.35,0.0,0.0,0.0,0.0,0.0,2.1138909552652723,stabilize,85.0,2.0,0.0,0.0,-2.0,0.11389095526527226,0.0,0,0
1761249161.5646393,9.287147760391235,0.0,0.0,2.113578949063521,0.0,0.0,0.014340251993176605,0.0,0.0,0.0,0.602735304556585,0.0,0.0,0.0,0.0,0.0,2.113578949063521,stabilize,85.0,2.0,0.0,0.0,-2.0,0.11357894906352106,0.0,0,0
1761249161.6689634,9.391471862792969,0.0,0.0,2.112967478643443,0.0,0.0,-0.027465875713362734,0.0,0.0,0.0,0.35,0.0,0.0,0.0,0.0,0.0,2.112967478643443,stabilize,85.0,2.0,0.0,0.0,-2.0,0.11296747864344292,0.0,0,0
1761249161.775779,9.498287439346313,0.0032009624967456107,0.0,2.1523810303038817,0.1286083784866667,0.0,0.9058116663156355,0.0,-0.17242604857616056,0.0,1.0,0.0,-0.3,0.0,0.0032009624967456107,0.0,2.1523810303038817,auto,85.0,5,10.0,0.0,0.0,10.22588554091224,0.17242604857616056,0,0
1761249161.882684,9.605192422866821,0.04275052739246603,0.0,2.2948827818535165,0.6131316506087254,0.0,1.5159470436501485,0.0,-0.4385660336130805,0.0,0.43274153626826906,0.0,-0.3,0.0,0.04275052739246603,0.0,2.2948827818535165,auto,85.0,5,10.0,0.0,0.0,10.21828283236429,0.4385660336130805,0,0
1761249161.9870713,9.709579706192017,0.14294728954315547,0.0,2.4625577506618592,1.3580144360289945,0.0,1.6709336739169476,0.0,-0.6573211010391883,0.0,0.7210916392712451,0.0,0.06652215512003823,0.0,0.14294728954315547,0.0,2.4625577506618592,auto,85.0,5,10.0,0.0,0.0,10.160003878545982,0.6573211010391883,0,0
1761249162.091158,9.813666343688965,0.32585388758614653,0.0,2.639681305958188,2.091562360009205,0.0,1.705002632506778,0.0,-0.49372086973339996,0.0,0.35,0.0,0.3,0.0,0.32585388758614653,0.0,2.639681305958188,auto,85.0,5,10.0,0.0,0.0,10.027812343744632,0.4937208697334,0,0
1761249162.1997285,9.922236919403076,0.5783595348923988,0.0,2.828181713062605,2.4782102276097464,0.0,1.7144838071599489,0.0,-0.2129796952584391,0.0,0.35,0.0,0.3,0.0,0.5783595348923988,0.0,2.828181713062605,auto,85.0,5,10.0,0.0,0.0,9.836967055747147,0.2129796952584391,0,0
1761249162.3049707,10.02747917175293,0.844533469114366,0.0,3.0083168595893555,2.530630560721864,0.0,1.6912522695877326,0.0,0.054831094445627976,0.0,0.35,0.0,0.3,0.0,0.844533469114366,0.0,3.0083168595893555,auto,85.0,5,10.0,0.0,0.0,9.637039884002588,0.05483109444562797,0,0
1761249162.4084308,10.130939245223999,1.0993317726773328,0.0,3.1802698781058205,2.403516691005435,0.0,1.6311027849531199,0.0,0.019698873445700815,0.0,0.35,0.0,-0.3,0.0,1.0993317726773328,0.0,3.1802698781058205,auto,85.0,5,10.0,0.0,0.0,9.451772923132381,0.019698873445700815,0,0
1761249162.5131145,10.235622882843018,1.3520970710293354,0.0,3.3486029547547473,2.4343833158251122,0.0,1.5754634304683812,0.0,-0.021282971134573427,0.0,0.35,0.0,0.3,0.0,1.3520970710293354,0.0,3.3486029547547473,auto,85.0,5,10.0,0.0,0.0,9.273584356519954,0.021282971134573427,0,0
1761249162.6177022,10.340210676193237,1.6025416650255773,0.0,3.5082084198252677,2.3408834401928735,0.0,1.4777230583894987,0.0,0.04308507013783146,0.0,0.3552236271750261,0.0,-0.3,0.0,1.6025416650255773,0.0,3.5082084198252677,auto,85.0,5,10.0,0.0,0.0,9.100814952770127,0.04308507013783146,0,0
1761249162.7205906,10.443099021911621,1.8411687999465625,0.0,3.655873468659667,2.2853903789799985,0.0,1.390225788683943,0.0,0.07821261429547859,0.0,0.35,0.0,-0.3,0.0,1.8411687999465625,0.0,3.655873468659667,auto,85.0,5,10.0,0.0,0.0,8.940466283690974,0.07821261429547859,0,0
1761249162.8253906,10.547899007797241,2.077353438031345,0.0,3.796141987466815,2.2204569221333013,0.0,1.2998351857143096,0.0,0.05669569219539073,0.0,0.4306069500776506,0.0,-0.3,0.0,2.077353438031345,0.0,3.796141987466815,auto,85.0,5,10.0,0.0,0.0,8.785159220804267,0.05669569219539072,0,0
1761249162.9320853,10.654593706130981,2.3110283738904407,0.0,3.9294534453733765,2.1542302232840904,0.0,1.198413564842847,0.0,0.033248641481147645,0.0,0.35,0.0,-0.2371476990423783,0.0,2.3110283738904407,0.0,3.9294534453733765,auto,85.0,5,10.0,0.0,0.0,8.63486473816901,0.033248641481147645,0,0
1761249163.032806,10.755314350128174,2.526265975876773,0.0,4.046728240802941,2.113390228611893,0.0,1.1241344532742241,0.0,0.09036092178786123,0.0,0.35,0.0,0.3,0.0,2.526265975876773,0.0,4.046728240802941,auto,85.0,5,10.0,0.0,0.0,8.498982863746063,0.09036092178786123,0,0
1761249163.1390057,10.8615140914917,2.7461040462603377,0.0,4.159849615518863,2.054021403652448,0.0,1.0149643208380916,0.0,-0.014577656613089282,0.0,0.35,0.0,0.3,0.0,2.7461040462603377,0.0,4.159849615518863,auto,85.0,5,10.0,0.0,0.0,8.362018615825551,0.014577656613089282,0,0
1761249163.2453423,10.967850685119629,2.961049223859693,0.0,4.263051686070643,1.979003547802325,0.0,0.9215434374790116,0.0,0.027678122649146614,0.0,0.35,0.0,-0.3,0.0,2.961049223859693,0.0,4.263051686070643,auto,85.0,5,10.0,0.0,0.0,8.229242839231079,0.027678122649146614,0,0
1761249163.3501346,11.072643041610718,3.1659581684303353,0.0,4.3549315588623845,1.9321699882586543,0.0,0.8356663205852616,0.0,0.010831842274378625,0.0,0.35,0.0,0.3,0.0,3.1659581684303353,0.0,4.3549315588623845,auto,85.0,5,10.0,0.0,0.0,8.103675501771995,0.010831842274378624,0,0
1761249163.4555273,11.178035736083984,3.3663362399258845,0.0,4.439022345377405,1.8685618576952796,0.0,0.7564737450347933,0.0,0.038556489031900884,0.0,0.35,0.0,-0.01952061307731588,0.0,3.3663362399258845,0.0,4.439022345377405,auto,85.0,5,10.0,0.0,0.0,7.98188037147141,0.038556489031900884,0,0
1761249163.561604,11.284112453460693,3.561988708295264,0.0,4.515509724590697,1.8136895671017643,0.0,0.6893295649858429,0.0,0.06407872379271974,0.0,0.40661474879812265,0.0,-0.3,0.0,3.561988708295264,0.0,4.515509724590697,auto,85.0,5,10.0,0.0,0.0,7.8637025290247875,0.06407872379271974,0,0
1761249163.6703594,11.392867803573608,3.7559576263468784,0.0,4.586965962690315,1.762435801062244,0.0,0.6196565001769908,0.0,0.04140499656679865,0.0,0.35,0.0,-0.3,0.0,3.7559576263468784,0.0,4.586965962690315,auto,85.0,5,10.0,0.0,0.0,7.74779464795339,0.04140499656679865,0,0
1761249163.7747407,11.497249126434326,3.935170901927296,0.0,4.648814401939371,1.6717343187982727,0.0,0.5622385725573482,0.0,0.01854560852034156,0.0,0.35,0.0,-0.3,0.0,3.935170901927296,0.0,4.648814401939371,auto,85.0,5,10.0,0.0,0.0,7.64157230761499,0.01854560852034156,0,0
1761249163.8805335,11.603041887283325,4.112304616880316,0.0,4.705029443377438,1.6605776612041927,0.0,0.4857305335964619,0.0,0.08833512536798242,0.0,0.35314604316245596,0.0,-0.049974331802622535,0.0,4.112304616880316,0.0,4.705029443377438,auto,85.0,5,10.0,0.0,0.0,7.536727339333528,0.08833512536798242,0,0
1761249163.9859073,11.708415746688843,4.283279473433716,0.0,4.756336983340447,1.6114613213568263,0.0,0.46333482971562395,0.0,0.010052960595850214,0.0,0.35,0.0,0.3,0.0,4.283279473433716,0.0,4.756336983340447,auto,85.0,5,10.0,0.0,0.0,7.436641384251119,0.010052960595850213,0,0
1761249164.0934732,11.81598162651062,4.45290851877304,0.0,4.802448679467217,1.5502006985654813,0.0,0.39466857581634207,0.0,-0.00680099534914398,0.0,0.35,0.0,0.09536853231559278,0.0,4.45290851877304,0.0,4.802448679467217,auto,85.0,5,10.0,0.0,0.0,7.337147757815506,0.00680099534914398,0,0
1761249164.2004302,11.922938585281372,4.616574482951042,0.0,4.843881992640062,1.5081796188880532,0.0,0.3730533202301728,0.0,-0.0041244244507867255,0.0,0.4651005923031888,0.0,0.3,0.0,4.616574482951042,0.0,4.843881992640062,auto,85.0,5,10.0,0.0,0.0,7.241854945815782,0.0041244244507867255,0,0
1761249164.3066447,12.029153108596802,4.774314981490575,0.0,4.879900546253552,1.46233955646907,0.0,0.3216312450886751,0.0,-0.010494695708181057,0.0,0.47715971070822405,0.0,0.11109787182872358,0.0,4.774314981490575,0.0,4.879900546253552,auto,85.0,5,10.0,0.0,0.0,7.14991001719599,0.010494695708181057,0,0
1761249164.4111533,12.13366174697876,4.925336322172313,0.0,4.9105702799459605,1.419756313892374,0.0,0.27055495724492246,0.0,-0.0029676205461948296,0.0,0.3961255448840427,0.0,-0.22898841626283073,0.0,4.925336322172313,0.0,4.9105702799459605,auto,85.0,5,10.0,0.0,0.0,7.061579987322396,0.0029676205461948296,0,0
1761249164.5168102,12.239318609237671,5.073971353310754,0.0,4.9380395777889055,1.378081763537721,0.0,0.2616406185775286,0.0,0.01598771462486112,0.0,0.35,0.0,-0.3,0.0,5.073971353310754,0.0,4.9380395777889055,auto,85.0,5,10.0,0.0,0.0,6.974954702348447,0.015987714624861118,0,0
1761249164.6216552,12.344163656234741,5.217289445914079,0.0,4.963656719434719,1.3375085797735786,0.0,0.22784866871617668,0.0,0.05058845105777414,0.0,0.35,0.0,-0.3,0.0,5.217289445914079,0.0,4.963656719434719,auto,85.0,5,10.0,0.0,0.0,6.892910000323107,0.05058845105777414,0,0
1761249164.7274337,12.449942111968994,5.355994151918944,0.0,4.986321446417456,1.2990812570599353,0.0,0.21724955248276195,0.0,0.04406053384902073,0.0,0.35,0.0,-0.3,0.0,5.355994151918944,0.0,4.986321446417456,auto,85.0,5,10.0,0.0,0.0,6.813970346575756,0.04406053384902073,0,0
1761249164.832094,12.55460238456726,5.491775270378128,0.0,5.006228838545693,1.2574088651345845,0.0,0.16834036309807385,0.0,0.05247296411225635,0.0,0.35,0.0,-0.3,0.0,5.491775270378128,0.0,5.006228838545693,auto,85.0,5,10.0,0.0,0.0,6.736944218016114,0.05247296411225634,0,0
1761249164.9376366,12.660145044326782,5.623395251603461,0.0,5.0234780179025655,1.2281712032401098,0.0,0.13847870969934734,0.0,0.05716286320209567,0.0,0.35,0.0,-0.19522620078467343,0.0,5.623395251603461,0.0,5.0234780179025655,auto,85.0,5,10.0,0.0,0.0,6.6625821210726865,0.05716286320209567,0,0
1761249165.04287,12.765378475189209,5.751393738536441,0.0,5.038372429405093,1.1999003310900282,0.0,0.17284962257824346,0.0,0.0663395729396002,0.0,0.6824109325971551,0.0,-0.08791038013167515,0.0,5.751393738536441,0.0,5.038372429405093,auto,85.0,5,10.0,0.0,0.0,6.5905881302306195,0.0663395729396002,0,0
1761249165.1479998,12.870508193969727,5.8758065619923565,0.0,5.052508844982548,1.1764752992055114,0.0,0.12571683111944917,0.0,0.04828356247684687,0.0,0.4613972489983308,0.0,0.3,0.0,5.8758065619923565,0.0,5.052508844982548,auto,85.0,5,10.0,0.0,0.0,6.522025539871198,0.04828356247684688,0,0
1761249165.2581794,12.980687856674194,6.000646113539062,0.0,5.0643503618482475,1.0922320829509262,0.0,0.10173287705899957,0.0,0.006953980466690882,0.0,0.35,0.0,-0.3,0.0,6.000646113539062,0.0,5.0643503618482475,auto,85.0,5,10.0,0.0,0.0,6.45309817813914,0.006953980466690882,0,0
1761249165.3626251,13.08513355255127,6.1152172910710645,0.0,5.0741421439028045,1.0820086437955612,0.0,0.09151669050334602,0.0,0.05409546886177289,0.0,0.4635099559390493,0.0,-0.2882384338261074,0.0,6.1152172910710645,0.0,5.0741421439028045,auto,85.0,5,10.0,0.0,0.0,6.390497257031239,0.05409546886177289,0,0
1761249165.4680614,13.190569877624512,6.227866517393002,0.0,5.083023565015238,1.0495048759259271,0.0,0.0994654054498372,0.0,0.05553142623905779,0.0,0.35,0.0,-0.23353355317952432,0.0,6.227866517393002,0.0,5.083023565015238,auto,85.0,5,10.0,0.0,0.0,6.329780373212409,0.05553142623905779,0,0
1761249165.5738194,13.296327829360962,6.337827951674225,0.0,5.09100440193228,1.0279803717157334,0.0,0.08783225067157069,0.0,0.0653160777000265,0.0,0.5958607481291657,0.0,-0.05564398795725855,0.0,6.337827951674225,0.0,5.09100440193228,auto,85.0,5,10.0,0.0,0.0,6.271349929005115,0.0653160777000265,0,0
1761249165.6797924,13.402300834655762,6.44479627974506,0.0,5.098320428435325,1.0009253260553481,0.0,0.05398071471929752,0.0,0.050602044617769265,0.0,0.35,0.0,0.0060531684423496684,0.0,6.44479627974506,0.0,5.098320428435325,auto,85.0,5,10.0,0.0,0.0,6.2154923122400785,0.050602044617769265,0,0
1761249165.7856727,13.508181095123291,6.548494671102583,0.0,5.104089547760898,0.9727966052014712,0.0,0.03965181016511818,0.0,0.03412908036470951,0.0,0.35,0.0,0.1981162840184711,0.0,6.548494671102583,0.0,5.104089547760898,auto,85.0,5,10.0,0.0,0.0,6.1615435685361595,0.03412908036470951,0,0
1761249165.890428,13.61293649673462,6.648121505611586,0.0,5.109081675579307,0.9443240945846619,0.0,0.03697161375689438,0.0,0.024961209255505552,0.0,0.35,0.0,0.3,0.0,6.648121505611586,0.0,5.109081675579307,auto,85.0,5,10.0,0.0,0.0,6.110466840502761,0.024961209255505552,0,0
1761249165.9983938,13.72090220451355,6.748302428491332,0.0,5.113044034043983,0.9345247703304379,0.0,0.03690473469335141,0.0,-0.02620362165734375,0.0,0.4387775330189852,0.0,0.3,0.0,6.748302428491332,0.0,5.113044034043983,auto,85.0,5,10.0,0.0,0.0,6.059435319452477,0.02620362165734375,0,0
1761249166.1025193,13.825027704238892,6.843294349340868,0.0,5.11553896853906,0.8852373451775178,0.0,0.012544201484315589,0.0,-0.002955276208893507,0.0,0.4204095576627583,0.0,-0.12068134181502108,0.0,6.843294349340868,0.0,5.11553896853906,auto,85.0,5,10.0,0.0,0.0,6.0111171593593955,0.0029552762088935073,0,0
1761249166.2088068,13.931315183639526,6.937459097533169,0.0,5.116790436081573,0.8646475572805263,0.0,0.012817522868157523,0.0,0.04790130749219681,0.0,0.43771532183049167,0.0,-0.3,0.0,6.937459097533169,0.0,5.116790436081573,auto,85.0,5,10.0,0.0,0.0,5.9632793952705425,0.047901307492196815,0,0
1761249166.3161204,14.038628816604614,7.029466434812546,0.0,5.117912114877026,0.8379623412402883,0.0,0.022739297728065162,0.0,0.054692354623846556,0.0,0.35,0.0,-0.3,0.0,7.029466434812546,0.0,5.117912114877026,auto,85.0,5,10.0,0.0,0.0,5.917524319976245,0.054692354623846556,0,0
1761249166.4219615,14.144469976425171,7.117386915512487,0.0,5.118779519119836,0.8166226656777259,0.0,-0.001688452605150468,0.0,0.054524010913655455,0.0,0.35,0.0,-0.23257805755822863,0.0,7.117386915512487,0.0,5.118779519119836,auto,85.0,5,10.0,0.0,0.0,5.8746371769003165,0.05452401091365546,0,0
1761249166.528262,14.250770330429077,7.203185463472416,0.0,5.119488333630651,0.7892248298669693,0.0,0.032851960062039075,0.0,0.0618557254357232,0.0,0.5865813169017154,0.0,-0.3,0.0,7.203185463472416,0.0,5.119488333630651,auto,85.0,5,10.0,0.0,0.0,5.833638002988558,0.061855725435723194,0,0
1761249166.6330595,14.355567932128906,7.28492891305759,0.0,5.1211951623569805,0.7687569020234498,0.0,0.005720799815292334,0.0,0.06181808400910859,0.0,0.35,0.0,-0.18889217942673925,0.0,7.28492891305759,0.0,5.1211951623569805,auto,85.0,5,10.0,0.0,0.0,5.796399822139531,0.0618180840091086,0,0
1761249166.7376878,14.460196256637573,7.364056917682287,0.0,5.122855259729955,0.7446000036355277,0.0,0.021232389730157165,0.0,0.06078069146496001,0.0,0.5194808701803261,0.0,-0.15908946609843944,0.0,7.364056917682287,0.0,5.122855259729955,auto,85.0,5,10.0,0.0,0.0,5.761236147335177,0.06078069146496001,0,0
1761249166.842334,14.564842462539673,7.440732809389222,0.0,5.123818839841619,0.7255857220217672,0.0,-0.013078525407926691,0.0,0.05447174998938961,0.0,0.35,0.0,0.008031657314715866,0.0,7.440732809389222,0.0,5.123818839841619,auto,85.0,5,10.0,0.0,0.0,5.72742246184553,0.05447174998938961,0,0
1761249166.9464378,14.668946266174316,7.514090191191377,0.0,5.125617696403402,0.7090755335529942,0.0,-0.000588530209974329,0.0,0.040009136969491044,0.0,0.39894063598502927,0.0,0.2240724298731142,0.0,7.514090191191377,0.0,5.125617696403402,auto,85.0,5,10.0,0.0,0.0,5.69663974174378,0.040009136969491044,0,1
1761249167.0503902,14.77289867401123,7.586607658157298,0.0,5.125450359775012,0.6881631604097137,0.0,-0.007506259669054759,0.0,0.02676557079464039,0.0,0.35,0.0,0.12983759441013698,0.0,7.586607658157298,0.0,5.125450359775012,auto,85.0,5,10.0,0.0,0.0,5.665218794202286,0.02676557079464039,0,1
1761249167.158258,14.88076639175415,7.6590986910029395,0.0,5.125429658810311,0.6676905213944803,0.0,-0.005184721270201776,0.0,0.03571241977364226,0.0,0.35,0.0,0.17427877370853362,0.0,7.6590986910029395,0.0,5.125429658810311,auto,85.0,5,10.0,0.0,0.0,5.634700358126999,0.03571241977364226,0,1
1761249167.2654803,14.987988710403442,7.728587869046268,0.0,5.126109916368169,0.648215562315837,0.0,0.005366911647208941,0.0,0.009589358527117738,0.0,0.35,0.0,0.3,0.0,7.728587869046268,0.0,5.126109916368169,auto,85.0,5,10.0,0.0,0.0,5.606809783052378,0.009589358527117738,0,1
1761249167.373439,15.095947504043579,7.79652411556888,0.0,5.125946722527531,0.6288600319628939,0.0,-0.012536815958087038,0.0,-0.03274508396027611,0.0,0.35,0.0,0.3,0.0,7.79652411556888,0.0,5.125946722527531,auto,85.0,5,10.0,0.0,0.0,5.579483468517515,0.03274508396027611,0,1
1761249167.4816775,15.204185962677002,7.862829859115597,0.0,5.124721610363037,0.6026698455166776,0.0,-0.030857576869677238,0.0,-0.03399095565043278,0.0,0.35,0.0,-0.12699480121642653,0.0,7.862829859115597,0.0,5.124721610363037,auto,85.0,5,10.0,0.0,0.0,5.552501039604565,0.03399095565043278,0,1
1761249167.5882094,15.310717821121216,7.930145764465537,0.0,5.1231933023246405,0.6444944259367034,0.0,-0.025013396377044306,0.0,0.061897899428972655,0.0,0.35,0.0,0.3,0.0,7.930145764465537,0.0,5.1231933023246405,auto,85.0,5,10.0,0.0,0.0,5.525523157977353,0.061897899428972655,0,1
1761249167.693289,15.415797472000122,7.9946062928912545,0.0,5.121801744715551,0.6000356743756003,0.0,0.01515645169925908,0.0,-0.02905985449987636,0.0,0.35,0.0,0.2926279646959215,0.0,7.9946062928912545,0.0,5.121801744715551,auto,85.0,5,10.0,0.0,0.0,5.500405169865455,0.02905985449987636,0,1
1761249167.8034973,15.526005744934082,8.058846740413145,0.0,5.121819718492565,0.5489298274482346,0.0,-0.008627114079738528,0.0,0.03271893605769256,0.0,0.35,0.0,-0.3,0.0,8.058846740413145,0.0,5.121819718492565,auto,85.0,5,10.0,0.0,0.0,5.477327195443406,0.03271893605769256,0,1
1761249167.906826,15.629334449768066,8.116069146479017,0.0,5.120541551283862,0.5456407855935798,0.0,0.012380837664640126,0.0,0.0607443530103482,0.0,0.5682698250340625,0.0,-0.29464703854172125,0.0,8.116069146479017,0.0,5.120541551283862,auto,85.0,5,10.0,0.0,0.0,5.456110449695171,0.0607443530103482,0,1
1761249168.0119424,15.734450817108154,8.172458194682664,0.0,5.11944996884715,0.5238586738531631,0.0,0.03339115873127475,0.0,0.05859987362864047,0.0,0.721237987339936,0.0,-0.11982606945421216,0.0,8.172458194682664,0.0,5.11944996884715,auto,85.0,5,10.0,0.0,0.0,5.4358694827701335,0.05859987362864047,0,1
1761249168.11809,15.840598344802856,8.22711378173394,0.0,5.119420968724398,0.5110955465562178,0.0,-0.027963298904372408,0.0,0.053454929481802936,0.0,0.35,0.0,-0.11013395569984968,0.0,8.22711378173394,0.0,5.119420968724398,auto,85.0,5,10.0,0.0,0.0,5.417711380087794,0.053454929481802936,0,1
1761249168.2214267,15.94393515586853,8.278626835750343,0.0,5.119415637101028,0.49928862789685596,0.0,-0.01309430985203831,0.0,0.041843881652135054,0.0,0.35,0.0,0.3,0.0,8.278626835750343,0.0,5.119415637101028,auto,85.0,5,10.0,0.0,0.0,5.401068601304135,0.04184388165213506,0,1
1761249168.3281493,16.050657749176025,8.329815171004322,0.0,5.120992815360309,0.4852204505872293,0.0,0.024081280160872555,0.0,-0.00612282728447552,0.0,0.35,0.0,0.3,0.0,8.329815171004322,0.0,5.120992815360309,auto,85.0,5,10.0,0.0,0.0,5.386472387191754,0.00612282728447552,0,1
1761249168.433586,16.156094312667847,8.379256470373692,0.0,5.1214242369730805,0.4648791055071452,0.0,-0.003186037876735671,0.0,-0.02611229783208586,0.0,0.35,0.0,0.3,0.0,8.379256470373692,0.0,5.1214242369730805,auto,85.0,5,10.0,0.0,0.0,5.371759097714718,0.02611229783208586,0,1
1761249168.5385401,16.261048555374146,8.426951658667855,0.0,5.120831677668155,0.44944360915363524,0.0,0.019875052348231607,0.0,-0.02951896098792326,0.0,0.5848852087992291,0.0,0.3,0.0,8.426951658667855,0.0,5.120831677668155,auto,85.0,5,10.0,0.0,0.0,5.356995254354578,0.02951896098792326,0,1
1761249168.6436455,16.366153955459595,8.473264167429566,0.0,5.121475215362563,0.43477760212007155,0.0,0.030068052352730825,0.0,-0.028093664817750746,0.0,0.6252171750344425,0.0,0.19081571133996295,0.0,8.473264167429566,0.0,5.121475215362563,auto,85.0,5,10.0,0.0,0.0,5.344195981064649,0.028093664817750746,0,1
1761249168.7481549,16.47066330909729,8.517901807771906,0.0,5.122592098459024,0.4192289790501859,0.0,0.027225091386708082,0.0,-0.026509940613914054,0.0,0.6086954395279763,0.0,0.15344939474933336,0.0,8.517901807771906,0.0,5.122592098459024,auto,85.0,5,10.0,0.0,0.0,5.332688333158109,0.026509940613914054,0,1
1761249168.8530302,16.575538635253906,8.561250885408553,0.0,5.1236686830572316,0.4052286121946228,0.0,0.008188693852782708,0.0,-0.028001960790180067,0.0,0.5089608368005439,0.0,0.16499626632451564,0.0,8.561250885408553,0.0,5.1236686830572316,auto,85.0,5,10.0,0.0,0.0,5.321839887527536,0.028001960790180067,0,1
1761249168.9562519,16.678760290145874,8.602686883464614,0.0,5.122969585243761,0.3911922862449677,0.0,-0.026042531165380422,0.0,-0.02299805088798579,0.0,0.35,0.0,-0.06004766807592763,0.0,8.602686883464614,0.0,5.122969585243761,auto,85.0,5,10.0,0.0,0.0,5.310113117154329,0.02299805088798579,0,1
1761249169.0645266,16.78703498840332,8.646129141936392,0.0,5.1216232215180915,0.3819930775737173,0.0,0.014516003405882223,0.0,0.05631566843181442,0.0,0.35,0.0,-0.3,0.0,8.646129141936392,0.0,5.1216232215180915,auto,85.0,5,10.0,0.0,0.0,5.297545726419664,0.05631566843181442,0,1
1761249169.1710916,16.89359998703003,8.686885336133235,0.0,5.120150024646991,0.3812656938039541,0.0,-0.03637422156486236,0.0,0.05338074780361839,0.0,0.35865752002181805,0.0,-0.1751376817454019,0.0,8.686885336133235,0.0,5.120150024646991,auto,85.0,5,10.0,0.0,0.0,5.285849637982007,0.05338074780361839,0,1
1761249169.2779248,17.000433206558228,8.726792718370595,0.0,5.120688688116083,0.3766448326180414,0.0,-0.005735937130470046,0.0,0.044207409353843985,0.0,0.35,0.0,0.09721172015495941,0.0,8.726792718370595,0.0,5.120688688116083,auto,85.0,5,10.0,0.0,0.0,5.276600176495671,0.044207409353843985,0,1
1761249169.3816104,17.104118824005127,8.764110642001425,0.0,5.121395206006371,0.3648461171616346,0.0,-0.0075357686124562576,0.0,0.0008419797767579701,0.0,0.35,0.0,0.3,0.0,8.764110642001425,0.0,5.121395206006371,auto,85.0,5,10.0,0.0,0.0,5.268406909239183,0.0008419797767579701,0,1
1761249169.486134,17.20864248275757,8.80062721695016,0.0,5.1202598805642685,0.3479725299302032,0.0,-0.013451893512702616,0.0,-0.01841492595413871,0.0,0.35,0.0,0.3,0.0,8.80062721695016,0.0,5.1202598805642685,auto,85.0,5,10.0,0.0,0.0,5.25885503862169,0.01841492595413871,0,1
1761249169.591986,17.314494371414185,8.83636912611174,0.0,5.117859701629524,0.33693528350890006,0.0,-0.033639715487717894,0.0,-0.019734471150334058,0.0,0.35,0.0,0.29385481164274746,0.0,8.83636912611174,0.0,5.117859701629524,auto,85.0,5,10.0,0.0,0.0,5.2484783257844745,0.019734471150334058,0,1
1761249169.7021396,17.42464804649353,8.872220851149555,0.0,5.116216162690386,0.32384851066816556,0.0,-0.02757576984661916,0.0,-0.00997565617022951,0.0,0.35,0.0,0.3,0.0,8.872220851149555,0.0,5.116216162690386,auto,85.0,5,10.0,0.0,0.0,5.23904128939219,0.00997565617022951,0,1
1761249169.8083372,17.530845642089844,8.905351481314113,0.0,5.1147895135443,0.3145364158278303,0.0,-0.01393691800405722,0.0,-0.022392290243241565,0.0,0.35,0.0,0.3,0.0,8.905351481314113,0.0,5.1147895135443,auto,85.0,5,10.0,0.0,0.0,5.230614413940674,0.022392290243241568,0,1
1761249169.9128373,17.635345697402954,8.937089672785687,0.0,5.112236426438225,0.30170390195265856,0.0,-0.018782356856279162,0.0,-0.03460711626268172,0.0,0.46303073297627756,0.0,0.3,0.0,8.937089672785687,0.0,5.112236426438225,auto,85.0,5,10.0,0.0,0.0,5.221564865392435,0.03460711626268172,0,1
1761249170.0179212,17.740429639816284,8.96809756787742,0.0,5.110068695678469,0.2919026309319291,0.0,0.014974325914662454,0.0,-0.03398790349429826,0.0,0.651545657032151,0.0,0.2118964210410912,0.0,8.96809756787742,0.0,5.110068695678469,auto,85.0,5,10.0,0.0,0.0,5.213216349239071,0.03398790349429826,0,1
1761249170.1222336,17.84474205970764,8.998025076147323,0.0,5.109203537311498,0.2806107054232511,0.0,0.014525259833774631,0.0,-0.031801745419059925,0.0,0.6421351810282064,0.0,0.09544621755002214,0.0,8.998025076147323,0.0,5.109203537311498,auto,85.0,5,10.0,0.0,0.0,5.206526148374356,0.03180174541905992,0,1
1761249170.2281392,17.950647592544556,9.027644322588491,0.0,5.1078030357789235,0.2701899388979184,0.0,-0.033285148050762596,0.0,-0.022400514954653887,0.0,0.35,0.0,0.007774149221911254,0.0,9.027644322588491,0.0,5.1078030357789235,auto,85.0,5,10.0,0.0,0.0,5.1995314611709755,0.022400514954653887,0,1
1761249170.3329475,18.055455923080444,9.056097533630838,0.0,5.106695444099347,0.25895654210292857,0.0,-0.005903294312604222,0.0,-0.011378235504055747,0.0,0.35,0.0,-0.28153121692780436,0.0,9.056097533630838,0.0,5.106695444099347,auto,85.0,5,10.0,0.0,0.0,5.193196532464645,0.011378235504055747,0,1
1761249170.4378898,18.160398244857788,9.083797343372874,0.0,5.104876768155146,0.25130934376384045,0.0,-0.02532359756641473,0.0,0.017785162467156463,0.0,0.35,0.0,-0.3,0.0,9.083797343372874,0.0,5.104876768155146,auto,85.0,5,10.0,0.0,0.0,5.186443302115692,0.017785162467156463,0,1
1761249170.5396616,18.26217007637024,9.110726874615759,0.0,5.102962898929141,0.2698578349663745,0.0,-0.04137910071522162,0.0,0.053289333114519985,0.0,0.36455612438227003,0.0,0.10558279568591718,0.0,9.110726874615759,0.0,5.102962898929141,auto,85.0,5,10.0,0.0,0.0,5.179868438423697,0.053289333114519985,0,1
1761249170.6441913,18.366699695587158,9.136925010660832,0.0,5.101405563967911,0.2576401724209952,0.0,-0.013416996007803546,0.0,-0.014254304202329184,0.0,0.4693061463166529,0.0,0.3,0.0,9.136925010660832,0.0,5.101405563967911,auto,85.0,5,10.0,0.0,0.0,5.1738996091251686,0.014254304202329184,0,1
1761249170.7512562,18.473764657974243,9.163165061872219,0.0,5.099703909155039,0.2500378225631713,0.0,0.040191477185894664,0.0,-0.04545644455978173,0.0,0.7554209256049865,0.0,0.3,0.0,9.163165061872219,0.0,5.099703909155039,auto,85.0,5,10.0,0.0,0.0,5.1679079591961115,0.04545644455978173,0,1
1761249170.8554723,18.577980756759644,9.188544596343945,0.0,5.100220922883603,0.23012453254329057,0.0,-0.009526084668709172,0.0,-0.02148535163392502,0.0,0.4736170348955453,0.0,-0.07293047858913253,0.0,9.188544596343945,0.0,5.100220922883603,auto,85.0,5,10.0,0.0,0.0,5.164369596992675,0.02148535163392502,0,1
1761249170.9603798,18.68288826942444,9.213102550546072,0.0,5.100892799400726,0.22016390007898695,0.0,0.0021267426687781206,0.0,0.00413257480559781,0.0,0.35,0.0,-0.3,0.0,9.213102550546072,0.0,5.100892799400726,auto,85.0,5,10.0,0.0,0.0,5.161231921444266,0.004132574805597809,0,1
1761249171.0662446,18.788753032684326,9.23696656182977,0.0,5.100560785438171,0.21375644645574135,0.0,0.0014042238253576065,0.0,0.02740849671446711,0.0,0.35,0.0,-0.3,0.0,9.23696656182977,0.0,5.100560785438171,auto,85.0,5,10.0,0.0,0.0,5.157319105282855,0.02740849671446711,0,1
1761249171.1730013,18.895509719848633,9.260257390384707,0.0,5.1002437925407795,0.2085435396582867,0.0,0.0067187783724239475,0.0,0.039913467689166385,0.0,0.521822602381753,0.0,-0.3,0.0,9.260257390384707,0.0,5.1002437925407795,auto,85.0,5,10.0,0.0,0.0,5.153610954644442,0.039913467689166385,0,1
1761249171.277774,19.000282526016235,9.282195811716223,0.0,5.099470619230291,0.20068594923161925,0.0,0.026033734917227734,0.0,0.041679206168428136,0.0,0.35,0.0,-0.3,0.0,9.282195811716223,0.0,5.099470619230291,auto,85.0,5,10.0,0.0,0.0,5.149742075979214,0.041679206168428136,0,1
1761249171.384337,19.106845378875732,9.303895311756742,0.0,5.1004221136238765,0.1989532293919222,0.0,0.02622257784575998,0.0,0.05288573575787636,0.0,0.5870809234260299,0.0,-0.23556609921650162,0.0,9.303895311756742,0.0,5.1004221136238765,auto,85.0,5,10.0,0.0,0.0,5.147705068682325,0.05288573575787637,0,1
1761249171.4895656,19.212074041366577,9.324588836570989,0.0,5.101205537342284,0.1973193664856128,0.0,0.01042803270731417,0.0,0.04412079065253756,0.0,0.5436600685981565,0.0,-0.03954200137555904,0.0,9.324588836570989,0.0,5.101205537342284,auto,85.0,5,10.0,0.0,0.0,5.145724261354869,0.044120790652537566,0,1
1761249171.595423,19.317931413650513,9.344819037384255,0.0,5.100848047650155,0.1974269422808188,0.0,-0.011194818162689345,0.0,0.027178114005758782,0.0,0.35,0.0,0.21225737698375113,0.0,9.344819037384255,0.0,5.100848047650155,auto,85.0,5,10.0,0.0,0.0,5.142753435562558,0.027178114005758786,0,1
1761249171.7015676,19.424076080322266,9.364441451653642,0.0,5.102123861909324,0.19238628761497165,0.0,0.015589568282123923,0.0,0.0024907406759052085,0.0,0.35,0.0,0.3,0.0,9.364441451653642,0.0,5.102123861909324,auto,85.0,5,10.0,0.0,0.0,5.141556434645121,0.0024907406759052085,0,1
1761249171.8066823,19.5291907787323,9.383337522726741,0.0,5.101850705393094,0.1834391428248181,0.0,-0.014634059158851855,0.0,-0.02546353313799702,0.0,0.3843977656284862,0.0,0.3,0.0,9.383337522726741,0.0,5.101850705393094,auto,85.0,5,10.0,0.0,0.0,5.138983676856427,0.02546353313799702,0,1
1761249171.912432,19.63494038581848,9.40168583443228,0.0,5.10047825445961,0.17514564190715098,0.0,0.010378492760405145,0.0,-0.038669770355989376,0.0,0.35,0.0,0.3,0.0,9.40168583443228,0.0,5.10047825445961,auto,85.0,5,10.0,0.0,0.0,5.135451125746826,0.038669770355989376,0,1
1761249172.0214007,19.743909120559692,9.420240313782886,0.0,5.099023865590829,0.16458651621197168,0.0,0.030821477801881138,0.0,-0.03083587666918341,0.0,0.7082528343781533,0.0,0.1982992960529896,0.0,9.420240313782886,0.0,5.099023865590829,auto,85.0,5,10.0,0.0,0.0,5.131877402630289,0.03083587666918341,0,1
1761249172.1253617,19.847870111465454,9.437036390300838,0.0,5.098522235752986,0.16013746666428386,0.0,0.025213009767496755,0.0,-0.03717254672211308,0.0,0.6777308960610654,0.0,0.16114147934016676,0.0,9.437036390300838,0.0,5.098522235752986,auto,85.0,5,10.0,0.0,0.0,5.129508457378069,0.03717254672211308,0,1
1761249172.2288327,19.951341152191162,9.453463898679228,0.0,5.097703136271909,0.1511746296077911,0.0,-0.010460710353122894,0.0,-0.028508478365627327,0.0,0.5144531851634876,0.0,-0.0660809854976015,0.0,9.453463898679228,0.0,5.097703136271909,auto,85.0,5,10.0,0.0,0.0,5.126917102470389,0.028508478365627327,0,1
1761249172.335539,20.05804753303528,9.470157450856934,0.0,5.095483262577398,0.14461137499266902,0.0,-0.0327851865724533,0.0,-0.002556324608982783,0.0,0.35,0.0,-0.3,0.0,9.470157450856934,0.0,5.095483262577398,auto,85.0,5,10.0,0.0,0.0,5.122956451707239,0.002556324608982783,0,1
1761249172.4386969,20.161205291748047,9.485740980996916,0.0,5.0946565181518215,0.14005067380936467,0.0,0.010128683370481627,0.0,0.01800711916435322,0.0,0.35,0.0,-0.3,0.0,9.485740980996916,0.0,5.0946565181518215,auto,85.0,5,10.0,0.0,0.0,5.12054561317179,0.01800711916435322,0,1
1761249172.5427241,20.2652325630188,9.500927354358446,0.0,5.0935435874330715,0.13742641052706542,0.0,0.008666072684630486,0.0,0.03585027117418502,0.0,0.35,0.0,-0.3,0.0,9.500927354358446,0.0,5.0935435874330715,auto,85.0,5,10.0,0.0,0.0,5.117935109270947,0.03585027117418502,0,1
1761249172.6478388,20.370347261428833,9.515841527469743,0.0,5.092988648088385,0.1368409316160983,0.0,-0.004753223551366606,0.0,0.049818297017049235,0.0,0.35,0.0,-0.3,0.0,9.515841527469743,0.0,5.092988648088385,auto,85.0,5,10.0,0.0,0.0,5.115949842998853,0.049818297017049235,0,1
1761249172.7479105,20.47041893005371,9.529279086529261,0.0,5.091128547782627,0.13415751838306503,0.0,-0.031851537093703586,0.0,0.04118743815720701,0.0,0.35,0.0,-0.1382274894709285,0.0,9.529279086529261,0.0,5.091128547782627,auto,85.0,5,10.0,0.0,0.0,5.112843442589061,0.04118743815720701,0,1
1761249172.8527565,20.575264930725098,9.542977757320097,0.0,5.088667383698436,0.13441562646898103,0.0,-0.04815385725381558,0.0,0.03690991145408701,0.0,0.35,0.0,0.007258910724064449,0.0,9.542977757320097,0.0,5.088667383698436,auto,85.0,5,10.0,0.0,0.0,5.109149153452114,0.03690991145408701,0,1
1761249172.9580219,20.680530309677124,9.556285141146015,0.0,5.088768457624768,0.13340917998724058,0.0,-0.014730394075770425,0.0,0.025160162781572605,0.0,0.35,0.0,0.19201777418529203,0.0,9.556285141146015,0.0,5.088768457624768,auto,85.0,5,10.0,0.0,0.0,5.108076672416398,0.025160162781572605,0,1
1761249173.0622787,20.78478717803955,9.569074400550308,0.0,5.088732390142769,0.12955929829496934,0.0,-0.007115835653499016,0.0,0.0023778810736846435,0.0,0.4246756657929052,0.0,0.3,0.0,9.569074400550308,0.0,5.088732390142769,auto,85.0,5,10.0,0.0,0.0,5.1069456831602595,0.0023778810736846435,0,1
1761249173.1689506,20.891458988189697,9.581852763937516,0.0,5.088463093108539,0.12609918309464788,0.0,0.01885847162956885,0.0,-0.009137083881810809,0.0,0.35,0.0,0.3,0.0,9.581852763937516,0.0,5.088463093108539,auto,85.0,5,10.0,0.0,0.0,5.10561492486012,0.009137083881810809,0,1
1761249173.2738457,20.99635410308838,9.594039430948325,0.0,5.087871114207207,0.12037670412357193,0.0,-0.01274859870803084,0.0,-0.03357579045888143,0.0,0.35,0.0,0.3,0.0,9.594039430948325,0.0,5.087871114207207,auto,85.0,5,10.0,0.0,0.0,5.104041188941254,0.03357579045888143,0,1
1761249173.3774962,21.10000467300415,9.605846254083021,0.0,5.086068589528557,0.11304462466940854,0.0,-0.023049883623255336,0.0,-0.041643728272822415,0.0,0.35,0.0,0.25817512022760325,0.0,9.605846254083021,0.0,5.086068589528557,auto,85.0,5,10.0,0.0,0.0,5.101318542574007,0.041643728272822415,0,1
1761249173.4863372,21.208845615386963,9.617853756502186,0.0,5.0836985320734405,0.10583113582243188,0.0,-0.034822730157300204,0.0,-0.03362998797087012,0.0,0.35,0.0,0.12457767750464675,0.0,9.617853756502186,0.0,5.0836985320734405,auto,85.0,5,10.0,0.0,0.0,5.098041439261272,0.03362998797087012,0,1
1761249173.589488,21.311996459960938,9.628859062148424,0.0,5.081100446644425,0.10050937661710406,0.0,-0.04290542188964398,0.0,-0.03539501698808274,0.0,0.35,0.0,0.059174474775401255,0.0,9.628859062148424,0.0,5.081100446644425,auto,85.0,5,10.0,0.0,0.0,5.094637116089773,0.03539501698808274,0,1
1761249173.6946263,21.417134761810303,9.639733464324602,0.0,5.080267359699887,0.09499658825215207,0.0,-0.024649806381612425,0.0,-0.026095794963509417,0.0,0.35,0.0,-0.11843270520908915,0.0,9.639733464324602,0.0,5.080267359699887,auto,85.0,5,10.0,0.0,0.0,5.093025468497052,0.026095794963509413,0,1
1761249173.8011596,21.52366805076599,9.650612001277223,0.0,5.078120729294147,0.09140938869925809,0.0,-0.02209797809498008,0.0,-0.0024238825960724956,0.0,0.35,0.0,-0.3,0.0,9.650612001277223,0.0,5.078120729294147,auto,85.0,5,10.0,0.0,0.0,5.090125942934853,0.0024238825960724956,0,1
1761249173.9057596,21.628268003463745,9.661106057104101,0.0,5.076425703180228,0.08990835586215691,0.0,0.0015973134726437691,0.0,0.03017499303869184,0.0,0.35,0.0,-0.3,0.0,9.661106057104101,0.0,5.076425703180228,auto,85.0,5,10.0,0.0,0.0,5.087725132555846,0.03017499303869184,0,1
1761249174.0122516,21.73476004600525,9.67146940824317,0.0,5.0764664990818735,0.09091118786986778,0.0,0.024513637723118,0.0,0.04565653054778288,0.0,0.6004440499546022,0.0,-0.3,0.0,9.67146940824317,0.0,5.0764664990818735,auto,85.0,5,10.0,0.0,0.0,5.087086048615717,0.04565653054778288,0,1
1761249174.1181598,21.840668201446533,9.681477537737667,0.0,5.077557839039817,0.09444176841715152,0.0,-0.006909425614363816,0.0,0.05016172634148373,0.0,0.41450949511871577,0.0,-0.21295282725966871,0.0,9.681477537737667,0.0,5.077557839039817,auto,85.0,5,10.0,0.0,0.0,5.087538714128901,0.05016172634148373,0,1
1761249174.2195382,21.942046642303467,9.690873351809083,0.0,5.078289630120858,0.09990680090962406,0.0,8.37204476990816e-05,0.0,0.032088587292334075,0.0,0.35,0.0,0.14459162853536103,0.0,9.690873351809083,0.0,5.078289630120858,auto,85.0,5,10.0,0.0,0.0,5.087689539664817,0.032088587292334075,0,1
1761249174.324317,22.046825408935547,9.7001814228453,0.0,5.079385072445208,0.09677061203738654,0.0,-0.005194861684571167,0.0,0.0012857900911514494,0.0,0.38092191300283457,0.0,0.3,0.0,9.7001814228453,0.0,5.079385072445208,auto,85.0,5,10.0,0.0,0.0,5.088226006516051,0.0012857900911514494,0,1
1761249174.4299717,22.152480125427246,9.709380564302379,0.0,5.078930857683493,0.0935271516108916,0.0,-0.0019350758297098595,0.0,-0.019702528787879602,0.0,0.35,0.0,0.3,0.0,9.709380564302379,0.0,5.078930857683493,auto,85.0,5,10.0,0.0,0.0,5.0872387710362865,0.019702528787879602,0,1
1761249174.5363455,22.258853912353516,9.718302689804057,0.0,5.078434778159754,0.08814464244658524,0.0,0.009377578531601746,0.0,-0.03590828723623667,0.0,0.5365118493107827,0.0,0.3,0.0,9.718302689804057,0.0,5.078434778159754,auto,85.0,5,10.0,0.0,0.0,5.086241556453462,0.03590828723623667,0,1
1761249174.6416457,22.36415410041809,9.72683332145525,0.0,5.077832950298825,0.0796491353722757,0.0,-0.007919255829871548,0.0,-0.04195523874263059,0.0,0.35,0.0,0.22792867613643988,0.0,9.72683332145525,0.0,5.077832950298825,auto,85.0,5,10.0,0.0,0.0,5.0851752679143365,0.04195523874263059,0,1
1761249174.745261,22.467769384384155,9.735019151170757,0.0,5.076518221615512,0.07239600402102604,0.0,-0.0009592738588857994,0.0,-0.031644235023256036,0.0,0.5557303628847715,0.0,-0.03537950448335101,0.0,9.735019151170757,0.0,5.076518221615512,auto,85.0,5,10.0,0.0,0.0,5.083429167859093,0.031644235023256036,0,1
1761249174.851247,22.573755502700806,9.743171260791803,0.0,5.074900956408022,0.0673460693401691,0.0,-0.027622890586595783,0.0,-0.01098928127650458,0.0,0.3764751768983743,0.0,-0.25811426481432975,0.0,9.743171260791803,0.0,5.074900956408022,auto,85.0,5,10.0,0.0,0.0,5.081395548334564,0.01098928127650458,0,1
1761249174.9563305,22.678838968276978,9.750943174748015,0.0,5.073316352966523,0.06363207026881051,0.0,-0.01689083917853548,0.0,0.011059104589675113,0.0,0.35,0.0,-0.3,0.0,9.750943174748015,0.0,5.073316352966523,auto,85.0,5,10.0,0.0,0.0,5.079425963579165,0.011059104589675114,0,1
1761249175.0563574,22.778865814208984,9.758582613370692,0.0,5.070519198826968,0.07657822407777443,0.0,-0.025740656096157992,0.0,0.05480719641724888,0.0,0.47163554115313644,0.0,-0.17821344237820985,0.0,9.758582613370692,0.0,5.070519198826968,auto,85.0,5,10.0,0.0,0.0,5.076263123621529,0.05480719641724888,0,1
1761249175.1600266,22.882534980773926,9.765962729802563,0.0,5.067904400385454,0.07733178829687386,0.0,-0.04065618434619578,0.0,0.027816283399375072,0.0,0.35,0.0,0.11471429839965024,0.0,9.765962729802563,0.0,5.067904400385454,auto,85.0,5,10.0,0.0,0.0,5.073305476244036,0.027816283399375072,0,1
1761249175.2653236,22.987832069396973,9.773170964503644,0.0,5.066575487249333,0.07614489462275169,0.0,-0.0060068568140615435,0.0,0.00951469499948314,0.0,0.35,0.0,0.3,0.0,9.773170964503644,0.0,5.066575487249333,auto,85.0,5,10.0,0.0,0.0,5.071650478822454,0.00951469499948314,0,1
1761249175.371816,23.094324350357056,9.78018820407172,0.0,5.064495943807887,0.07315461873000027,0.0,-0.02358789814262292,0.0,-0.016233471064669415,0.0,0.35,0.0,0.3,0.0,9.78018820407172,0.0,5.064495943807887,auto,85.0,5,10.0,0.0,0.0,5.069263890396292,0.016233471064669415,0,1
1761249175.4757593,23.198267698287964,9.786741466685221,0.0,5.062448043922935,0.06626544372774198,0.0,-0.03084878605612798,0.0,-0.03835600352417922,0.0,0.35,0.0,0.3,0.0,9.786741466685221,0.0,5.062448043922935,auto,85.0,5,10.0,0.0,0.0,5.066937872073303,0.03835600352417922,0,1
1761249175.5797772,23.30228567123413,9.793154047813985,0.0,5.060120263458775,0.05916688620482454,0.0,-0.03174467593200304,0.0,-0.04188670740382047,0.0,0.35,0.0,0.19084994465535626,0.0,9.793154047813985,0.0,5.060120263458775,auto,85.0,5,10.0,0.0,0.0,5.064346189647964,0.04188670740382047,0,1
1761249175.689821,23.41232943534851,9.799671039040087,0.0,5.057657889414148,0.05620225973737147,0.0,-0.004396142063075419,0.0,-0.036298629224189354,0.0,0.5810156240545862,0.0,0.1759518397864752,0.0,9.799671039040087,0.0,5.057657889414148,auto,85.0,5,10.0,0.0,0.0,5.061623753199408,0.036298629224189354,0,1
1761249175.7942703,23.516778707504272,9.805452286563666,0.0,5.055052104070051,0.0525768996423969,0.0,-0.03914207632574507,0.0,-0.04189759603540039,0.0,0.35,0.0,0.13247239343033776,0.0,9.805452286563666,0.0,5.055052104070051,auto,85.0,5,10.0,0.0,0.0,5.058794380844744,0.04189759603540039,0,1
1761249175.8989084,23.621416807174683,9.81128742411908,0.0,5.052648027553174,0.04737621544643443,0.0,-0.041748882937765214,0.0,-0.024688706433856865,0.0,0.35,0.0,-0.11462623020092925,0.0,9.81128742411908,0.0,5.052648027553174,auto,85.0,5,10.0,0.0,0.0,5.0561709352663895,0.024688706433856865,0,1
1761249176.0027022,23.725210666656494,9.816979505715954,0.0,5.051155145565161,0.04478775326746865,0.0,-0.015944151064067744,0.0,8.304020464633063e-05,0.0,0.35,0.0,-0.3,0.0,9.816979505715954,0.0,5.051155145565161,auto,85.0,5,10.0,0.0,0.0,5.054469784843647,8.304020464633063e-05,0,1
1761249176.1067472,23.8292555809021,9.82251050282096,0.0,5.049346220714528,0.04509659127835825,0.0,-0.01614102097479047,0.0,0.026358579175063592,0.0,0.35,0.0,-0.3,0.0,9.82251050282096,0.0,5.049346220714528,auto,85.0,5,10.0,0.0,0.0,5.052464723108214,0.02635857917506359,0,1
1761249176.21107,23.933578491210938,9.827905972579885,0.0,5.04706035371325,0.04789163929044796,0.0,-0.02021220736603719,0.0,0.042577199568839215,0.0,0.35,0.0,-0.3,0.0,9.827905972579885,0.0,5.04706035371325,auto,85.0,5,10.0,0.0,0.0,5.049993521609487,0.042577199568839215,0,1
1761249176.315016,24.037524461746216,9.833163614239101,0.0,5.04465477011785,0.04937697550264293,0.0,0.0034548747800197885,0.0,0.044478963291677644,0.0,0.598702984899863,0.0,-0.19820476501770007,0.0,9.833163614239101,0.0,5.04465477011785,auto,85.0,5,10.0,0.0,0.0,5.047412815422029,0.044478963291677644,0,1
1761249176.419183,24.14169144630432,9.83826950391589,0.0,5.043037167280703,0.054655094238471785,0.0,-0.02828896668858951,0.0,0.035110759097371685,0.0,0.35,0.0,0.023306886771237215,0.0,9.83826950391589,0.0,5.043037167280703,auto,85.0,5,10.0,0.0,0.0,5.0456298540358855,0.035110759097371685,0,1
1761249176.5280573,24.250565767288208,9.843590222552884,0.0,5.04160210715724,0.05702675260864497,0.0,-0.027946008629515122,0.0,0.021972697755477118,0.0,0.35,0.0,0.20970842544029303,0.0,9.843590222552884,0.0,5.04160210715724,auto,85.0,5,10.0,0.0,0.0,5.044027738362803,0.021972697755477118,0,1
1761249176.6324108,24.35491919517517,9.848537595820803,0.0,5.041123331987307,0.05553794152398531,0.0,-0.010624144027241158,0.0,-0.006025328108135999,0.0,0.35,0.0,0.3,0.0,9.848537595820803,0.0,5.041123331987307,auto,85.0,5,10.0,0.0,0.0,5.043398190524575,0.006025328108135998,0,1
1761249176.7395542,24.46206259727478,9.853500789448075,0.0,5.040272986257537,0.05272312179291368,0.0,-0.010524055364128728,0.0,-0.025540986582295318,0.0,0.35,0.0,0.3,0.0,9.853500789448075,0.0,5.040272986257537,auto,85.0,5,10.0,0.0,0.0,5.04240158998565,0.025540986582295318,0,1
1761249176.8435998,24.566108226776123,9.8581715822909,0.0,5.039864559061989,0.04845094838622236,0.0,0.010999279124607785,0.0,-0.03818871984190048,0.0,0.35,0.0,0.3,0.0,9.8581715822909,0.0,5.039864559061989,auto,85.0,5,10.0,0.0,0.0,5.041859783230684,0.03818871984190048,0,1
1761249176.9503124,24.672820806503296,9.86271151998043,0.0,5.040373597689205,0.04222742703589219,0.0,0.02328470933504983,0.0,-0.04304251569285601,0.0,0.5883445291627083,0.0,0.1876157743111201,0.0,9.86271151998043,0.0,5.040373597689205,auto,85.0,5,10.0,0.0,0.0,5.042242966282813,0.04304251569285601,0,1
1761249177.0550458,24.777554273605347,9.867035828529527,0.0,5.041392975441568,0.03430691474960226,0.0,-0.007057521305676352,0.0,-0.033362460212309666,0.0,0.4155547142667762,0.0,-0.030053445969420358,0.0,9.867035828529527,0.0,5.041392975441568,auto,85.0,5,10.0,0.0,0.0,5.043146101762908,0.033362460212309666,0,1
1761249177.1620486,24.884557008743286,9.871297986525128,0.0,5.041176918664828,0.030983223300063433,0.0,-0.007056276714210351,0.0,-0.017778705591662617,0.0,0.35,0.0,-0.2610944029417753,0.0,9.871297986525128,0.0,5.041176918664828,auto,85.0,5,10.0,0.0,0.0,5.0428195420371225,0.017778705591662617,0,1
1761249177.267616,24.990124464035034,9.875280842860086,0.0,5.041038062385674,0.028980360921448154,0.0,-0.00826649875141228,0.0,-0.005621012864934344,0.0,0.35,0.0,-0.3,0.0,9.875280842860086,0.0,5.041038062385674,auto,85.0,5,10.0,0.0,0.0,5.042580650280053,0.005621012864934343,0,1
