timestamp,simulation_time,position_x,position_y,position_z,velocity_x,velocity_y,velocity_z,attitude_roll,attitude_pitch,attitude_yaw,angular_velocity_x,angular_velocity_y,angular_velocity_z,acceleration_x,acceleration_y,acceleration_z,motor_speed_1,motor_speed_2,motor_speed_3,motor_speed_4,control_throttle,control_roll,control_pitch,control_yaw,estimated_position_x,estimated_position_y,estimated_position_z,estimated_velocity_x,estimated_velocity_y,estimated_velocity_z,estimated_attitude_roll,estimated_attitude_pitch,estimated_attitude_yaw,sensor_accel_x,sensor_accel_y,sensor_accel_z,sensor_gyro_x,sensor_gyro_y,sensor_gyro_z,sensor_gps_x,sensor_gps_y,sensor_gps_z,sensor_gps_vx,sensor_gps_vy,sensor_gps_vz,sensor_baro_altitude,sensor_mag_x,sensor_mag_y,sensor_mag_z,flight_mode,battery_level,gps_fix,waypoint_index,mission_complete,setpoint_altitude,setpoint_position_x,setpoint_position_y,setpoint_position_z,position_error,attitude_error
1760898204.1509311,0.11080169677734375,-4.3287475271179785,-2.1299614333798758,-6.452745246184072,-63.35450583360166,-42.43401078600045,-105.73583594579009,-0.40572029006353855,0.7626335730379807,-0.027597064576992285,,,,,,,,,,,0.62,-0.3,0.12318362721667021,0.03443900192128844,-2.0616613413947924,-2.4108498130016827,1.9053397315929241,-36.66989360305686,-66.00733309433765,-3.809382675864345,-0.08825548962059476,0.29791062988094974,-0.05721856128561203,,,,,,,,,,,,,,,,,auto,85.0,True,0,False,-10.0,15.0,0.0,-10.0,20.943963299097447,0.31593312361927245
1760898204.258283,0.2181534767150879,-11.11118748478865,-8.270088271527344,-16.86161275026298,-62.97037299245846,-58.362092023136114,-69.625580369436,-0.5080191751740937,-1.0926593444755996,0.03789139438271603,,,,,,,,,,,0.42000000000000004,-0.3,0.3,-0.000868216188138577,-5.63594834953631,-9.73687066538743,11.161907991069729,7.567977492783877,-56.915524883398604,-28.10563717780864,0.03761816045095975,-0.6605474786245547,0.03914050731100885,,,,,,,,,,,,,,,,,auto,85.0,True,0,False,-10.0,15.0,0.0,-10.0,31.120336830788215,0.662774529403125
1760898204.3659651,0.3258357048034668,-15.152736865729025,-15.801993243287212,-23.624726855503226,-14.402508945219902,-78.04374117885214,-31.865303910077095,-0.83189726570345,-2.4620253317033636,0.03799910907553161,,,,,,,,,,,0.42000000000000004,0.3,0.3,-0.06672974095438698,-4.9871966342643415,-14.893425639472195,20.816492412478922,-8.771076024963724,-42.262231139086026,33.96449414447473,-0.9862468194784028,-3.0355228363516353,0.11240721833160455,,,,,,,,,,,,,,,,,auto,85.0,True,0,False,-10.0,15.0,0.0,-10.0,39.63531709452577,3.1936995885143284
1760898204.4748967,0.4347672462463379,-15.128153618522909,-23.890789328452147,-27.074316785714593,-4.2764072926589165,-51.7504600782208,-34.43083508491838,1.9787480889291293,-0.40581649090531435,-0.14642682948620556,,,,,,,,,,,0.42000000000000004,-0.3,0.3,0.030740596394382418,-9.606864745922554,-19.57867132294866,21.95959054199786,9.07973043886867,-39.883543048396376,-29.383785749995752,2.009225554042524,-1.9938539055132793,-0.05034901741975786,,,,,,,,,,,,,,,,,auto,85.0,True,0,False,-10.0,15.0,0.0,-10.0,44.83567319677867,2.8310732500419657
1760898204.5821338,0.5420043468475342,-15.563592178882002,-29.431513307787313,-28.494593839091007,0.005687581220877647,-62.33720007256313,-3.0776611367631075,-1.1052752445543552,0.5323174252534162,0.07853436236868588,,,,,,,,,,,0.42000000000000004,0.3,0.3,-0.002290231063347848,-11.160365690758216,-24.709483525772338,23.94423575311638,2.139078515331727,-27.373464257132273,-90.41917743123075,-0.9491005343807573,-1.053798031105271,0.022176463043671463,,,,,,,,,,,,,,,,,auto,85.0,True,0,False,-10.0,15.0,0.0,-10.0,49.46851978832355,1.4183701598088956
1760898204.6893718,0.6492424011230469,-15.185894962910261,-36.21602129079484,-28.199311463979658,7.873131395062896,-38.287775616417406,0.1265848841513777,1.787240957512071,-2.78182509548343,0.028067720046096006,,,,,,,,,,,0.42000000000000004,-0.3,-0.3,0.0009122321421790192,-11.852965056307145,-27.819776257635105,24.14117425107626,16.432688866811965,-18.1499282628721,-57.383813906899114,1.72030166106889,2.783186877117637,0.02272506817218474,,,,,,,,,,,,,,,,,auto,85.0,True,0,False,-10.0,15.0,0.0,-10.0,51.581406171046595,3.2720151935404633
1760898204.7971632,0.7570338249206543,-15.462494227393094,-39.76604547986856,-28.55813874398997,4.474465577688849,-5.375448741802163,2.3380947449853484,0.8812561170553819,-1.3415328819600483,-0.12087970347136348,,,,,,,,,,,0.42000000000000004,-0.3,0.3,0.08007960731235889,-8.917427843624314,-28.27495240365378,23.906062879209486,31.18841901045272,-9.485272282641581,-115.8248122730817,1.6997149260939959,-2.7667885800915815,-0.1350650213663986,,,,,,,,,,,,,,,,,auto,85.0,True,0,False,-10.0,15.0,0.0,-10.0,50.21092897022291,3.249983451789965
1760898204.904163,0.8640334606170654,-13.225420041219358,-40.74685058892622,-29.708960882990358,24.907341972272597,-11.397836148695772,1.0642458068576728,2.628347573355048,-1.2808521120208647,0.24186883516610022,,,,,,,,,,,0.42000000000000004,0.3,0.3,-0.1115136394375654,-9.439964656084287,-35.8402414530442,22.05446947554238,22.713031244880753,-13.763930072846929,-74.40433626228011,-2.7109781325804834,-1.9121873556890254,0.18447882409296967,,,,,,,,,,,,,,,,,auto,85.0,True,0,False,-10.0,15.0,0.0,-10.0,53.938147846970374,3.3226337979267706
1760898205.01179,0.9716606140136719,-10.654725553472854,-41.509920823162346,-29.94214135514964,19.89692873924604,-13.681655744212414,-5.6029765943484255,3.0903621049072507,2.641357035459079,-0.11845281094652377,,,,,,,,,,,0.42000000000000004,0.3,-0.3,0.08374302401905767,-8.542556006630889,-39.594877870085575,22.047881083855113,10.266967660863976,-20.17173095493616,-40.774152938001805,-1.911073343688441,1.685269922194312,-0.1343338762864407,,,,,,,,,,,,,,,,,auto,85.0,True,0,False,-10.0,15.0,0.0,-10.0,56.11660163300397,2.5515449488354074
1760898205.1196318,1.0795023441314697,-5.875179197882444,-43.13852632659565,-31.608537331609295,67.81339876427872,-28.745028224523125,-23.43531358718497,-2.5973389284661597,-0.011247551404878653,-0.17109723292621634,,,,,,,,,,,0.42000000000000004,0.3,0.3,0.1556420245803234,-8.392742570169155,-41.96503123576744,27.650724688993236,-15.335538020508913,-35.02191745361508,-55.919479450901676,-1.0372512263894071,-1.7416696468842423,-0.26355728382947613,,,,,,,,,,,,,,,,,auto,85.0,True,0,False,-10.0,15.0,0.0,-10.0,61.03983388885906,2.0442029516131175
1760898205.2275593,1.1874299049377441,-0.554374734000994,-44.61075727417368,-34.50056072640112,45.18990956777831,-5.134235977758678,-22.485160930770828,1.3428653613431227,-0.6541121553920919,0.2638608455979507,,,,,,,,,,,0.42000000000000004,-0.005918583793322774,0.3,-0.16696143718197343,-10.365265797747387,-45.82575252290324,29.212626897474532,-15.468944871968588,-41.55273952378228,-90.5376506668632,-0.3000699117015093,-2.907333535213452,0.27540830159266033,,,,,,,,,,,,,,,,,auto,85.0,True,0,False,-10.0,15.0,0.0,-10.0,65.42955304356961,2.9357247775415622
1760898205.3354073,1.2952778339385986,2.6453229843272363,-44.644755568137455,-37.04451156104376,3.7002734142578837,-1.850276710078008,-10.970037711543252,0.838914131100092,0.8286671992026784,-0.10751887783597233,,,,,,,,,,,0.42000000000000004,0.3,0.3,-0.04092090487621575,-4.035008463570989,-48.25143780000524,29.833868891382764,12.322802446428108,-13.522390085559682,-93.99518114578137,-1.2942794635149697,-2.889063354785372,0.0697459808840673,,,,,,,,,,,,,,,,,auto,85.0,True,0,False,-10.0,15.0,0.0,-10.0,65.40084026854598,3.166498207719339
1760898205.4448705,1.4047410488128662,1.1393463756049014,-44.77431782523006,-37.35062346243072,-0.5272699173496385,-4.308920201974841,-3.799944477053707,-0.2731492979193051,1.115485218689981,-0.3236819267867084,,,,,,,,,,,0.42000000000000004,-0.3,-0.3,0.2,-1.3589614158233707,-48.595575316912985,28.958798050270506,-5.131425111915554,8.40623908628768,-83.95534149858837,2.5450781073315834,2.669301193689179,-0.34288001307079524,,,,,,,,,,,,,,,,,auto,85.0,True,0,False,-10.0,15.0,0.0,-10.0,64.39668861446154,3.704073182108099
1760898205.55344,1.5133106708526611,1.0003532162218276,-45.0131502889471,-37.54330885385868,-11.70664867827875,2.977886068563759,0.31174369364767474,1.5161844186103814,-1.6522893600882524,0.41836773819247586,,,,,,,,,,,0.42000000000000004,-0.3,0.3,-0.19259419084359355,-1.556437075382454,-47.26682270881615,28.79985381695935,-11.472326473673826,-5.860379506690705,-81.86077216540485,1.652149234906386,-2.8375329720160494,0.31492973298697724,,,,,,,,,,,,,,,,,auto,85.0,True,0,False,-10.0,15.0,0.0,-10.0,63.353743329302745,3.2985407680365633
1760898205.6691456,1.6290161609649658,-1.4362965431348713,-44.56036608650716,-40.360584924139914,-24.92597259559915,4.951604973764088,-34.40581984042403,-2.2803083771326227,2.326971548995107,0.061721132356471,,,,,,,,,,,0.42000000000000004,0.3,0.3,-0.11892313595393478,-3.863733112693617,-47.33032981275202,31.588590560150738,-39.92920513247855,-30.87358884417271,-87.66623348738145,-3.1201384975396023,-1.6222916842360002,0.20780280115719207,,,,,,,,,,,,,,,,,auto,85.0,True,0,False,-10.0,15.0,0.0,-10.0,65.7693805042337,3.522822243136707
1760898205.7751777,1.7350482940673828,-4.974201591579513,-44.95342648335614,-42.1819159809828,-33.876129251188416,-10.502834760734736,5.185198357584648,2.175694996009837,-2.932682897853037,-0.6286873596581798,,,,,,,,,,,0.42000000000000004,-0.3,-0.3,0.2,-8.059370682473705,-48.07616273905736,36.67840784290234,-29.62526787918558,-20.18455774270816,-71.74971001763535,2.5482613879797964,0.8859166924550793,-0.608186534608806,,,,,,,,,,,,,,,,,auto,85.0,True,0,False,-10.0,15.0,0.0,-10.0,70.86554705025836,2.7655696245653867
1760898205.8829181,1.8427886962890625,-8.133476641963497,-45.20848088513376,-42.12921403011634,-11.925387651229995,-4.194481696387127,14.91166553106557,-2.7876494544569748,-1.6338365362442535,0.16559283403833083,,,,,,,,,,,0.42000000000000004,0.3,0.3,-0.00854469196154786,-10.310626824984569,-46.55921377848075,34.90262498517623,-27.723757391628933,8.737845871856461,-67.58688998407743,-2.003163206049386,-2.544882353910389,0.012841903714739308,,,,,,,,,,,,,,,,,auto,85.0,True,0,False,-10.0,15.0,0.0,-10.0,69.45958500094333,3.2387117716471088
1760898205.991317,1.9511876106262207,-9.814886701492933,-44.83192151241997,-41.66179082923246,-14.247760868421672,1.087261359130034,-0.5761731973971456,1.5436773710747547,1.1973353340184356,0.6553249746971375,,,,,,,,,,,0.42000000000000004,0.3,0.3,-0.2,-10.262441170111131,-44.48827269965172,34.26206622731871,-0.8661199202467218,27.49365508529034,-45.53076108836808,-1.1175219498372748,-0.374236642648047,0.5964713486985346,,,,,,,,,,,,,,,,,auto,85.0,True,0,False,-10.0,15.0,0.0,-10.0,67.65003952979961,1.3208657929126773
1760898206.0998213,2.059691905975342,-9.851496896322534,-44.76303424493104,-42.767299285262226,-0.12573341198595678,9.377012494244877,-27.912420577442166,0.65957392486687,0.35739161118498103,-0.38939404041086856,,,,,,,,,,,0.42000000000000004,-0.3,0.3,0.17507574459487332,-8.174015574695236,-42.128974026598755,36.59249224440065,44.97565202075963,39.31086139067408,-53.38643294290348,2.6213922199697715,-2.7699688022312516,-0.2793664251605194,,,,,,,,,,,,,,,,,auto,85.0,True,0,False,-10.0,15.0,0.0,-10.0,66.95331047778433,3.823933829939981
1760898206.2058284,2.165699005126953,-10.6529507825648,-45.63043881091407,-44.59184404320091,-30.74444770781344,-2.618238519994428,-5.223195586399823,-2.3201532362889723,-0.4861035445623621,-0.8520291259298775,,,,,,,,,,,0.42000000000000004,0.3,-0.3,0.2,-2.4594911533635546,-38.185101732899184,40.81776163270946,66.38546551832138,60.603700293950006,-51.86307554088814,-0.44961756602353975,1.445799241374128,-0.9860215015777392,,,,,,,,,,,,,,,,,auto,85.0,True,0,False,-10.0,15.0,0.0,-10.0,65.91950184160314,1.8068563317565003
1760898206.3130634,2.2729339599609375,-11.294481033930554,-45.27232126305702,-45.91324360568027,15.519091270303994,3.6395160015161587,-4.497295408236084,-1.2803391730813014,-2.4752854096124217,0.1294188031806489,,,,,,,,,,,0.42000000000000004,0.3,-0.3,0.027253508482189454,8.11581691907094,-33.0577382885839,42.51923216588181,122.12446135279579,35.91780413898013,-54.863096452980805,0.0027318887237733477,0.5202928094248918,-0.07216131892364759,,,,,,,,,,,,,,,,,auto,85.0,True,0,False,-10.0,15.0,0.0,-10.0,62.4377753026327,0.5252802363539354
1760898206.4220967,2.381967306137085,-9.045834806346594,-45.96530207089777,-46.940098724723434,41.2009363174796,-9.910874058365627,-13.641258942877368,1.215534556030422,-3.0383309139477546,0.9994937454373135,,,,,,,,,,,0.42000000000000004,0.3,-0.3,-0.2,11.998831012220363,-33.50898698310958,39.71185258692802,104.61886813300569,47.87179893255116,-61.805171226964475,-0.9570659252436096,2.1755697454016993,0.9195106737015473,,,,,,,,,,,,,,,,,auto,85.0,True,0,False,-10.0,15.0,0.0,-10.0,60.026056938232074,2.548446346584659
1760898206.5303872,2.490257740020752,-6.767234227687043,-47.15550293823329,-48.82472446929367,4.334693530918403,-17.639077581112918,-18.40797357153325,2.1519289719111123,2.6178930217435874,0.2670512037323171,,,,,,,,,,,0.42000000000000004,0.3,0.3,-0.2,16.079063685538642,-31.811670578760896,42.582497365628946,89.08297815638305,58.43252131508616,-26.789601094887374,-2.272340700066312,-1.2288744890207182,0.4995960581277623,,,,,,,,,,,,,,,,,auto,85.0,True,0,False,-10.0,15.0,0.0,-10.0,61.46597264060355,2.6312090354513047
1760898206.6390746,2.598945140838623,-5.272394033471265,-47.365645578090856,-51.245391100113295,16.857514428560805,5.81592710227647,-14.296976989178255,-2.100314103628928,-2.920412673931435,-1.123650213980131,,,,,,,,,,,0.42000000000000004,0.3,0.3,0.2,9.233450114970587,-37.12839042958758,40.015376747304266,55.999403066589885,15.14449757708763,-30.760136701227616,-1.4097959603318233,-1.8249599938381642,-1.0517993870388465,,,,,,,,,,,,,,,,,auto,85.0,True,0,False,-10.0,15.0,0.0,-10.0,62.55644159191928,2.5346174424265713
1760898206.747534,2.707404613494873,-0.5065480841059684,-47.12981049148399,-52.17997628739099,54.230693181788425,3.2283968441565287,-19.970452032004758,0.7242261750791429,0.24274444195995595,-1.0259371646090867,,,,,,,,,,,0.42000000000000004,-0.3,-0.3,0.2,13.868764573402183,-33.42148138990557,47.671698149665154,26.96586069658261,49.98803934986691,-64.68365971783068,2.703953398433481,2.1413791361698413,-1.1975140395217563,,,,,,,,,,,,,,,,,auto,85.0,True,0,False,-10.0,15.0,0.0,-10.0,66.66558241965853,3.6511516622259315
1760898206.856954,2.8168246746063232,3.789296219289485,-48.13076367284693,-53.66528210663943,36.80491543610237,-12.06211594076997,-8.042483221879758,-1.2047941249041074,0.9078757417784229,0.566481530247301,,,,,,,,,,,0.42000000000000004,-0.3,-0.3,-0.2,18.9591050261794,-28.61217253790775,49.4325488084972,60.83997010938472,54.95376537529312,-85.63833706239095,1.638897858342571,0.17954242547803162,0.5124567547069555,,,,,,,,,,,,,,,,,auto,85.0,True,0,False,-10.0,15.0,0.0,-10.0,66.07994240177365,1.7265090784792259
1760898206.9679146,2.9277851581573486,6.8928330691419,-48.56236402386434,-55.536982404694335,13.096068541052478,-2.0751070118313146,-22.40884794624967,-0.5863752314721049,-0.7835302132565499,1.4011078061003577,,,,,,,,,,,0.42000000000000004,-0.2439279318344662,0.3,-0.2,14.208086719930211,-38.18496199531224,44.30158901644436,50.67578987595148,22.060285142277053,-54.09476585409933,0.6015294821724313,-2.535627492826751,1.4413757925815156,,,,,,,,,,,,,,,,,auto,85.0,True,0,False,-10.0,15.0,0.0,-10.0,66.38810901763524,2.978054511882128
1760898207.0760374,3.0359079837799072,7.925277006137605,-48.6240480159953,-57.966265473468916,-12.293992911446837,-7.884190920412296,-27.956308776773003,1.6722226192852652,-0.01820957485506651,0.6229341129957644,,,,,,,,,,,0.42000000000000004,0.3,-0.3,-0.2,15.97789007781705,-39.80837500589704,48.10652220837451,43.604457983478824,35.87942298898651,-62.152075104016106,-2.285336167383496,2.3966411434710233,0.7459880718184727,,,,,,,,,,,,,,,,,auto,85.0,True,0,False,-10.0,15.0,0.0,-10.0,70.44168448274601,3.3945763169834056
1760898207.1848607,3.144731283187866,5.17556527333701,-50.12671101428485,-60.831814095528614,-28.40442746887993,-9.027567991627901,-19.96608006434458,1.3193400629772263,-2.491029134817148,-1.048132432178743,,,,,,,,,,,0.42000000000000004,-0.3,0.3,0.2,21.472208189036778,-34.02310375654975,54.162548388284144,49.857983983570975,71.44984163872977,-118.22512346002672,2.6682440488046817,-2.5463901125417907,-0.9739047185004266,,,,,,,,,,,,,,,,,auto,85.0,True,0,False,-10.0,15.0,0.0,-10.0,72.91291849699947,3.8147240149124273
1760898207.29221,3.2520806789398193,1.2616364789816834,-50.955678489107704,-60.08592792238571,-55.91382883851101,-5.895366186134335,10.892163680377955,1.0777333678360403,1.5312368305395545,-1.340229040571128,,,,,,,,,,,0.42000000000000004,-0.0005251080047409262,-0.3,0.2,27.930179828419064,-27.23004357915353,54.19818259948638,58.7500038810841,56.7471773587747,-137.9608936526454,0.32526733171435374,2.7203154334498327,-1.4329864119453455,,,,,,,,,,,,,,,,,auto,85.0,True,0,False,-10.0,15.0,0.0,-10.0,70.92299678379963,3.0918222703392773
1760898207.3998327,3.359703302383423,-4.724494021923084,-50.779223599598666,-59.47687164313493,-64.60273912192943,0.8794605818579195,2.6570001314439957,-1.6166582526710152,3.018298823018245,0.003412116611513444,,,,,,,,,,,0.42000000000000004,-0.3,0.3,0.06226293083311313,21.036572304991456,-31.406354776693735,52.1035201693791,8.049943387731819,7.833600346466849,-107.59403415509038,2.5006959118477217,-2.9709525552591463,-0.1467283980648963,,,,,,,,,,,,,,,,,auto,85.0,True,0,False,-10.0,15.0,0.0,-10.0,69.85446687922986,3.8860736421137787
1760898207.5083697,3.468240261077881,-12.394740427021038,-46.86929849567691,-59.80087049135985,-63.04804345252119,53.438489114020875,-13.037366553151216,-0.7704111178985215,2.569730708436809,1.4955851599259753,,,,,,,,,,,0.42000000000000004,-0.3,-0.3,-0.2,0.9341271734004154,-39.72053142568823,49.05107150461743,-45.491129361116066,29.655575234280516,-58.53860649165308,1.8886332092573326,1.9405700648131559,1.377007815451975,,,,,,,,,,,,,,,,,auto,85.0,True,0,False,-10.0,15.0,0.0,-10.0,72.54376913944161,3.0379101532755057
1760898207.6168892,3.5767598152160645,-17.219854375546646,-40.40042178481612,-61.62671676309884,-23.380247215489582,52.07678598368466,-15.227055096732897,-2.694419046936804,-2.2417926503720826,1.336612390977808,,,,,,,,,,,0.42000000000000004,0.3,-0.3,-0.2,-7.842619167584116,-36.108437157219015,52.256488571300096,-36.236309700565016,61.30575403555669,-34.110094346177384,-2.0085715503343606,0.700301498110801,1.4026567305859223,,,,,,,,,,,,,,,,,auto,85.0,True,0,False,-10.0,15.0,0.0,-10.0,75.50811117754526,2.547985040169349
1760898207.725705,3.685575485229492,-20.04074965372136,-34.492271304384886,-61.62308350359321,-11.35047555499684,44.322476664882515,10.504311480966404,-0.6501284870984129,-2.5246136962138346,-0.22917479679373337,,,,,,,,,,,0.42000000000000004,-0.3,0.3,0.14151993959295228,-10.894375771472406,-26.843566625773704,57.94564776777133,-53.48074990232066,103.69351994829418,-62.84935471526406,1.1151305953217416,-2.2121517718474673,-0.18121244675002893,,,,,,,,,,,,,,,,,auto,85.0,True,0,False,-10.0,15.0,0.0,-10.0,77.50939824542968,2.483942361885163
1760898207.8337097,3.7935802936553955,-22.608823077623054,-31.649109263141295,-59.92141641565087,-42.362554197086354,10.512356095526371,11.09844938881013,0.800001360609666,-1.9271408431472326,-1.3235109376193215,,,,,,,,,,,0.42000000000000004,0.3,0.3,0.2,-16.495898426972754,-13.816527650379738,58.15276390417236,-39.62988568215124,132.21809040646644,-33.235447279266296,-0.9813243589277296,-2.0160527181038654,-1.2953222489594651,,,,,,,,,,,,,,,,,auto,85.0,True,0,False,-10.0,15.0,0.0,-10.0,76.3392905508936,2.5894643825023564
1760898207.94336,3.903230667114258,-25.195067798057906,-32.149997793545054,-59.31248942169426,-4.020655181825461,-12.70408920192649,10.92263157093089,1.8688020391179063,0.5118090500696465,-0.8812162254809226,,,,,,,,,,,0.42000000000000004,0.3,0.3,0.2,-24.439406491597733,-15.189210421225576,50.78148851341316,-35.05577509262712,57.332986274014466,-41.18097381261435,-0.35661311510936705,-2.2989223115883752,-0.9759840343667987,,,,,,,,,,,,,,,,,auto,85.0,True,0,False,-10.0,15.0,0.0,-10.0,74.03086007561932,2.522847903446765
1760898208.0515783,4.011448860168457,-25.23296964077905,-32.998961865345834,-57.66355289328204,-17.97232196777095,-4.699605637877398,17.719204759686267,0.06221728147215566,2.6559917277651475,0.7802970185846496,,,,,,,,,,,0.42000000000000004,-0.3,-0.3,-0.2,-26.233800817131808,-15.230471411227436,55.18053955424952,-9.019986433137056,29.279999266711457,-24.483604303575106,2.1847174362436,2.495824029234775,0.7617168775267487,,,,,,,,,,,,,,,,,auto,85.0,True,0,False,-10.0,15.0,0.0,-10.0,78.61740472578704,3.4032837763903285
1760898208.161102,4.120972633361816,-26.281278178526218,-32.607527418514806,-53.7473214620118,-16.6937764788129,4.365173854013312,39.581313666307125,-3.0281219938920847,1.6277818686760464,1.4524157626546057,,,,,,,,,,,0.42000000000000004,0.3,-0.3,-0.2,-25.834998675569935,-21.465078378422877,50.35600439812844,10.512616270184235,43.05965863263268,26.933317601438542,-0.030567679950585337,0.933138813554316,1.4429545523084155,,,,,,,,,,,,,,,,,auto,85.0,True,0,False,-10.0,15.0,0.0,-10.0,75.96771665340835,1.7186623485858699
1760898208.2689402,4.228810787200928,-28.420978193436525,-32.733240515358276,-50.527665561961676,-25.75286299263315,10.454070495395092,29.59794645375088,-3.000561564102084,-0.07948629243344893,0.5353937756075615,,,,,,,,,,,0.42000000000000004,0.3,0.18124455721559868,-0.2,-24.231305640870698,-22.145989684139586,49.81986588780551,33.59546084424088,51.34711381575577,20.658417379842504,0.10098523264888948,-0.5615738175494662,0.7181284113861213,,,,,,,,,,,,,,,,,auto,85.0,True,0,False,-10.0,15.0,0.0,-10.0,74.88629084293379,0.9172085831533555
1760898208.3758156,4.335686206817627,-31.22560946437986,-32.67752057908565,-48.91045265229646,-11.497757824256327,3.3408654953086945,9.798202268134961,0.9159195420666622,-0.9949467074966142,-1.211696678072632,,,,,,,,,,,0.42000000000000004,0.3,-0.3,0.2,-26.33329611216612,-23.327339806576298,47.88591187212894,10.715456151682544,32.52570437031678,20.116920182374912,-2.6430669425256053,2.197373745469575,-1.1193385700301013,,,,,,,,,,,,,,,,,auto,85.0,True,0,False,-10.0,15.0,0.0,-10.0,74.855760922025,3.614854502508735
1760898208.4825938,4.442464351654053,-35.18815416802817,-32.02508048751523,-48.739089541476446,-44.16298804224838,5.03035864733015,-2.233657630237902,-2.247465139901352,0.8885464597733934,-1.521759904973354,,,,,,,,,,,0.42000000000000004,0.3,0.3,0.2,-29.494006899450465,-26.36963216969583,43.4167957154652,-15.57751259176794,7.5359188436322455,-2.881227056308038,-0.8129375032842646,-1.638225883519124,-1.625300722253903,,,,,,,,,,,,,,,,,auto,85.0,True,0,False,-10.0,15.0,0.0,-10.0,74.35340083171141,2.4466822162751596
1760898208.5903451,4.550215721130371,-37.91388830757224,-31.720614069370306,-50.4538323130698,-19.654344425528137,0.145180290516298,-21.404707028335938,1.558667499306243,-1.6857000043600878,-0.35736397215486493,,,,,,,,,,,0.42000000000000004,0.3,0.3,0.2,-32.307778799348895,-26.947316982009163,47.15431420980321,-10.388956816897194,7.264987857987024,-10.435138987391431,-1.8527755156142027,-1.3399406973969208,-0.574987403254565,,,,,,,,,,,,,,,,,auto,85.0,True,0,False,-10.0,15.0,0.0,-10.0,78.93541322023923,2.3577168400173605
1760898208.697209,4.657079458236694,-38.264929348641935,-33.27002103505404,-53.28300851444823,14.225648436047234,-31.449884372499543,-40.345653978310736,2.045767240877703,-2.6547129523746795,1.3979431217235452,,,,,,,,,,,0.42000000000000004,0.3,-0.11137932987085049,-0.2,-37.87452802651155,-28.36806038143462,46.680465208892244,-46.10720803959501,0.7803686761815727,-31.073916427195105,-1.4360327821577443,0.3691440814933927,1.270441800669245,,,,,,,,,,,,,,,,,auto,85.0,True,0,False,-10.0,15.0,0.0,-10.0,82.54173308168129,1.9525572650298957
1760898208.8049612,4.764831781387329,-40.745834664991634,-35.4024965165407,-56.20670052462111,-48.69554374534541,-14.98809173878681,-33.38123837553112,2.6533156164336957,2.054075929750082,1.7303994987221498,,,,,,,,,,,0.42000000000000004,0.3,-0.3,-0.2,-40.3322545109631,-30.258278507301373,50.8128058680889,-28.580904830405945,1.8636707265483432,-14.998493801469994,-2.3222266673252703,2.7225176040782,1.8280354649922508,,,,,,,,,,,,,,,,,auto,85.0,True,0,False,-10.0,15.0,0.0,-10.0,87.6094696082637,4.0182773000655105
1760898208.9144218,4.874292373657227,-47.86167694153099,-37.414758743476774,-58.516585978334255,-70.47597136198303,-19.79107270870058,-3.1679306823314217,-2.242225185215842,-0.6384255366094543,0.5909294415088888,,,,,,,,,,,0.42000000000000004,0.3,-0.3,-0.2,-41.439580695179906,-31.57922048615032,54.63393945303432,3.4276966482824744,-7.270996414541319,-31.64261131387992,-0.8219336183656036,1.3857977885456125,0.7567412335825038,,,,,,,,,,,,,,,,,auto,85.0,True,0,False,-10.0,15.0,0.0,-10.0,91.43423628367619,1.780075188957324
1760898209.0147712,4.974641799926758,-52.593322693313695,-39.0457058921143,-60.9585812823202,-26.58992063786203,-6.662926346231595,-28.86134650756209,0.8503008527728743,2.513317953135348,-1.2173500654968632,,,,,,,,,,,0.42000000000000004,0.3,-0.3,0.2,-40.81216099177548,-30.823292787559772,57.107296650723555,9.60545221290311,5.705788663314854,-47.044392572504975,-1.0189530436218286,2.9926095432052606,-1.0469361790439435,,,,,,,,,,,,,,,,,auto,85.0,True,0,False,-10.0,15.0,0.0,-10.0,92.56598703955851,3.330173050485593
1760898209.121016,5.080886602401733,-51.187294175912115,-40.34461252054886,-63.079208753764995,31.916517376966038,-21.199203654753358,-13.700556995658447,-1.2571958171184592,1.5710593803227162,-1.8154212087783572,,,,,,,,,,,0.42000000000000004,0.3,-0.3,0.2,-44.15514625948701,-33.08651355658632,56.54287301482903,-3.579697103832415,-5.857469237223011,-89.41545346305719,-2.772903340460553,2.919570576668636,-1.8068181147075977,,,,,,,,,,,,,,,,,auto,85.0,True,0,False,-10.0,15.0,0.0,-10.0,94.98422320248311,4.413329467343453
1760898209.2302365,5.190107107162476,-51.34616697708898,-43.28226034161623,-63.772681333350356,-24.25325784641695,-35.864587177607085,-11.970997227838138,-0.6344812689952529,-1.8354145703961124,-0.8012853799095566,,,,,,,,,,,0.42000000000000004,-0.3,-0.3,0.2,-45.07194392320813,-36.39026969639619,58.09341092296828,11.455822275306655,-17.774816502751207,-64.38805575239014,0.3111036896047627,2.3842404409753812,-1.106730657734646,,,,,,,,,,,,,,,,,auto,85.0,True,0,False,-10.0,15.0,0.0,-10.0,97.82434659333907,2.64693043634281
1760898209.3380766,5.29794716835022,-53.71673377022911,-47.07391279305153,-65.17585435472036,-13.170252656001677,-42.528632097687236,-11.573663372533089,0.8459403713484778,0.07524185955551108,1.1262241182505508,,,,,,,,,,,0.42000000000000004,-0.3,-0.3,-0.2,-44.880368624810316,-37.126643853805646,59.91021432533641,4.217743590667373,4.7852256780348,-98.75432540888825,3.112707140778939,2.432799061041466,0.9848256875539431,,,,,,,,,,,,,,,,,auto,85.0,True,0,False,-10.0,15.0,0.0,-10.0,99.25464370751106,4.071527802990731
1760898209.4458504,5.405720949172974,-54.50236932431251,-51.48951328543451,-66.26171623219084,-17.271003225847576,-36.75091318403744,11.647283449251512,-2.3851592313043337,-2.440330775120539,1.630561185338167,,,,,,,,,,,0.42000000000000004,0.2794526325442899,0.3,-0.2,-43.314580358975284,-37.07737707467968,61.003721804535225,36.373561874526686,6.211759037000932,-86.05241121276235,0.19633937588403855,-2.2672776155060563,1.8110432154777614,,,,,,,,,,,,,,,,,auto,85.0,True,0,False,-10.0,15.0,0.0,-10.0,99.0800216152439,2.908431615944475
1760898209.5527368,5.5126073360443115,-55.316031925200775,-57.30461090423367,-65.62675636455616,2.7919225280605486,-73.85949818649505,3.859472420719584,0.1297875814324755,0.35142503998837327,0.5527291265261643,,,,,,,,,,,0.42000000000000004,0.3,-0.3,-0.2,-49.13479780314765,-47.170895922517516,58.73377287336378,4.408800111535941,-10.87802240401277,-46.97143386201107,-2.203321253582344,2.722228340366157,0.8114562663505114,,,,,,,,,,,,,,,,,auto,85.0,True,0,False,-10.0,15.0,0.0,-10.0,105.1793575032229,3.594942691584925
1760898209.6592085,5.619079113006592,-55.4004461986254,-64.22789472761687,-64.66534645260437,-2.945744680514157,-56.42473250107021,17.663995540360517,2.1552293732050445,-1.4769084543982745,-1.3181864538412857,,,,,,,,,,,0.42000000000000004,-0.3,0.3,0.2,-49.60025914031584,-49.893077522409655,59.67953441082578,18.495244289654206,14.479774426611442,-48.37907797553014,2.861847385516596,-2.5080822571075863,-1.0385359577386213,,,,,,,,,,,,,,,,,auto,85.0,True,0,False,-10.0,15.0,0.0,-10.0,107.32078168445565,3.9445156866112394
1760898209.7671654,5.727035999298096,-51.750542320106035,-70.14546932930647,-63.46151604887816,65.36918132553389,-55.85995553080917,9.41626829324852,1.7714951925309619,-2.6911722783136676,-1.832343379416624,,,,,,,,,,,0.42000000000000004,-0.3,0.3,0.2,-49.45826965251547,-62.255484438269356,56.94318627207161,37.81942353658907,-53.315051385717354,-6.044410234715682,2.0012100076496098,-0.7070837196274414,-1.7422473714046232,,,,,,,,,,,,,,,,,auto,85.0,True,0,False,-10.0,15.0,0.0,-10.0,111.85706976985081,2.745948794942369
1760898209.875093,5.83496356010437,-45.68565583062894,-73.95461514274022,-63.38891899645989,41.80940583260033,-15.337684086979198,-11.524748396037431,2.423646161547095,0.2887423999858664,-0.6733841497427244,,,,,,,,,,,0.42000000000000004,-0.3,0.3,0.2,-45.97812044868889,-69.1030995160854,62.61335688946425,30.192406888005046,-82.96654493202014,13.433286747809767,2.895315825404541,-0.7671170882841747,-0.855704752664058,,,,,,,,,,,,,,,,,auto,85.0,True,0,False,-10.0,15.0,0.0,-10.0,117.32974531184118,3.115052644773026
1760898209.984988,5.944858551025391,-40.84935561319144,-74.78382161201107,-64.33037120931462,51.19419159819554,-14.355873218938333,4.733706677311156,-3.055392020586807,-1.3389917652435126,1.4798812266352295,,,,,,,,,,,0.42000000000000004,-0.3,0.3,-0.2,-41.43000546223029,-78.5064857597907,63.85077153245696,52.65256197653614,-79.18140285699337,-8.702996208107809,2.8308457525229347,-2.3260827705706215,1.260266199341359,,,,,,,,,,,,,,,,,auto,85.0,True,0,False,-10.0,15.0,0.0,-10.0,121.66162204556832,3.8746121900552772
1760898210.094572,6.054442644119263,-35.72513645713003,-76.22480958448124,-63.7262345165224,34.65774076067671,-11.340743202508792,6.574299109914675,-1.125661236945937,-1.4087754393637353,2.1698071631167224,,,,,,,,,,,0.42000000000000004,-0.3,0.3,-0.2,-37.04839503770109,-85.31256690800214,64.53875802582003,33.682630778458254,-53.609733713255395,10.453797420218326,1.1453315350542617,-2.5662851309677337,2.0235715386652933,,,,,,,,,,,,,,,,,auto,85.0,True,0,False,-10.0,15.0,0.0,-10.0,124.67275542982388,3.4630110410901165
1760898210.2021146,6.161985158920288,-33.51232432120438,-78.0027102178004,-61.65163540997421,44.32283942268268,-20.701415455032983,25.00000946356246,-1.8197797604234778,2.7319586839674206,1.3557599389557538,,,,,,,,,,,0.42000000000000004,0.3,-0.3,-0.2,-34.54219344516909,-84.35158992935696,61.32701186145645,8.460246420103449,-15.364380486689894,27.839666190746932,-1.1741726501453853,1.250357953310673,1.4955660069121766,,,,,,,,,,,,,,,,,auto,85.0,True,0,False,-10.0,15.0,0.0,-10.0,121.06676784342308,2.2756963999593456
1760898210.3102045,6.270075082778931,-30.038431832768406,-78.42016796464029,-57.877749671892566,18.480481273349454,9.47759706087043,29.42292351510633,-0.5036290765225584,1.0878199917615756,-0.8172712433012878,,,,,,,,,,,0.42000000000000004,0.3,0.3,0.2,-32.755726747133735,-83.33613688651157,56.73800885410699,12.083500817635029,0.9539308930756416,21.76761806428875,-0.5498059184243564,-1.911204228079912,-0.6954178239672048,,,,,,,,,,,,,,,,,auto,85.0,True,0,False,-10.0,15.0,0.0,-10.0,116.95932187784419,2.1067971186747583
1760898210.4193637,6.379234313964844,-27.079316031095537,-76.31191061942732,-55.39894588683206,31.91935941026594,25.014689004832498,13.683625839763812,-2.729656531464664,1.7100805440191336,-2.1850444087709113,,,,,,,,,,,0.42000000000000004,-0.3,0.3,0.2,-29.560905367965585,-81.23988321597002,52.013072866532454,18.61032655466482,-0.5746755271666437,23.17685050157687,2.0276168139538684,-1.912689608314018,-2.1439445852575716,,,,,,,,,,,,,,,,,auto,85.0,True,0,False,-10.0,15.0,0.0,-10.0,111.49535469474546,3.516548004312771
1760898210.52723,6.487100601196289,-25.072226221483607,-74.65471516711385,-55.542008083401385,-3.46628399608384,14.384397062950423,-14.363824955899576,0.4128197381708372,-2.2587685384205467,-1.9322843771095657,,,,,,,,,,,0.42000000000000004,0.3,-0.3,0.2,-27.04867220462123,-77.08635232438498,47.2216183245671,-12.821101398657884,43.13390807515841,-4.451446859915686,-2.4986477233390563,2.0715315131525873,-2.0173788100454804,,,,,,,,,,,,,,,,,auto,85.0,True,0,False,-10.0,15.0,0.0,-10.0,104.80796798208299,3.821557342046854
1760898210.6356928,6.5955634117126465,-24.10700232593699,-74.57597818128426,-56.55285287586147,19.0595954549461,0.09884189242414265,-6.738020676151578,0.5654317290959734,2.2329503266114994,-0.11082237452203819,,,,,,,,,,,0.42000000000000004,0.3,0.3,0.14771299879988578,-27.026103587940145,-71.75880948284512,52.38038978813708,1.9874990735205067,40.20931079599408,-8.5512505473435,-0.8461950577439783,-1.1078552393118049,-0.3284842548646649,,,,,,,,,,,,,,,,,auto,85.0,True,0,False,-10.0,15.0,0.0,-10.0,103.95591927013803,1.4322329463864967
1760898210.7450619,6.704932451248169,-23.484286456303,-72.6071019675078,-57.065649321923225,4.8046389585632365,25.775337611412716,21.11614146635589,-0.2980160447853336,2.674138810376104,1.7118254307645486,,,,,,,,,,,0.42000000000000004,0.3,-0.3,-0.2,-25.98505951511058,-67.73810799528654,56.36447320969274,15.812550518867804,32.93704698397473,3.1781874227534406,-0.36344358976634644,2.818376071305928,1.5261475795366044,,,,,,,,,,,,,,,,,auto,85.0,True,0,False,-10.0,15.0,0.0,-10.0,103.30764580919596,3.225594729158876
1760898210.8522549,6.8121254444122314,-24.219046059704354,-71.22580659418328,-55.0677270384545,1.0690026112506814,24.26582872313424,15.699891586000309,-0.3182186785760156,-0.8280653174874841,2.0338621935908763,,,,,,,,,,,0.42000000000000004,0.3,0.3,-0.2,-24.12980879152042,-65.25761389826401,50.8062367182502,14.336823260581964,43.42673911093148,17.04946612372744,-1.0789905346642952,-2.241150682207645,2.0771622983012348,,,,,,,,,,,,,,,,,auto,85.0,True,0,False,-10.0,15.0,0.0,-10.0,97.40172755958555,3.2406141652068055
1760898210.960191,6.9200615882873535,-21.84279200536904,-69.49634868067469,-54.12840875911307,43.0226876668044,23.241727340093686,2.8950651835808627,0.8029822137464337,-2.919114453084205,0.7488887991762541,,,,,,,,,,,0.42000000000000004,-0.3,-0.3,-0.2,-23.37788085876745,-64.1178930138926,48.098783676919744,19.712509332609823,51.43040159892042,-18.29473400158916,1.3350842199198087,0.06098542286445663,0.9109058791158702,,,,,,,,,,,,,,,,,auto,85.0,True,0,False,-10.0,15.0,0.0,-10.0,94.6542899634678,1.6173801707355935
1760898211.0680964,7.0279669761657715,-19.125914884006708,-65.29273142714678,-54.290397492177206,30.219561382134255,54.018947917695755,-5.0694208898661355,-2.2003434304259257,-1.567079089405433,-1.4518179591584657,,,,,,,,,,,0.42000000000000004,-0.3,0.3,0.2,-21.182169671266344,-60.38083179413824,51.98415645120605,27.971416847748635,31.790627481623375,-16.50867043167039,1.3251218414052977,-2.72396633826745,-1.1934423305167228,,,,,,,,,,,,,,,,,auto,85.0,True,0,False,-10.0,15.0,0.0,-10.0,93.79248318090266,3.255801760373738
1760898211.1770442,7.1369147300720215,-16.53043989521257,-60.921382266216305,-53.898040537878096,13.726364378924163,26.844298259653456,17.631029462535437,2.028085431534072,-1.4174710462833315,-2.301858684586122,,,,,,,,,,,0.42000000000000004,0.09210620577745302,-0.3,0.2,-18.12700952243289,-55.69508508802464,52.34624718113356,33.45872674426668,55.52080172151283,-45.361890364767866,0.26932767076647074,3.0302765647241494,-2.2409320175462852,,,,,,,,,,,,,,,,,auto,85.0,True,0,False,-10.0,15.0,0.0,-10.0,89.92438935257036,3.778477174765113
1760898211.2844534,7.244323968887329,-13.846891539433633,-56.57616985426838,-52.029316609378576,39.63843322799329,44.83356821346687,-1.2412050198998563,1.4033243003240783,0.22033785307199164,-1.5773336242342713,,,,,,,,,,,0.42000000000000004,-0.08374403788660019,-0.3,0.2,-16.615009088486282,-49.309691099784516,49.78900933846877,18.92858510146054,53.23122849669039,-71.38973595430154,0.3964584330178539,2.8151641901046296,-1.6953280633360703,,,,,,,,,,,,,,,,,auto,85.0,True,0,False,-10.0,15.0,0.0,-10.0,83.69994070306589,3.3100552787972073
1760898211.3931496,7.353020191192627,-9.755245256931003,-53.5791896906382,-51.96837091547521,26.495975137563924,26.214417513682392,-11.044232481232777,1.5834689051595576,-1.2236421964267885,0.7029527969616907,,,,,,,,,,,0.42000000000000004,0.3,-0.3,-0.2,-12.448058473158662,-45.72375122406642,46.540440523321536,29.36262115041837,65.21340119024937,-35.42649386343161,0.014796214990068338,1.871218837393747,0.4755944001908802,,,,,,,,,,,,,,,,,auto,85.0,True,0,False,-10.0,15.0,0.0,-10.0,77.72309022753478,1.9307689915906983
1760898211.5003138,7.460184335708618,-9.171806715991607,-49.495347026510736,-54.107354550412836,-7.482222277266358,13.676750467915621,-20.406817343828074,-1.3962140228380087,-2.265418094126565,2.3264571837269736,,,,,,,,,,,0.42000000000000004,-0.3,-0.3,-0.2,-9.37255605155207,-40.45630582350489,48.793902752654546,23.11182488370096,88.0664379397275,-42.58554818643656,0.8114454892262167,1.9348614896000504,2.3138556876188128,,,,,,,,,,,,,,,,,auto,85.0,True,0,False,-10.0,15.0,0.0,-10.0,75.41523168604338,3.123469370595593
1760898211.6072023,7.567072868347168,-8.37220098661815,-49.13549401438299,-57.40614993066442,11.418012896357501,5.133198755374037,-30.141067701214794,-3.0741919977687693,1.4623817962861538,2.3855394259013982,,,,,,,,,,,0.42000000000000004,-0.3,0.03938601529489763,-0.2,-6.4412607884157715,-33.19450548222274,50.83817069410408,31.165354112630645,85.83289821568532,-29.779453561103875,1.9137248961878517,-0.40390738483663424,2.4479674537492255,,,,,,,,,,,,,,,,,auto,85.0,True,0,False,-10.0,15.0,0.0,-10.0,72.54575019814128,3.1333733911601147
1760898211.7152376,7.675108194351196,-7.465344009282299,-47.62960336075183,-61.00255422896098,19.282987941804407,9.881225778447881,-28.67725928406929,1.6000338226781652,-1.4523413932351021,0.8103112581060342,,,,,,,,,,,0.42000000000000004,-0.3,0.3,-0.2,-5.554178282896823,-36.38304032924307,49.521537367145285,2.4940725669151966,35.74164659244896,-45.466085605081794,0.9112705206686387,-0.5050300776308396,1.0034176950880185,,,,,,,,,,,,,,,,,auto,85.0,True,0,False,-10.0,15.0,0.0,-10.0,72.72560263781186,1.4464841554497772
1760898211.8231053,7.782975912094116,-6.368958864305569,-46.566048655071214,-64.69451979253074,0.9673738778809445,14.021788536305902,-42.994744125581626,-1.6979974745922644,1.3175779880078085,-1.6006277443472865,,,,,,,,,,,0.42000000000000004,0.3,0.3,0.2,-5.5361923158265816,-39.17803948412324,53.79093127816724,-7.791379931643977,21.686075264338438,-57.12815498145357,-1.3961802726837658,-0.8062327951445426,-1.5459274502244242,,,,,,,,,,,,,,,,,auto,85.0,True,0,False,-10.0,15.0,0.0,-10.0,77.62690825988106,2.233656722765449
1760898211.9302516,7.890122175216675,-6.177118877394032,-47.00983609205365,-69.09588179365679,5.978205616011599,-9.658702611602726,-29.078592583297613,-1.1824208229635795,1.9999534117672304,-2.5805527076496992,,,,,,,,,,,0.42000000000000004,0.3,0.3,0.2,-7.843206949392376,-41.829813781835085,53.43591535478415,-24.005227366892534,-6.405995350710222,-73.3227887038517,-2.512170253966731,-1.7045696874366627,-2.4834951421639984,,,,,,,,,,,,,,,,,auto,85.0,True,0,False,-10.0,15.0,0.0,-10.0,79.34520011730456,3.922283177614203
1760898212.037014,7.99688458442688,-5.156464377975956,-47.26439686351942,-71.18673235938724,18.317290383693173,19.011101263638526,-5.46438298338817,1.647004630657874,2.247863304164003,-1.8900455479598486,,,,,,,,,,,0.42000000000000004,0.3,0.3,0.2,-11.918305510023274,-42.44555484050606,64.25059509179243,-52.87959442778915,10.129255137429052,-67.54023289044427,-1.1448137709477257,-0.3131129621288642,-2.0021406728752456,,,,,,,,,,,,,,,,,auto,85.0,True,0,False,-10.0,15.0,0.0,-10.0,89.66254049899918,2.3274891130112736
1760898212.1467247,8.106595277786255,-5.647177773815752,-45.06733966004903,-72.33594722456726,-10.92789513343023,31.12322566694396,-16.74259700879451,-2.465998089710715,3.1146487518897095,0.38860205597219966,,,,,,,,,,,0.42000000000000004,-0.2527525432098272,0.3,-0.13840782405662394,-17.35049965510639,-42.57193537313088,67.29303955139652,-51.00367096496724,5.840621395457516,-99.3183447284846,0.6048083020610814,-2.915170870799988,0.13405008970817833,,,,,,,,,,,,,,,,,auto,85.0,True,0,False,-10.0,15.0,0.0,-10.0,93.98477787622215,2.9802657121058083
1760898212.2547555,8.21462607383728,-5.840464720970044,-42.05522736678433,-73.56265689454789,1.9148543127651525,31.860729715939954,8.301521033371756,0.1565888988152445,-2.2671407904287606,2.2372467669635263,,,,,,,,,,,0.42000000000000004,-0.3,0.16025527560226527,-0.2,-19.14637716908075,-42.293916739699,67.78919410917113,-51.781243820215046,-14.622484901474458,-57.54341319360428,2.530947487824439,0.16187565888288216,2.018139978140232,,,,,,,,,,,,,,,,,auto,85.0,True,0,False,-10.0,15.0,0.0,-10.0,94.89946884525759,3.2411090519190284
1760898212.3630602,8.322930812835693,-4.118928867814272,-38.81828501691051,-73.78266675031084,22.347972677557735,17.100457519355224,3.394277616454044,-2.9829866196081727,1.7225274189239754,2.4261648905844933,,,,,,,,,,,0.42000000000000004,-0.3,0.3,-0.2,-26.34603121533919,-43.9018758619968,69.94589163351952,-86.27325119371946,4.825613676357198,-72.26837777800203,2.8476165554841413,-2.693946955391857,2.4307276762890266,,,,,,,,,,,,,,,,,auto,85.0,True,0,False,-10.0,15.0,0.0,-10.0,100.14097358494388,4.612451331104738
1760898212.4704068,8.430277347564697,-1.3305823603741498,-36.65090553607863,-72.19431282266648,19.5364946233377,3.742658249241403,15.266767134996448,1.9645315292240766,2.6509656578154415,1.0018743512094412,,,,,,,,,,,0.42000000000000004,0.3,0.3,-0.2,-25.942373020634395,-43.29895558495298,68.53059562148773,-61.044279319550284,2.4068463574284524,-82.35527138450223,-0.5136701993819864,-1.2504136909741241,1.117637557691067,,,,,,,,,,,,,,,,,auto,85.0,True,0,False,-10.0,15.0,0.0,-10.0,98.58058587761654,1.7539969163799334
1760898212.5772748,8.537145376205444,0.09678175108364989,-35.78330138527678,-70.38427104427527,19.211262823195884,11.552346622587574,13.600077536181342,0.9919628985507377,1.1082813016488402,-1.4227148687150597,,,,,,,,,,,0.42000000000000004,0.03120744700187749,0.3,0.2,-30.294444614442604,-42.84873600390052,67.50306686591382,-46.10375195765187,11.412500745633,-78.20819408065537,0.4339292071295081,-1.7754331377053176,-1.2000760400678407,,,,,,,,,,,,,,,,,auto,85.0,True,0,False,-10.0,15.0,0.0,-10.0,99.47022802670695,2.186467444351071
1760898212.6850448,8.644915342330933,1.8915116515186297,-33.392416374365986,-68.87618658045503,15.096399435475586,30.48224223811693,9.913145737701637,0.44151344604473663,-0.2905656658467201,-2.5147105331098945,,,,,,,,,,,0.42000000000000004,-0.3,-0.3,0.2,-23.870007665215677,-40.02908818413621,66.3214941099016,-16.905251338823078,-0.4487647860104431,-49.71450305351546,0.0727038886179966,3.117054730349637,-2.5732708701105014,,,,,,,,,,,,,,,,,auto,85.0,True,0,False,-10.0,15.0,0.0,-10.0,94.54192646606595,4.042652473113968
1760898212.7923765,8.752247095108032,3.361810110280489,-32.127845301265644,-68.54271791009465,-5.0750878045968575,17.669568734495225,-3.0687520810082525,3.036470195327857,2.586739674146941,-2.071188424003387,,,,,,,,,,,0.42000000000000004,0.3,0.3,0.2,-25.92428757726984,-40.690862728066115,65.69509479680978,-13.460018264097293,7.278463391088534,-58.76512891681995,-0.5977893245560478,-0.12408576694293978,-2.096781381535812,,,,,,,,,,,,,,,,,auto,85.0,True,0,False,-10.0,15.0,0.0,-10.0,95.18556087747459,2.183859316912658
1760898212.8994162,8.859286785125732,2.77899774694102,-32.34775674696148,-68.83803613525838,-8.802107338146953,-6.846892784182012,4.690178298609332,-1.889149674202871,-0.735859465636446,-0.043563779566371086,,,,,,,,,,,0.42000000000000004,-0.3,0.3,0.1226277706199785,-27.308857637978015,-42.135127772027005,65.9600912266047,-19.287421190219177,-37.141602932525075,-68.12075366287014,3.031228177801052,-1.0396705465079863,-0.3072034396582294,,,,,,,,,,,,,,,,,auto,85.0,True,0,False,-10.0,15.0,0.0,-10.0,96.61958334701015,3.219259707527361
1760898213.00824,8.96811056137085,0.37154609829141355,-33.464464799406535,-69.19308426570122,-16.20402461040807,-1.2873760586615632,-4.8941962122801685,-3.0561277360413883,0.6841043041216653,2.1664843511659164,,,,,,,,,,,0.42000000000000004,-0.3,-0.3,-0.2,-28.587741718875563,-45.598569765078445,65.46714773114036,-12.488300519678928,-15.093978779602624,-63.116882771414936,0.16718611085303203,1.6441154418265684,1.8480620280221733,,,,,,,,,,,,,,,,,auto,85.0,True,0,False,-10.0,15.0,0.0,-10.0,98.3585846758985,2.4791934255180985
1760898213.1163146,9.07618522644043,-3.062841338227734,-34.325341219102185,-69.4990303111252,-24.635176295357386,1.4644436792209408,9.086680097694524,-0.40846352888151016,1.5566335201709782,2.8521335628131643,,,,,,,,,,,0.42000000000000004,0.3,0.3,-0.2,-18.222029147231723,-40.955889891734635,64.13893326654008,7.245480581462204,4.456742382277972,-44.932427559198906,-2.885603720695467,-1.2557733248328216,2.9371918476492214,,,,,,,,,,,,,,,,,auto,85.0,True,0,False,-10.0,15.0,0.0,-10.0,90.98169905746919,4.304738252919711
1760898213.222735,9.182605504989624,-4.206629898321263,-34.72036386608113,-69.3876833037046,6.115623661500492,19.906081929022527,8.175149649385434,-1.2236418603888295,3.05776896724153,1.9799028630441105,,,,,,,,,,,0.42000000000000004,-0.3,0.3,-0.2,-12.80574479196517,-37.68773618952452,59.06204638989021,-35.53380764346247,-7.285708392785242,-37.4656130872671,0.8538412215895349,-0.24260221362393156,2.120398900075511,,,,,,,,,,,,,,,,,auto,85.0,True,0,False,-10.0,15.0,0.0,-10.0,83.44513858869456,2.2986935770524477
1760898213.330781,9.290651559829712,-4.396204547302113,-32.64526196449176,-66.99065818443694,-3.0365996239026716,18.05906916579234,33.484956805384364,-2.1151756556479158,1.5450768005907616,-0.39644063104250277,,,,,,,,,,,0.42000000000000004,-0.3,0.3,0.1340609168522056,-8.769799821645321,-34.85489079688221,54.07136686332772,-24.078089770514644,8.764818812239941,-5.712532878767819,2.157779721934762,-1.803779886559598,-0.1006862763334406,,,,,,,,,,,,,,,,,auto,85.0,True,0,False,-10.0,15.0,0.0,-10.0,76.7137982879143,2.814209113373011
1760898213.440063,9.399933576583862,-5.496723849134993,-30.72509691638082,-63.024646927421436,-20.292311628523343,19.555371170995986,36.307988760353815,1.7256173873406755,0.12509224801506638,-2.4621626325926593,,,,,,,,,,,0.42000000000000004,0.3,-0.3,0.2,-9.055172418994236,-32.69858205145848,58.77301898994629,-23.375343038132097,-6.310838013481717,7.386077299523042,-1.3697211066945572,0.5904022086612544,-2.378573071913204,,,,,,,,,,,,,,,,,auto,85.0,True,0,False,-10.0,15.0,0.0,-10.0,79.85973158779721,2.8075470675568854
1760898213.5490491,9.508919715881348,-8.450090246416229,-27.60283406324809,-57.672818825137774,-28.042210326318518,62.32155260745293,59.66473950312233,0.17742689064563016,1.881426334383969,-2.882626617928139,,,,,,,,,,,0.42000000000000004,0.11248006072636887,-0.3,0.2,-10.344624942974242,-33.606403450370664,57.34336015231323,-37.5433938926653,-26.670080154622333,-35.5673927305109,-0.46311160611519725,1.0069151761688195,-2.9956117177365407,,,,,,,,,,,,,,,,,auto,85.0,True,0,False,-10.0,15.0,0.0,-10.0,79.41579517308435,3.1940632578516897
1760898213.6580067,9.61787724494934,-11.05666171435879,-21.638549774649906,-51.98342141977291,-28.587062594464037,49.6947963621165,49.21063144980466,-2.6628479456812304,0.8260000406712185,-1.8161403918322643,,,,,,,,,,,0.42000000000000004,0.3,0.25095643131516177,0.2,-12.223505652139073,-34.061524365958036,51.806312854411935,-22.50672278304187,-14.19009947038819,-60.50389668149384,-2.198202323843349,0.13616214217330555,-2.041187556686076,,,,,,,,,,,,,,,,,auto,85.0,True,0,False,-10.0,15.0,0.0,-10.0,75.63945406189978,3.0028453551725898
1760898213.7654557,9.725326299667358,-13.992703563718942,-16.816742191406384,-47.48751464111274,-17.498303159713814,35.13262143401982,36.71527809735051,-0.2307300547326948,-2.462872303515164,0.7326154875718239,,,,,,,,,,,0.42000000000000004,0.3,0.3,-0.2,-13.873460096373137,-35.59996799930343,47.179044381228266,-10.229732085214886,-2.6992419839186503,-56.55911721162089,-2.5166278356008176,-2.58240024459999,0.6107260109983459,,,,,,,,,,,,,,,,,position_hold,85.0,True,0,False,48.15817502549823,-13.556411682534437,-35.26906350350933,48.15817502549823,1.0810709045214846,3.6572110886221614
1760898213.8740156,9.83388614654541,-15.08140920214009,-13.12641466575618,-42.82891407923627,0.8000041213080205,29.14364525019065,50.19014585239754,2.6082082020431137,-1.4189252848206149,2.658538327503112,,,,,,,,,,,0.42000000000000004,0.3,-0.3,-0.2,-16.250671691919518,-36.44071995242298,43.47787905166148,-33.26367253603568,-6.244639648646696,-29.275006397492877,-3.098454012580155,2.484483428706321,2.5197114305993806,,,,,,,,,,,,,,,,,position_hold,85.0,True,0,False,48.15817502549823,-13.556411682534437,-35.26906350350933,48.15817502549823,5.526028070428627,4.703405241852286
1760898213.9800036,9.939874172210693,-15.88140356083157,-10.598741760815194,-39.00668138919129,-5.401126342394469,13.712250936954998,34.293070010108856,-0.3832763288505143,-0.27770214228349294,3.0823918047337027,,,,,,,,,,,0.42000000000000004,-0.3,0.3,-0.2,-19.001290180159724,-37.51456357297363,38.67670993513837,-22.098209974661685,-23.799959693014145,-57.540257889602756,1.5213786551092403,-0.6451140900385023,3.1380340165038296,,,,,,,,,,,,,,,,,position_hold,85.0,True,0,False,48.15817502549823,-13.556411682534437,-35.26906350350933,48.15817502549823,11.161861523759338,3.5465508159510932
1760898214.088025,10.047895669937134,-16.929580837786308,-8.95588210070233,-34.04542175341165,-17.922928512811282,8.348114392470348,44.915849378820795,1.3450841053920277,0.20826659667474445,1.9606857811385436,,,,,,,,,,,0.42000000000000004,-0.3,0.3,-0.2,-18.91261304550382,-22.404701521624222,33.68171295916624,-20.24188507279843,-6.388640377101851,-28.374003254028004,0.8206593112137258,-2.079521766705514,2.220817830043266,,,,,,,,,,,,,,,,,position_hold,85.0,True,0,False,48.15817502549823,-13.556411682534437,-35.26906350350933,48.15817502549823,20.093497858750105,3.1511782427406243
1760898214.1958442,10.155714750289917,-19.46754891880999,-7.387347065339227,-30.415714795357854,-23.893228439293654,23.417006135388796,28.08093954720414,-3.0257474286931347,-2.2686884925032746,-0.6419800761243668,,,,,,,,,,,0.42000000000000004,0.14443794338089372,0.3,0.2,-22.07982467901969,-17.944562002945265,29.55117056746065,-39.06699731376893,5.58862375123039,-5.535116184453315,0.08963165772707808,-0.797153608569156,-0.2955690912934412,,,,,,,,,,,,,,,,,position_hold,85.0,True,0,False,48.15817502549823,-13.556411682534437,-35.26906350350933,48.15817502549823,26.814315882623795,0.854896951363006
1760898214.3043988,10.264269351959229,-20.5897113193381,-5.697602289298809,-28.827029368406617,-6.442768400880685,14.02376064682824,4.601046198855826,-0.8023280504806013,0.6808077015232091,-2.570944935265906,,,,,,,,,,,0.42000000000000004,-0.2028919092866952,-0.3,0.2,-24.525533309471076,-12.582719708805577,26.545645520485795,-25.778110574160323,-5.04463042970177,-5.3700113237094245,-0.0073618981141668795,0.8446843710052311,-2.541644889544735,,,,,,,,,,,,,,,,,position_hold,85.0,True,0,False,48.15817502549823,-13.556411682534437,-35.26906350350933,48.15817502549823,33.197789921063354,2.6783399016393
1760898214.4129121,10.372782707214355,-22.556868059324096,-3.9299636517575722,-27.499014883330542,-24.555326288374975,24.689409636302276,15.556992775275331,-2.8336318591802834,0.4057940941704341,-2.873693788716147,,,,,,,,,,,0.42000000000000004,0.3,-0.3,0.2,-24.30897522762987,-11.068141103264734,26.73447718403349,-0.6020383878365427,1.1163294196350164,-32.911994612618365,-1.2898483479218543,0.9904832726096255,-3.0087968064665582,,,,,,,,,,,,,,,,,position_hold,85.0,True,0,False,48.15817502549823,-13.556411682534437,-35.26906350350933,48.15817502549823,34.06284041321799,3.420178956803221
1760898214.5210235,10.480894088745117,-24.903492527130663,-1.4226240560272174,-25.11566712208006,-3.1004016192417936,18.627394073971036,24.107337847979064,1.9523136679961344,-1.787536676918762,-1.5332993634272534,,,,,,,,,,,0.42000000000000004,-0.3,0.3,0.2,-24.940652726260915,-7.428707443322646,23.02951105525575,-7.237842352086405,11.97686419281396,-17.457637517019307,2.7845670890932275,-1.5308042909401993,-1.6384643270156216,,,,,,,,,,,,,,,,,position_hold,85.0,True,0,False,48.15817502549823,-13.556411682534437,-35.26906350350933,48.15817502549823,39.193572465762834,3.5751560807501552
1760898214.6276767,10.587547302246094,-23.380748463809955,1.7196029884145667,-23.548149455956484,7.513630128253732,27.601734348318676,-2.914064481396286,1.1390447389258986,0.2032647104128514,1.0732033363927498,,,,,,,,,,,0.42000000000000004,-0.3,-0.3,-0.2,-25.522023275537794,-6.938550308567768,23.470041197596096,-14.332014441814355,-25.35934942187871,2.7021332187867575,2.6368372567375307,2.8946970817034825,0.5953921790712088,,,,,,,,,,,,,,,,,position_hold,85.0,True,0,False,48.15817502549823,-13.556411682534437,-35.26906350350933,48.15817502549823,39.43726398455882,3.960640574482987
1760898214.734684,10.694554567337036,-23.13126668139927,4.476082819874069,-25.27908148951289,-2.876254090591045,30.242913811015363,-25.350900845122755,-1.2393359363152596,3.1111707301222915,2.670094153989427,,,,,,,,,,,0.42000000000000004,0.3,0.3,-0.2,-26.56333924165483,-9.208677516028347,23.55205661749627,-10.646937792607819,-18.799583631169188,-24.8444896502144,-1.4065614617346598,-0.8822555378230611,2.63210335822314,,,,,,,,,,,,,,,,,position_hold,85.0,True,0,False,48.15817502549823,-13.556411682534437,-35.26906350350933,48.15817502549823,38.128531907920525,3.112034393773008
1760898214.8431635,10.80303406715393,-23.401449645316664,9.749049155851576,-29.588114336988642,-6.156653865013242,65.98964330202297,-39.5003793200819,0.8499883061238666,-1.3450686488085475,2.5581065315094853,,,,,,,,,,,0.42000000000000004,-0.3,0.3,-0.2,-26.01320057528325,1.3273844657957028,24.03892732508671,-8.816717894937483,25.920698189877108,-18.810994702350023,0.45649756260443725,-1.6029045425306216,2.657780982449268,,,,,,,,,,,,,,,,,position_hold,85.0,True,0,False,48.15817502549823,-13.556411682534437,-35.26906350350933,48.15817502549823,45.56544417782369,3.137115354557127
1760898214.9498768,10.90974736213684,-24.10338151512285,16.549401484724868,-33.5000938937189,-4.847802291348519,59.321897991286015,-24.879363776825524,-1.1167087074119646,0.3016165216260295,0.8915878247219066,,,,,,,,,,,0.42000000000000004,-0.3,0.3,-0.2,-27.112635504589495,7.079856890973905,26.802893050310324,-14.346037657058147,46.28604073615186,-26.21275725369761,2.1258678122167627,-0.9171261887388205,1.11317867185693,,,,,,,,,,,,,,,,,position_hold,85.0,True,0,False,48.15817502549823,-13.556411682534437,-35.26906350350933,48.15817502549823,49.3279873006361,2.568968889762396
1760898215.0600657,11.019936323165894,-25.223892511318112,23.392075304369655,-35.097569913561074,-7.020763088134917,56.315624422732164,-19.690822260831744,-1.1791365948009607,-0.683943592106005,-1.5929421216869115,,,,,,,,,,,0.42000000000000004,-0.3,-0.3,0.2,-27.907473105979665,15.87251300768283,29.54769401430414,-17.937172280140473,50.09941233137614,-10.958865533972403,2.3939085019922555,1.4108424806218196,-1.3839189892945174,,,,,,,,,,,,,,,,,position_hold,85.0,True,0,False,48.15817502549823,-13.556411682534437,-35.26906350350933,48.15817502549823,56.2828909660621,3.1042722480426703
1760898215.1661265,11.125997066497803,-25.14661710960247,28.422504850156855,-37.04836431830396,17.312299041196624,42.45842271327378,-4.829714022333212,-1.4503663330174505,0.9234833409918739,-2.61413592087643,,,,,,,,,,,0.42000000000000004,0.3,-0.3,0.2,-29.424336679475072,21.685251140608443,34.58924411039888,-8.421482124911204,61.06292958417213,-13.598605695219865,-0.8735813938867821,1.9723083141461135,-2.4532578673139396,,,,,,,,,,,,,,,,,position_hold,85.0,True,0,False,48.15817502549823,-13.556411682534437,-35.26906350350933,48.15817502549823,60.660538132038035,3.266744358123665
1760898215.2768226,11.236693143844604,-24.505281787792757,33.66638099981697,-36.96039831447654,8.50028081002021,39.25100401248967,-3.0299479232731095,-2.348368064704881,2.20454935132197,-1.930772508456848,,,,,,,,,,,0.42000000000000004,0.3,-0.3,0.2,-30.332485762316715,30.39884640425808,34.63925934617228,-37.99722997259017,60.49658214144148,9.643111926920184,-0.7509864316606234,0.9118340577959045,-1.9677396336826125,,,,,,,,,,,,,,,,,position_hold,85.0,True,0,False,48.15817502549823,-13.556411682534437,-35.26906350350933,48.15817502549823,69.11202597471531,2.2950863241848407
1760898215.3845425,11.344413042068481,-24.564562814737183,37.40839651717883,-37.14715016910215,-15.335680774134076,38.50619655785584,7.2073207267716715,0.6120413338472456,-2.394978459858623,0.310997831621298,,,,,,,,,,,0.42000000000000004,-0.3,-0.3,-0.051045172332508916,-33.88357377378435,38.21309190825192,36.44171630013831,-30.660406491982577,82.31717909603074,-16.693757905325764,2.500304810604093,2.632137808372027,-0.03286219164275703,,,,,,,,,,,,,,,,,position_hold,85.0,True,0,False,48.15817502549823,-13.556411682534437,-35.26906350350933,48.15817502549823,77.13686594427624,3.6305307479528435
1760898215.493073,11.452943563461304,-25.0030787568158,40.435870127808684,-37.42666426880941,-6.696289385880004,33.17849852839751,0.16424306131137012,2.5505324457370775,1.044583622604842,2.2946413201236937,,,,,,,,,,,0.42000000000000004,0.3,-0.3,-0.2,-37.859424124044075,45.993081457128,36.705621710203104,-46.476114212520386,78.66650756306394,-20.841705267324066,-2.9105317383709477,1.363525802542343,2.132367859010318,,,,,,,,,,,,,,,,,position_hold,85.0,True,0,False,48.15817502549823,-13.556411682534437,-35.26906350350933,48.15817502549823,85.58816270241746,3.857122023011924
1760898215.6034124,11.56328296661377,-26.240729731165246,40.919941710921094,-37.95136528403672,-2.9348350584343033,3.6893717315859718,-14.339159427552087,-0.43213096819296704,2.9434010327644726,2.7780805191874545,,,,,,,,,,,0.42000000000000004,0.3,0.3,-0.2,-31.49894225076116,48.79265770230566,33.236899030325084,-4.079950306571646,87.1870635413718,-21.10931009457316,-2.1175510931888017,-0.11906389959856291,2.6698139828327023,,,,,,,,,,,,,,,,,position_hold,85.0,True,0,False,48.15817502549823,-13.556411682534437,-35.26906350350933,48.15817502549823,87.24076944066945,3.409707545726132
1760898215.71218,11.672050476074219,-25.14738645388392,41.99206884761443,-41.25921961220061,30.758262445468752,16.721889525203547,-47.85503772613265,-1.3172961049750478,0.39737962219543504,1.5869417359072284,,,,,,,,,,,0.42000000000000004,0.3,-0.3,-0.2,-31.38978793185608,60.04025446879149,37.541872753569024,5.396093850926722,122.29590006704021,-22.834889307376514,-1.286719162922152,1.2318132847133338,1.807220305771143,,,,,,,,,,,,,,,,,position_hold,85.0,True,0,False,48.15817502549823,-13.556411682534437,-35.26906350350933,48.15817502549823,97.54281764806666,2.5375293902177525
1760898215.819023,11.77889347076416,-23.360167371208288,42.136603630507594,-45.36799907420005,10.692189948972608,-7.587670313676802,-37.82400419083291,1.1062668634391557,2.0604850416955407,-0.8675193420667316,,,,,,,,,,,0.42000000000000004,-0.3,0.3,0.2,-29.79680394883025,73.54404805855586,41.314035934130835,17.053689642234637,135.6695729623546,-42.26202417076057,0.692652422063444,-0.8821117348296236,-0.6149819493058907,,,,,,,,,,,,,,,,,position_hold,85.0,True,0,False,48.15817502549823,-13.556411682534437,-35.26906350350933,48.15817502549823,110.23105655251423,1.279097841639394
