timestamp,simulation_time,position_x,position_y,position_z,velocity_x,velocity_y,velocity_z,attitude_roll,attitude_pitch,attitude_yaw,control_throttle,control_roll,control_pitch,control_yaw,flight_mode
1761301588.118858,0.10933780670166016,0.0,0.0,-0.0,0.0,0.0,-0.0,0.0,0.0,0.0,0.0,0.0,0.0,0.0,manual
1761301588.2226164,0.21309614181518555,0.0,0.0,-0.0,0.0,0.0,-0.0,0.0,0.0,0.0,0.0,0.0,0.0,0.0,manual
1761301588.3248153,0.3152949810028076,0.0,0.0,-0.0,0.0,0.0,-0.0,0.0,0.0,0.0,0.0,0.0,0.0,0.0,manual
1761301588.4299376,0.42041730880737305,0.0,0.0,-0.0,0.0,0.0,-0.0,0.0,0.0,0.0,0.0,0.0,0.0,0.0,manual
1761301588.5342705,0.5247502326965332,0.0,0.0,-0.0,0.0,0.0,-0.0,0.0,0.0,0.0,0.0,0.0,0.0,0.0,manual
1761301588.6374948,0.6279745101928711,0.0,0.0,-0.0,0.0,0.0,-0.0,0.0,0.0,0.0,0.0,0.0,0.0,0.0,manual
1761301588.74093,0.7314097881317139,0.0,0.0,-0.0,0.0,0.0,-0.0,0.0,0.0,0.0,0.0,0.0,0.0,0.0,manual
1761301588.8444889,0.8349685668945312,0.0,0.0,-0.0,0.0,0.0,-0.0,0.0,0.0,0.0,0.0,0.0,0.0,0.0,manual
1761301588.949156,0.9396357536315918,0.0,0.0,-0.0,0.0,0.0,-0.0,0.0,0.0,0.0,0.0,0.0,0.0,0.0,manual
1761301589.053847,1.0443267822265625,0.0,0.0,-0.0,0.0,0.0,-0.0,0.0,0.0,0.0,0.0,0.0,0.0,0.0,manual
1761301589.1580637,1.148543357849121,0.0,0.0,-0.0,0.0,0.0,-0.0,0.0,0.0,0.0,0.0,0.0,0.0,0.0,manual
1761301589.2624424,1.2529220581054688,0.0,0.0,-0.0,0.0,0.0,-0.0,0.0,0.0,0.0,0.0,0.0,0.0,0.0,manual
1761301589.3681102,1.3585898876190186,0.0,0.0,-0.0,0.0,0.0,-0.0,0.0,0.0,0.0,0.0,0.0,0.0,0.0,manual
1761301589.4733665,1.463846206665039,0.0,0.0,-0.0,0.0,0.0,-0.0,0.0,0.0,0.0,0.0,0.0,0.0,0.0,manual
1761301589.5780733,1.5685529708862305,0.0,0.0,-0.0,0.0,0.0,-0.0,0.0,0.0,0.0,0.0,0.0,0.0,0.0,manual
1761301589.6853356,1.6758153438568115,0.0,0.0,-0.0,0.0,0.0,-0.0,0.0,0.0,0.0,0.0,0.0,0.0,0.0,manual
1761301589.7887197,1.7791993618011475,0.0,0.0,-0.0,0.0,0.0,-0.0,0.0,0.0,0.0,0.0,0.0,0.0,0.0,manual
1761301589.892747,1.8832266330718994,0.0,0.0,-0.0,0.0,0.0,-0.0,0.0,0.0,0.0,0.0,0.0,0.0,0.0,manual
1761301589.9944286,1.9849083423614502,0.0,0.0,-0.0,0.0,0.0,-0.0,0.0,0.0,0.0,0.0,0.0,0.0,0.0,manual
1761301590.098735,2.08921480178833,0.0,0.0,-0.0,0.0,0.0,-0.0,0.0,0.0,0.0,0.0,0.0,0.0,0.0,manual
1761301590.2049072,2.1953868865966797,0.0,0.0,-0.0,0.0,0.0,-0.0,0.0,0.0,0.0,0.0,0.0,0.0,0.0,manual
1761301590.3103268,2.3008065223693848,0.0,0.0,-0.0,0.0,0.0,-0.0,0.0,0.0,0.0,0.0,0.0,0.0,0.0,manual
1761301590.4144177,2.404897451400757,0.0,0.0,-0.0,0.0,0.0,-0.0,0.0,0.0,0.0,0.0,0.0,0.0,0.0,manual
1761301590.519684,2.5101637840270996,0.0,0.0,-0.0,0.0,0.0,-0.0,0.0,0.0,0.0,0.0,0.0,0.0,0.0,manual
1761301590.6243896,2.6148693561553955,0.0,0.0,-0.0,0.0,0.0,-0.0,0.0,0.0,0.0,0.0,0.0,0.0,0.0,manual
1761301590.7313447,2.7218244075775146,0.0,0.0,-0.0,0.0,0.0,-0.0,0.0,0.0,0.0,0.0,0.0,0.0,0.0,manual
1761301590.8341131,2.8245928287506104,0.0,0.0,-0.0,0.0,0.0,-0.0,0.0,0.0,0.0,0.0,0.0,0.0,0.0,manual
1761301590.9374473,2.927927017211914,0.0,0.0,-0.0,0.0,0.0,-0.0,0.0,0.0,0.0,0.0,0.0,0.0,0.0,manual
1761301591.0428941,3.0333738327026367,0.0,0.0,-0.0,0.0,0.0,-0.0,0.0,0.0,0.0,0.0,0.0,0.0,0.0,manual
1761301591.145763,3.136242628097534,0.0,0.0,-0.0,0.0,0.0,-0.0,0.0,0.0,0.0,0.0,0.0,0.0,0.0,manual
1761301591.2486665,3.2391462326049805,0.0,0.0,-0.0,0.0,0.0,-0.0,0.0,0.0,0.0,0.0,0.0,0.0,0.0,manual
1761301591.353539,3.3440186977386475,0.0,0.0,-0.0,0.0,0.0,-0.0,0.0,0.0,0.0,0.0,0.0,0.0,0.0,manual
1761301591.4578617,3.4483413696289062,0.0,0.0,-0.0,0.0,0.0,-0.0,0.0,0.0,0.0,0.0,0.0,0.0,0.0,manual
1761301591.561207,3.5516867637634277,0.0,0.0,-0.0,0.0,0.0,-0.0,0.0,0.0,0.0,0.0,0.0,0.0,0.0,manual
1761301591.6645422,3.655021905899048,0.0,0.0,-0.0,0.0,0.0,-0.0,0.0,0.0,0.0,0.0,0.0,0.0,0.0,manual
1761301591.768215,3.758694648742676,0.0,0.0,-0.0,0.0,0.0,-0.0,0.0,0.0,0.0,0.0,0.0,0.0,0.0,manual
1761301591.8722458,3.8627254962921143,0.0,0.0,-0.0,0.0,0.0,-0.0,0.0,0.0,0.0,0.0,0.0,0.0,0.0,manual
1761301591.9763298,3.9668095111846924,0.0,0.0,-0.0,0.0,0.0,-0.0,0.0,0.0,0.0,0.0,0.0,0.0,0.0,manual
1761301592.081457,4.07193660736084,0.0,0.0,-0.0,0.0,0.0,-0.0,0.0,0.0,0.0,0.0,0.0,0.0,0.0,manual
1761301592.1853685,4.1758482456207275,0.0,0.0,-0.0,0.0,0.0,-0.0,0.0,0.0,0.0,0.0,0.0,0.0,0.0,manual
1761301592.2897902,4.2802698612213135,0.0,0.0,-0.0,0.0,0.0,-0.0,0.0,0.0,0.0,0.0,0.0,0.0,0.0,manual
1761301592.393745,4.3842246532440186,0.0,0.0,-0.0,0.0,0.0,-0.0,0.0,0.0,0.0,0.0,0.0,0.0,0.0,manual
1761301592.497398,4.487877607345581,0.0,0.0,-0.0,0.0,0.0,-0.0,0.0,0.0,0.0,0.0,0.0,0.0,0.0,manual
1761301592.5994005,4.5898802280426025,0.0,0.0,-0.0,0.0,0.0,-0.0,0.0,0.0,0.0,0.0,0.0,0.0,0.0,manual
1761301592.7030604,4.693540096282959,0.0,0.0,-0.0,0.0,0.0,-0.0,0.0,0.0,0.0,0.0,0.0,0.0,0.0,manual
1761301592.8070896,4.797569274902344,0.0,0.0,-0.0,0.0,0.0,-0.0,0.0,0.0,0.0,0.0,0.0,0.0,0.0,manual
1761301592.9148176,4.90529727935791,0.0,0.0,-0.0,0.0,0.0,-0.0,0.0,0.0,0.0,0.0,0.0,0.0,0.0,manual
1761301593.0183623,5.0088419914245605,0.0,0.0,-0.0,0.0,0.0,-0.0,0.0,0.0,0.0,0.0,0.0,0.0,0.0,manual
1761301593.1244967,5.114976406097412,0.0,0.0,-0.0,0.0,0.0,-0.0,0.0,0.0,0.0,0.0,0.0,0.0,0.0,manual
1761301593.2282536,5.218733310699463,0.0,0.0,-0.0,0.0,0.0,-0.0,0.0,0.0,0.0,0.0,0.0,0.0,0.0,manual
1761301593.3339717,5.324451446533203,0.0,0.0,-0.0,0.0,0.0,-0.0,0.0,0.0,0.0,0.0,0.0,0.0,0.0,manual
1761301593.437572,5.428051710128784,0.0,0.0,0.01285537582220558,0.0,0.0,0.6221953267569083,0.0,0.0,0.0,1.0,0.0,0.0,0.0,stabilize
1761301593.5431676,5.533647298812866,0.0,0.0,0.15044796797016635,0.0,0.0,1.6482216657712359,0.0,0.0,0.0,0.5390645701331174,0.0,0.0,0.0,stabilize
1761301593.648189,5.638668775558472,0.0,0.0,0.32777121062501785,0.0,0.0,1.707532222180145,0.0,0.0,0.0,0.45012163887499923,0.0,0.0,0.0,stabilize
1761301593.753333,5.743812799453735,0.0,0.0,0.5052420739085411,0.0,0.0,1.6546070237465034,0.0,0.0,0.0,0.39882060843592365,0.0,0.0,0.0,stabilize
1761301593.8580801,5.848559856414795,0.0,0.0,0.6733391753328013,0.0,0.0,1.5480011456800231,0.0,0.0,0.0,0.3898991488686002,0.0,0.0,0.0,stabilize
1761301593.9635959,5.954075574874878,0.0,0.0,0.829780861050368,0.0,0.0,1.4148667602101332,0.0,0.0,0.0,0.3795838171024402,0.0,0.0,0.0,stabilize
1761301594.0688057,6.059285402297974,0.0,0.0,0.9713117195416154,0.0,0.0,1.2754913432382409,0.0,0.0,0.0,0.3794422497975168,0.0,0.0,0.0,stabilize
1761301594.1781716,6.168651342391968,0.0,0.0,1.1030132501833774,0.0,0.0,1.1341140469943947,0.0,0.0,0.0,0.3821659457312957,0.0,0.0,0.0,stabilize
1761301594.2829397,6.273419380187988,0.0,0.0,1.2151221363414655,0.0,0.0,1.0075548049064305,0.0,0.0,0.0,0.38584613255340816,0.0,0.0,0.0,stabilize
1761301594.3879173,6.378396987915039,0.0,0.0,1.3146984414778722,0.0,0.0,0.8913380690343781,0.0,0.0,0.0,0.3911651159280486,0.0,0.0,0.0,stabilize
1761301594.4935048,6.483984470367432,0.0,0.0,1.4031412591566217,0.0,0.0,0.7857881791051656,0.0,0.0,0.0,0.3963370292001888,0.0,0.0,0.0,stabilize
1761301594.597446,6.587925672531128,0.0,0.0,1.4798943530351296,0.0,0.0,0.6928167182063182,0.0,0.0,0.0,0.4012485834702154,0.0,0.0,0.0,stabilize
1761301594.703501,6.693980693817139,0.0,0.0,1.5488071284573413,0.0,0.0,0.6084358580079657,0.0,0.0,0.0,0.4057069067840962,0.0,0.0,0.0,stabilize
1761301594.809596,6.8000757694244385,0.0,0.0,1.609319119271635,0.0,0.0,0.533808289575329,0.0,0.0,0.0,0.41004201549284114,0.0,0.0,0.0,stabilize
1761301594.920869,6.911348819732666,0.0,0.0,1.664802849410796,0.0,0.0,0.46485049045761956,0.0,0.0,0.0,0.41345392620790067,0.0,0.0,0.0,stabilize
1761301595.0254238,7.015903472900391,0.0,0.0,1.7103892069619577,0.0,0.0,0.4082092920607825,0.0,0.0,0.0,0.4173097011649845,0.0,0.0,0.0,stabilize
1761301595.131054,7.121533632278442,0.0,0.0,1.7507842465214574,0.0,0.0,0.35770076542547224,0.0,0.0,0.0,0.42025679036815045,0.0,0.0,0.0,stabilize
1761301595.2379873,7.228466987609863,0.0,0.0,1.786583726317816,0.0,0.0,0.31282545218605945,0.0,0.0,0.0,0.42288477565950455,0.0,0.0,0.0,stabilize
1761301595.3426902,7.333169937133789,0.0,0.0,1.8172754115839882,0.0,0.0,0.27424069246868304,0.0,0.0,0.0,0.42512496925865795,0.0,0.0,0.0,stabilize
1761301595.4477403,7.438220024108887,0.0,0.0,1.8442606348646204,0.0,0.0,0.24023721056396868,0.0,0.0,0.0,0.4272554050745668,0.0,0.0,0.0,stabilize
1761301595.5521476,7.542627334594727,0.0,0.0,1.8676524007252258,0.0,0.0,0.21066285778647578,0.0,0.0,0.0,0.42890356234477334,0.0,0.0,0.0,stabilize
1761301595.6579986,7.648478269577026,0.0,0.0,1.8886164956364053,0.0,0.0,0.18411111287072496,0.0,0.0,0.0,0.43065955715494975,0.0,0.0,0.0,stabilize
1761301595.7612183,7.751698017120361,0.0,0.0,1.9064270162688417,0.0,0.0,0.16146115481197001,0.0,0.0,0.0,0.43188432801468657,0.0,0.0,0.0,stabilize
1761301595.8660264,7.856506109237671,0.0,0.0,1.922268322750071,0.0,0.0,0.14125455647650245,0.0,0.0,0.0,0.4331337661639445,0.0,0.0,0.0,stabilize
1761301595.9710522,7.9615318775177,0.0,0.0,1.9361507452773508,0.0,0.0,0.12348758022971094,0.0,0.0,0.0,0.4342323651172755,0.0,0.0,0.0,stabilize
1761301596.074976,8.065455675125122,0.0,0.0,1.9481641891089914,0.0,0.0,0.10804525301768622,0.0,0.0,0.0,0.43520655665781216,0.0,0.0,0.0,stabilize
1761301596.180783,8.171262741088867,0.0,0.0,1.9588493161271854,0.0,0.0,0.09422531199187642,0.0,0.0,0.0,0.4359411139279822,0.0,0.0,0.0,stabilize
1761301596.284999,8.275478601455688,0.0,0.0,1.9680351926825517,0.0,0.0,0.08231003271150956,0.0,0.0,0.0,0.43675690907978093,0.0,0.0,0.0,stabilize
1761301596.3881335,8.378613233566284,0.0,0.0,1.9759773993548992,0.0,0.0,0.0719318919444989,0.0,0.0,0.0,0.43735181515483973,0.0,0.0,0.0,stabilize
1761301596.4972012,8.487680912017822,0.0,0.0,1.9832866949461714,0.0,0.0,0.06232178313515874,0.0,0.0,0.0,0.4379131305947867,0.0,0.0,0.0,stabilize
1761301596.602017,8.592496633529663,0.0,0.0,1.9893858447685853,0.0,0.0,0.05423377200433491,0.0,0.0,0.0,0.4384460887118798,0.0,0.0,0.0,stabilize
1761301596.707652,8.698131799697876,0.0,0.0,1.994704196072466,0.0,0.0,0.04711226818242721,0.0,0.0,0.0,0.43881625450651335,0.0,0.0,0.0,stabilize
1761301596.8129425,8.803422212600708,0.0,0.0,1.9993499923279625,0.0,0.0,0.04084021558065729,0.0,0.0,0.0,0.43923984403891664,0.0,0.0,0.0,stabilize
1761301596.9187617,8.909241437911987,0.0,0.0,2.0033738165798503,0.0,0.0,0.035340004034028545,0.0,0.0,0.0,0.43957873351720067,0.0,0.0,0.0,stabilize
1761301597.0216162,9.012095928192139,0.0,0.0,2.006761970286253,0.0,0.0,0.03064643768921512,0.0,0.0,0.0,0.43983488498680745,0.0,0.0,0.0,stabilize
1761301597.123876,9.11435580253601,0.0,0.0,2.0096542553134285,0.0,0.0,0.026562157364665655,0.0,0.0,0.0,0.4397322279459251,0.0,0.0,0.0,stabilize
1761301597.227563,9.218042612075806,0.0,0.0,2.012240461505153,0.0,0.0,0.02289218937334386,0.0,0.0,0.0,0.44026962272044146,0.0,0.0,0.0,stabilize
1761301597.3321714,9.322651147842407,0.0,0.0,2.0144622903157097,0.0,0.0,0.0196523369587811,0.0,0.0,0.0,0.44048002551522397,0.0,0.0,0.0,stabilize
1761301597.4366975,9.42717719078064,0.0,0.0,2.016365391127426,0.0,0.0,0.016814949467502595,0.0,0.0,0.0,0.4406334185663703,0.0,0.0,0.0,stabilize
1761301597.5411057,9.531585454940796,0.0,0.0,2.017989165294145,0.0,0.0,0.014331325500767348,0.0,0.0,0.0,0.4407811721346081,0.0,0.0,0.0,stabilize
1761301597.6461244,9.636604070663452,0.0,0.0,2.019377566219958,0.0,0.0,0.012156269069790475,0.0,0.0,0.0,0.44099597910788757,0.0,0.0,0.0,stabilize
1761301597.7518106,9.742290258407593,0.0,0.0,2.020557767471472,0.0,0.0,0.010227389259679125,0.0,0.0,0.0,0.44107081773816187,0.0,0.0,0.0,stabilize
1761301597.8575437,9.848023414611816,0.0,0.0,2.021547925320256,0.0,0.0,0.008540471619504011,0.0,0.0,0.0,0.44116908921391496,0.0,0.0,0.0,stabilize
1761301597.9626126,9.953092336654663,0.0,0.0,2.022366809851128,0.0,0.0,0.007075414781525577,0.0,0.0,0.0,0.4412398201201078,0.0,0.0,0.0,stabilize
1761301598.0685844,10.059064149856567,0.0,0.0,2.0230470457346805,0.0,0.0,0.005790679418053446,0.0,0.0,0.0,0.4413502144589288,0.0,0.0,0.0,stabilize
1761301598.1743472,10.1648268699646,0.0,0.0,2.0235985864970063,0.0,0.0,0.004666866411569855,0.0,0.0,0.0,0.4414401662514436,0.0,0.0,0.0,stabilize
1761301598.2796626,10.270142316818237,0.0,0.0,2.024037471955072,0.0,0.0,0.003690621746275893,0.0,0.0,0.0,0.4414633355019516,0.0,0.0,0.0,stabilize
1761301598.3856316,10.376111268997192,0.0,0.0,2.0243821237845405,0.0,0.0,0.002831950813224809,0.0,0.0,0.0,0.44151049517489016,0.0,0.0,0.0,stabilize
1761301598.4918385,10.48231816291809,0.0,0.0,2.0246425205108456,0.0,0.0,0.0020883822929835937,0.0,0.0,0.0,0.4415993960497776,0.0,0.0,0.0,stabilize
1761301598.5960076,10.586487293243408,0.0,0.0,2.024824554534326,0.0,0.0,0.001454985379374094,0.0,0.0,0.0,0.4416063940478486,0.0,0.0,0.0,stabilize
1761301598.7006907,10.691170454025269,0.0,0.0,2.024947714970642,0.0,0.0,0.0008870136886785048,0.0,0.0,0.0,0.4416299997765824,0.0,0.0,0.0,stabilize
1761301598.80295,10.793429613113403,0.0,0.0,2.025013959033016,0.0,0.0,0.0004154299011472719,0.0,0.0,0.0,0.44168043916933153,0.0,0.0,0.0,stabilize
1761301598.907278,10.897757768630981,0.0,0.0,2.0250346875348697,0.0,0.0,-1.0198917849704416e-05,0.0,0.0,0.0,0.4416885413443157,0.0,0.0,0.0,stabilize
1761301599.0126593,11.003139019012451,0.0,0.0,2.025013932898817,0.0,0.0,-0.000380999473858964,0.0,0.0,0.0,0.4416973089260521,0.0,0.0,0.0,stabilize
1761301599.1168716,11.107351303100586,0.0,0.0,2.024957844033168,0.0,0.0,-0.0006959680759534475,0.0,0.0,0.0,0.44173768557467197,0.0,0.0,0.0,stabilize
1761301599.22218,11.21265959739685,0.0,0.0,2.024869941785154,0.0,0.0,-0.0009698197206682794,0.0,0.0,0.0,0.44175590004284837,0.0,0.0,0.0,stabilize
1761301599.3260381,11.31651782989502,0.0,0.0,2.0247568195293764,0.0,0.0,-0.0012036838627679874,0.0,0.0,0.0,0.441784720935306,0.0,0.0,0.0,stabilize
1761301599.4340353,11.424515008926392,0.0,0.0,2.0246150603077857,0.0,0.0,-0.0014177741633781724,0.0,0.0,0.0,0.44172420684771,0.0,0.0,0.0,stabilize
1761301599.5391107,11.529590368270874,0.0,0.0,2.0244571888703997,0.0,0.0,-0.0015880096838796515,0.0,0.0,0.0,0.4418007591829587,0.0,0.0,0.0,stabilize
1761301599.6435826,11.63406229019165,0.006190814274121294,0.0,2.08170224458045,0.20016785757477892,0.0,1.0886064574476229,0.0,-0.21546187434913702,0.0,1.0,0.0,-0.3,0.0,auto
1761301599.749142,11.739621639251709,0.060660225479548094,0.0,2.250157394323622,0.9272442124248869,0.0,2.097059966404722,0.0,-0.46188347466431423,0.0,1.0,0.0,-0.13489690779265423,0.0,auto
1761301599.8621743,11.852653980255127,0.20851145072618796,0.0,2.5057533243254455,1.6768908739411845,0.0,2.400114487680588,0.0,-0.5013827706268479,0.0,0.6179982644237613,0.0,-0.08781607212212089,0.0,auto
1761301599.9663174,11.956797122955322,0.41115678156376567,0.0,2.756689111280478,2.132302827054124,0.0,2.371782384668705,0.0,-0.32410857863919695,0.0,0.45894896510314914,0.0,0.014698986284478324,0.0,auto
1761301600.0712276,12.061707258224487,0.6486781059760977,0.0,3.0002265577393414,2.379905744208206,0.0,2.2573534975505996,0.0,-0.24423680948902554,0.0,0.3954448058810783,0.0,0.06010622163536153,0.0,auto
1761301600.1781843,12.16866397857666,0.9121892836670942,0.0,3.2326921266174895,2.5381221745315936,0.0,2.0831464427814654,0.0,-0.187102175527091,0.0,0.3722344143398873,0.0,0.05038717540022872,0.0,auto
1761301600.281983,12.272462606430054,1.181360629625324,0.0,3.4391867985173588,2.6415908413203537,0.0,1.8936676010229032,0.0,-0.14451063987752633,0.0,0.3632315793648929,0.0,0.021807866899572113,0.0,auto
1761301600.38513,12.375609636306763,1.4578339497569641,0.0,3.624702040109683,2.7142929468614,0.0,1.7038494297331268,0.0,-0.11347830382303929,0.0,0.3642040300345067,0.0,0.004746140927348892,0.0,auto
1761301600.488757,12.479236602783203,1.7419854335169094,0.0,3.7916924402703684,2.766749603722602,0.0,1.52089612922574,0.0,-0.09248912411830762,0.0,0.367750303851513,0.0,0.0034690895915830493,0.0,auto
1761301600.59323,12.583709716796875,2.0331310950205,0.0,3.941506126577144,2.804932186443748,0.0,1.3495347640698891,0.0,-0.07796883559249743,0.0,0.3731188369027883,0.0,0.005500599767377522,0.0,auto
1761301600.6971643,12.687644004821777,2.3261627491654617,0.0,4.073565337291506,2.832544105178661,0.0,1.1942299184437215,0.0,-0.06739472330903329,0.0,0.3792991146738829,0.0,0.005472299894422881,0.0,auto
1761301600.800963,12.791442632675171,2.6212688401518474,0.0,4.19015417727722,2.8516901270392663,0.0,1.0550243300891633,0.0,-0.04858835639595614,0.0,0.383018935859666,0.0,0.07113625986393302,0.0,auto
1761301600.9158642,12.906343936920166,2.9223451338926574,0.0,4.294927920915955,2.8306971936084775,0.0,0.9275707873157171,0.0,-0.0019752467202948996,0.0,0.39105450317037754,0.0,0.0247504516029774,0.0,auto
1761301601.0122545,13.002734184265137,3.2170176436364266,0.0,4.386265839468067,2.7809656819551307,0.0,0.8156884205957369,0.0,0.02935725744432954,0.0,0.39723803319128964,0.0,-0.0006348652151085825,0.0,auto
1761301601.1166246,13.107104301452637,3.5052897601262325,0.0,4.4665382357034495,2.7119982998290273,0.0,0.7167931231498617,0.0,0.04875379768293232,0.0,0.4027433851543462,0.0,-0.003190292368511431,0.0,auto
1761301601.2269845,13.217464208602905,3.799925158513015,0.0,4.540481052011727,2.6257560572734078,0.0,0.6252671815197527,0.0,0.06077971350103047,0.0,0.4078839067381459,0.0,-0.00026094137872785116,0.0,auto
1761301601.3317351,13.322214841842651,4.070312013244993,0.0,4.601898530099997,2.536101324735485,0.0,0.5489638464224331,0.0,0.06711806115793813,0.0,0.4120071608313307,0.0,0.0033220156449064882,0.0,auto
1761301601.4358532,13.426332950592041,4.329534354994275,0.0,4.655507371434895,2.4430538423789883,0.0,0.48219032569021375,0.0,0.07090803263573876,0.0,0.41577352194081596,0.0,0.0032236225720018528,0.0,auto
1761301601.5393665,13.52984619140625,4.577564414916217,0.0,4.702332037126765,2.349120984442172,0.0,0.4237350210227441,0.0,0.07304393944688463,0.0,0.4191176205867348,0.0,0.0013402336180064753,0.0,auto
1761301601.6461678,13.636647462844849,4.823287092916758,0.0,4.744694692940725,2.2524737820140763,0.0,0.3707297868934721,0.0,0.07385143211441439,0.0,0.42213619858958656,0.0,-0.00014588517126281575,0.0,auto
1761301601.750502,13.740981817245483,5.053430192226076,0.0,4.78095148209789,2.159444058443747,0.0,0.3252462512257026,0.0,0.07349442256653713,0.0,0.4245648284115177,0.0,-0.0007961055849539953,0.0,auto
1761301601.8566437,13.847123384475708,5.277708540387061,0.0,4.813271524727106,2.0669764868059732,0.0,0.2846260788964566,0.0,0.07241361807324613,0.0,0.4268179206629353,0.0,-0.0010430808787450555,0.0,auto
1761301601.9621887,13.95266842842102,5.491131031645716,0.0,4.841401759333416,1.9776963694234497,0.0,0.24919364528867716,0.0,0.07083469419573304,0.0,0.42878640142687524,0.0,-0.0008901141957286234,0.0,auto
1761301602.0652664,14.055746078491211,5.6906144676926145,0.0,4.865486074812541,1.8933514930801112,0.0,0.2187570985706033,0.0,0.0689744955654922,0.0,0.4303048854824629,0.0,-0.0007913129942024636,0.0,auto
1761301602.1712632,14.161742925643921,5.886842974145242,0.0,4.887184719697999,1.809720894900199,0.0,0.19127870368827699,0.0,0.06691458713607291,0.0,0.43196810549535786,0.0,-0.000770716800096001,0.0,auto
1761301602.2770422,14.267521858215332,6.07400072933606,0.0,4.906116065876864,1.7294806115140222,0.0,0.16719969949717933,0.0,0.06472582974637488,0.0,0.4331241767809311,0.0,-0.0010029568792517592,0.0,auto
1761301602.3817804,14.372260093688965,6.251124152526532,0.0,4.922509445836548,1.6532544610602529,0.0,0.14628272104838094,0.0,0.06251763104177649,0.0,0.43416477528814706,0.0,-0.0010118028481805443,0.0,auto
1761301602.490879,14.481358766555786,6.42650096341964,0.0,4.937338847577549,1.5775400698101207,0.0,0.12728009623179928,0.0,0.060268934008940296,0.0,0.4351641479927204,0.0,-0.0012624793862275072,0.0,auto
1761301602.5967429,14.587222576141357,6.590514519790735,0.0,4.949993951457015,1.5065582598432041,0.0,0.11099492939741121,0.0,0.05804770127843738,0.0,0.43605648923218715,0.0,-0.0011129767022833778,0.0,auto
1761301602.7024946,14.692974328994751,6.746238067444551,0.0,4.960965130918614,1.4390183854605354,0.0,0.09680117111355047,0.0,0.055882891616964046,0.0,0.4367669467244952,0.0,-0.000950427352410399,0.0,auto
1761301602.806275,14.796754598617554,6.892262806945339,0.0,4.970363057728576,1.3755637844659911,0.0,0.08456843748511428,0.0,0.053793696979137356,0.0,0.43742625104056365,0.0,-0.000899452429775477,0.0,auto
1761301602.909716,14.900195598602295,7.031397654431746,0.0,4.978544842147645,1.3150071071639513,0.0,0.07385126203893463,0.0,0.05178258362961496,0.0,0.43801095581608407,0.0,-0.0009114002380473631,0.0,auto
1761301603.013603,15.004082679748535,7.164963946231431,0.0,4.9857148385008685,1.256792396346091,0.0,0.06438551798729396,0.0,0.049821435827203164,0.0,0.4384935234739737,0.0,-0.0009187785970186099,0.0,auto
1761301603.1208727,15.111352443695068,7.296673430599084,0.0,4.992151591124212,1.1993103568748973,0.0,0.05581344392321076,0.0,0.047857408492376234,0.0,0.43885477062475686,0.0,-0.0008137353042253413,0.0,auto
1761301603.224702,15.215181589126587,7.418414139628264,0.0,4.997561592256267,1.1461034631012867,0.0,0.04854910711303479,0.0,0.0460084358250357,0.0,0.43933924574849753,0.0,-0.0008402579632116085,0.0,auto
1761301603.3293812,15.319860935211182,7.535682087741347,0.0,5.002299193749031,1.094795710437235,0.0,0.04210479736705617,0.0,0.04420783081248598,0.0,0.4396240537014949,0.0,-0.0008639720561848937,0.0,auto
1761301603.4329503,15.4234299659729,7.646535927123795,0.0,5.006364602940809,1.0462380371001914,0.0,0.03651948550913501,0.0,0.042479163778446814,0.0,0.43996686254029915,0.0,-0.0007947641011222221,0.0,auto
1761301603.5383704,15.528850078582764,7.754320503037358,0.0,5.009944983399503,0.9989759084608723,0.0,0.031518771067254286,0.0,0.04078034071279899,0.0,0.44020775672298373,0.0,-0.0007868208770374233,0.0,auto
1761301603.6431403,15.633620023727417,7.856613172867466,0.0,5.013014292926793,0.9540727997597203,0.0,0.027168115414503424,0.0,0.039144626904876,0.0,0.44042411974426887,0.0,-0.0006928630397434606,0.0,auto
1761301603.7487156,15.739195346832275,7.955039201210558,0.0,5.01567491540214,0.9108210226815334,0.0,0.02332887180597821,0.0,0.03754839748088122,0.0,0.44069349541771674,0.0,-0.000643377158824576,0.0,auto
1761301603.8533998,15.843879461288452,8.048226150565112,0.0,5.017937649872396,0.8698319179169558,0.0,0.019975663986519284,0.0,0.036031277017822876,0.0,0.4407478658044538,0.0,-0.0006769115666704904,0.0,auto
1761301603.9612112,15.951690912246704,8.139813569302913,0.0,5.019925687601559,0.8295076587478284,0.0,0.016968602911738045,0.0,0.034533965426268326,0.0,0.4409144232535338,0.0,-0.0006623139610844134,0.0,auto
1761301604.067119,16.05759859085083,8.225646350174511,0.0,5.021583014655378,0.7916806302478869,0.0,0.014388070872359689,0.0,0.03310020007857182,0.0,0.44108688821449205,0.0,-0.0006119388565013994,0.0,auto
1761301604.1770666,16.167546272277832,8.310613044916622,0.0,5.023032777289981,0.7542031137442757,0.0,0.012037677983573506,0.0,0.0316642148442285,0.0,0.44107365431940226,0.0,-0.0005018131167918079,0.0,auto
1761301604.281599,16.2720787525177,8.387659999580462,0.0,5.024188241337898,0.7201810949308085,0.0,0.010107608772165391,0.0,0.030351889447402577,0.0,0.4413188334136861,0.0,-0.0005169418442621315,0.0,auto
1761301604.386724,16.377203702926636,8.46163785048045,0.0,5.025158490242156,0.6874923185940633,0.0,0.008394651803489004,0.0,0.02909237064945474,0.0,0.4413723687624179,0.0,-0.0005491969283504819,0.0,auto
1761301604.4918067,16.48228645324707,8.532228918978221,0.0,5.025960170666499,0.6562756707617362,0.0,0.006900120912954481,0.0,0.027881427153428878,0.0,0.4414480035880717,0.0,-0.000553668954884717,0.0,auto
1761301604.6030443,16.59352397918701,8.602838855167592,0.0,5.02664321070189,0.6250275773339833,0.0,0.005495617516927895,0.0,0.02665115012683934,0.0,0.44138190917409464,0.0,-0.0006220516072399924,0.0,auto
1761301604.7060323,16.69651198387146,8.666359996203745,0.0,5.02715895031117,0.5968838310719299,0.0,0.004410700092189747,0.0,0.02553374801128793,0.0,0.44156482163827593,0.0,-0.0005234301991289858,0.0,auto
1761301604.8108673,16.801347017288208,8.7275031483046,0.0,5.027568227019996,0.5697836442000926,0.0,0.0034236789189315588,0.0,0.024457965640665304,0.0,0.4416448875386095,0.0,-0.0005109616954279005,0.0,auto
1761301604.9170825,16.907562255859375,8.78661963784369,0.0,5.027884028566967,0.5435627420850045,0.0,0.0025467977118027764,0.0,0.02340779997844746,0.0,0.44166295139316414,0.0,-0.0004959712346093797,0.0,auto
1761301605.0204206,17.010900259017944,8.841521646950223,0.0,5.028108149703399,0.5191929728215128,0.0,0.0018049539327131099,0.0,0.02242005703222663,0.0,0.4416839316503371,0.0,-0.0004600092671068853,0.0,auto
1761301605.1249163,17.11539602279663,8.894535470122598,0.0,5.028261975003722,0.4956460433914981,0.0,0.0011537078609295602,0.0,0.021464976499785196,0.0,0.44172672886308795,0.0,-0.00043983009021100533,0.0,auto
1761301605.2290618,17.219541549682617,8.944978473192714,0.0,5.0283518802848155,0.4732271487032821,0.0,0.0005880942303773334,0.0,0.02054918072369419,0.0,0.4417593293451342,0.0,-0.0004087411587948136,0.0,auto
1761301605.3351254,17.325605154037476,8.993778149514242,0.0,5.0283867736484344,0.45152427054219185,0.0,8.997301750353783e-05,0.0,0.01965930633707654,0.0,0.44178928278314666,0.0,-0.00039582329190593053,0.0,auto
1761301605.442847,17.433326721191406,9.04148637777835,0.0,5.0283715007006275,0.43029556787263146,0.0,-0.0003432769441508429,0.0,0.018783673545577303,0.0,0.4418916470649908,0.0,-0.00029901917263871504,0.0,auto
1761301605.5480728,17.5385525226593,9.085719810963344,0.0,5.028314421203291,0.41059533630532513,0.0,-0.0007257910847750568,0.0,0.017952936573143254,0.0,0.44180483522850444,0.0,-0.00031098917816091794,0.0,auto
1761301605.6521287,17.642608404159546,9.127469598237528,0.0,5.02822208609665,0.39199551148827616,0.0,-0.0010427770663610078,0.0,0.017181716681998766,0.0,0.44181452161472945,0.0,-0.0003247417147534583,0.0,auto
1761301605.761535,17.752014636993408,9.169327619561555,0.0,5.028091847504229,0.3733357046914204,0.0,-0.0013322829270129906,0.0,0.016410779080887394,0.0,0.44179048644405045,0.0,-0.00037841986065044887,0.0,auto
1761301605.8663294,17.85680913925171,9.207551245676674,0.0,5.027939961570085,0.35629067520166835,0.0,-0.0015612319926638985,0.0,0.015695125496790106,0.0,0.4418787327586573,0.0,-0.00034682556984746467,0.0,auto
1761301605.9723756,17.962855339050293,9.244454740184043,0.0,5.027762834127906,0.33982671395750064,0.0,-0.0017669712548454492,0.0,0.014997919679315646,0.0,0.44187993198530334,0.0,-0.00031334002021838,0.0,auto
1761301606.0779583,18.068438053131104,9.279502247682466,0.0,5.027566543236239,0.3241826755967998,0.0,-0.001941265817013615,0.0,0.014333969517808546,0.0,0.44188255548851996,0.0,-0.0002952742281292278,0.0,auto
1761301606.1853,18.175779819488525,9.313479715267324,0.0,5.02734958809734,0.30900814023410417,0.0,-0.002093658294414224,0.0,0.013687479033543438,0.0,0.4418747511973518,0.0,-0.0002938348096583497,0.0,auto
1761301606.2902958,18.280775547027588,9.345175092641517,0.0,5.027123175713062,0.2948475922609856,0.0,-0.002218106926652384,0.0,0.013082130625925502,0.0,0.44186997357810076,0.0,-0.0002792509164959032,0.0,auto
1761301606.3957326,18.38621234893799,9.375541775100867,0.0,5.026883844741639,0.2812749763334922,0.0,-0.0023221011240192797,0.0,0.012498801459810877,0.0,0.4418807124703801,0.0,-0.00026464345323411203,0.0,auto
1761301606.501718,18.4921977519989,9.404657553393593,0.0,5.026633181969814,0.268256117199898,0.0,-0.0024076995896971844,0.0,0.011940947463376256,0.0,0.44188492972737065,0.0,-0.00026095834325997897,0.0,auto
1761301606.6075547,18.598034381866455,9.432387393632043,0.0,5.026374551419577,0.2558526565281642,0.0,-0.002479300066614964,0.0,0.011406272699568603,0.0,0.44189048939916026,0.0,-0.00024931168859615297,0.0,auto
1761301606.7127678,18.703247547149658,9.458682653120057,0.0,5.0261107322613485,0.2440862409451839,0.0,-0.0025347458058541253,0.0,0.010895749816404595,0.0,0.44190840782086094,0.0,-0.0002296991869268831,0.0,auto
1761301606.8189394,18.80941915512085,9.483991573233169,0.0,5.025839014679633,0.2327572893262265,0.0,-0.0025820515547654425,0.0,0.010404800437995342,0.0,0.44189513793614615,0.0,-0.0002224682814310453,0.0,auto
1761301606.9272866,18.917766332626343,9.508608258632043,0.0,5.025557160650424,0.22173455746018844,0.0,-0.00260877791801912,0.0,0.009924775382560827,0.0,0.44199844105106356,0.0,-0.0001937975676269907,0.0,auto
1761301607.0328329,19.02331256866455,9.53146691405117,0.0,5.025279471571754,0.21149478337575822,0.0,-0.002646182954622564,0.0,0.00947797633724554,0.0,0.4418815244772284,0.0,-0.0002024069332087305,0.0,auto
1761301607.138726,19.12920570373535,9.553339838363314,0.0,5.024998436599073,0.20169470249927895,0.0,-0.002664866057249546,0.0,0.009050762746323777,0.0,0.4418853679586691,0.0,-0.00019839174656041507,0.0,auto
1761301607.240755,19.231234788894653,9.573455190217175,0.0,5.024725824090063,0.19267712387915753,0.0,-0.0026707212677313436,0.0,0.00866871069621215,0.0,0.44189917789595085,0.0,-0.00023242102445482102,0.0,auto
1761301607.3433309,19.333810567855835,9.592771568871596,0.0,5.02445140793459,0.18401797713218357,0.0,-0.002678641199871652,0.0,0.008277403826047303,0.0,0.44190463935754676,0.0,-0.0001738174466157772,0.0,auto
1761301607.4459193,19.43639898300171,9.611221981493033,0.0,5.024176417409836,0.17574495447669825,0.0,-0.0026806428288719928,0.0,0.007908095554474831,0.0,0.4419125513862368,0.0,-0.00014629924416797543,0.0,auto
1761301607.5509453,19.541424989700317,9.62925178131495,0.0,5.023894797884606,0.16765831819804253,0.0,-0.0026799246940463154,0.0,0.00755196086466015,0.0,0.4419118930933435,0.0,-0.00015210367631751236,0.0,auto
1761301607.6546035,19.64508318901062,9.646233068434624,0.0,5.0236173203723915,0.16004014779462872,0.0,-0.002674017758008189,0.0,0.007216843135396487,0.0,0.4419020685026444,0.0,-0.00015248524411764453,0.0,auto
1761301607.760781,19.75126075744629,9.66282732911748,0.0,5.023333859919187,0.1525942497833793,0.0,-0.002668185368360638,0.0,0.006886968411155267,0.0,0.4418957676147204,0.0,-0.0001494602568649249,0.0,auto
1761301607.8648665,19.855346202850342,9.678344888679353,0.0,5.02305724136677,0.14562901825194532,0.0,-0.0026539696259857905,0.0,0.0065789244909264435,0.0,0.44188514343640667,0.0,-0.00014528536609468778,0.0,auto
1761301607.969291,19.959770679473877,9.693201215737185,0.0,5.022781152530839,0.13895970227275606,0.0,-0.0026334633927877736,0.0,0.006283415582412632,0.0,0.44193618285482367,0.0,-0.00013508705484531692,0.0,auto
1761301608.0753725,20.065852165222168,9.707596721948537,0.0,5.022502339341739,0.13249605889540286,0.0,-0.0026200354308021073,0.0,0.00599553016260627,0.0,0.44190804902202624,0.0,-0.0001280382555564585,0.0,auto
1761301608.1795092,20.169988870620728,9.721076746745647,0.0,5.022230543514274,0.12644179480018483,0.0,-0.0026005910377239487,0.0,0.005726014279565162,0.0,0.4419033739756846,0.0,-0.00012366998125724072,0.0,auto
1761301608.2850902,20.275569915771484,9.7341150031599,0.0,5.021956999504543,0.1205852438210559,0.0,-0.0025814562301937575,0.0,0.005464573976762182,0.0,0.44190222743046337,0.0,-0.00011894263170475009,0.0,auto
1761301608.3894043,20.379884004592896,9.746403547899288,0.0,5.021688959183731,0.11506427132985955,0.0,-0.002559317346471303,0.0,0.00521784890774655,0.0,0.4418915269458546,0.0,-0.00011053701245549646,0.0,auto
1761301608.4987712,20.489250898361206,9.758683526287017,0.0,5.0214103765272435,0.10954455145009295,0.0,-0.0025322954857746453,0.0,0.004971879607142763,0.0,0.44191088643403126,0.0,-0.00011811342881062079,0.0,auto
1761301608.603811,20.594290733337402,9.769922764183065,0.0,5.021145445261868,0.10449413395422655,0.0,-0.0025113046681787253,0.0,0.004745399534474609,0.0,0.4419082542407108,0.0,-0.00010919510393325371,0.0,auto
1761301608.7082248,20.698704481124878,9.780581331658158,0.0,5.020884527943367,0.09970357166921615,0.0,-0.0024859540009975877,0.0,0.004530292336454691,0.0,0.4419075382704369,0.0,-9.597666664169904e-05,0.0,auto
1761301608.8134365,20.803916215896606,9.790827093041983,0.0,5.020624151535436,0.09509776138282076,0.0,-0.0024607367493351,0.0,0.00432204328673356,0.0,0.44191825368912635,0.0,-8.443934469824213e-05,0.0,auto
1761301608.916982,20.907461643218994,9.800448316268843,0.0,5.020370540721931,0.09077164169309979,0.0,-0.0024382273579802325,0.0,0.0041274930675882174,0.0,0.4419013199914171,0.0,-8.808687834412958e-05,0.0,auto
1761301609.0221183,21.012598037719727,9.809769661593885,0.0,5.020115647690051,0.08658021066927554,0.0,-0.002409965885543929,0.0,0.003939486177843799,0.0,0.4419161536127005,0.0,-8.209135565097896e-05,0.0,auto
1761301609.128294,21.118773698806763,9.818746355631857,0.0,5.0198609921202975,0.08254312642432357,0.0,-0.0023850261659467318,0.0,0.003757919437331492,0.0,0.44189606869489767,0.0,-7.894093307688659e-05,0.0,auto
1761301609.2354834,21.22596311569214,9.827384210059918,0.0,5.019606742228923,0.07865787335031368,0.0,-0.00235951610693588,0.0,0.0035831301648395616,0.0,0.441894357808056,0.0,-7.965467130803891e-05,0.0,auto
1761301609.3423927,21.33287239074707,9.835594458263266,0.0,5.0193560549167895,0.07496451727675686,0.0,-0.0023295040877919174,0.0,0.00341631221425592,0.0,0.4419248934302286,0.0,-7.380761333047768e-05,0.0,auto
1761301609.4450183,21.435497999191284,9.843112821082885,0.0,5.019118250495581,0.07158185682434869,0.0,-0.002304348949542978,0.0,0.0032627115510137144,0.0,0.44190278669256733,0.0,-6.723940627307624e-05,0.0,auto
1761301609.5493126,21.53979229927063,9.850405949691828,0.0,5.0188792626245595,0.06830035804572901,0.0,-0.0022795377412852947,0.0,0.0031148871686428187,0.0,0.44189772046698783,0.0,-6.92909223726828e-05,0.0,auto
1761301609.6541634,21.6446430683136,9.857400985325857,0.0,5.018641754212111,0.06515267739027299,0.0,-0.0022505327694161783,0.0,0.002972718214163667,0.0,0.4419193136943172,0.0,-6.484209193296587e-05,0.0,auto
1761301609.758267,21.748746633529663,9.86402717796875,0.0,5.0184087140498,0.06217067937597496,0.0,-0.002223458180269394,0.0,0.0028372675036880063,0.0,0.4419235017149654,0.0,-5.855951645582767e-05,0.0,auto
1761301609.8625386,21.853018283843994,9.870360047140796,0.0,5.018178043239526,0.05932039223035919,0.0,-0.0021995033212312064,0.0,0.002707563974707056,0.0,0.4419094284209904,0.0,-5.5782391071997026e-05,0.0,auto
1761301609.9722886,21.96276831626892,9.87671227926274,0.0,5.017938088388312,0.056461022724572596,0.0,-0.0021727849743685317,0.0,0.0025792097425842734,0.0,0.4418925555676531,0.0,-5.810096417104145e-05,0.0,auto
1761301610.0781333,22.068613052368164,9.882548241144315,0.0,5.017709647807642,0.053833863107790765,0.0,-0.0021442328251012888,0.0,0.0024598064618327935,0.0,0.4419063471586101,0.0,-5.333423619223798e-05,0.0,auto
1761301610.1837118,22.17419147491455,9.888098969481447,0.0,5.017484549286908,0.05133499543132102,0.0,-0.002118861377722724,0.0,0.002345814711707199,0.0,0.4418975494534903,0.0,-4.743495495190289e-05,0.0,auto
1761301610.2879283,22.27840805053711,9.893325343479601,0.0,5.017265080828279,0.04898184216642217,0.0,-0.0020922930410205067,0.0,0.002238668071333719,0.0,0.4419107849136448,0.0,-4.5457816817630076e-05,0.0,auto
1761301610.39422,22.384699821472168,9.898409090069059,0.0,5.017043941075456,0.04669285114565125,0.0,-0.002066998588071447,0.0,0.002134854055353935,0.0,0.44191380847734757,0.0,-4.53134221261035e-05,0.0,auto
