timestamp,simulation_time,position_x,position_y,position_z,velocity_x,velocity_y,velocity_z,attitude_roll,attitude_pitch,attitude_yaw,control_throttle,control_roll,control_pitch,control_yaw,estimated_position_x,estimated_position_y,estimated_position_z,flight_mode,battery_level,setpoint_altitude,setpoint_position_x,setpoint_position_y,setpoint_position_z,position_error,attitude_error,waypoint_index,mission_complete
1761251343.6091769,0.10735058784484863,0.0,0.0,-0.0,0.0,0.0,-0.0,0.0,0.0,0.0,0.0,0.0,0.0,0.0,0.0,0.0,-0.0,manual,85.0,0.0,0.0,0.0,0.0,0.0,0.0,0,0
1761251343.7132566,0.21143031120300293,0.0,0.0,-0.0,0.0,0.0,-0.0,0.0,0.0,0.0,0.0,0.0,0.0,0.0,0.0,0.0,-0.0,manual,85.0,0.0,0.0,0.0,0.0,0.0,0.0,0,0
1761251343.816809,0.31498265266418457,0.0,0.0,-0.0,0.0,0.0,-0.0,0.0,0.0,0.0,0.0,0.0,0.0,0.0,0.0,0.0,-0.0,manual,85.0,0.0,0.0,0.0,0.0,0.0,0.0,0,0
1761251343.9203498,0.41852355003356934,0.0,0.0,-0.0,0.0,0.0,-0.0,0.0,0.0,0.0,0.0,0.0,0.0,0.0,0.0,0.0,-0.0,manual,85.0,0.0,0.0,0.0,0.0,0.0,0.0,0,0
1761251344.0238562,0.5220298767089844,0.0,0.0,-0.0,0.0,0.0,-0.0,0.0,0.0,0.0,0.0,0.0,0.0,0.0,0.0,0.0,-0.0,manual,85.0,0.0,0.0,0.0,0.0,0.0,0.0,0,0
1761251344.1295164,0.6276900768280029,0.0,0.0,-0.0,0.0,0.0,-0.0,0.0,0.0,0.0,0.0,0.0,0.0,0.0,0.0,0.0,-0.0,manual,85.0,0.0,0.0,0.0,0.0,0.0,0.0,0,0
1761251344.2321615,0.7303352355957031,0.0,0.0,-0.0,0.0,0.0,-0.0,0.0,0.0,0.0,0.0,0.0,0.0,0.0,0.0,0.0,-0.0,manual,85.0,0.0,0.0,0.0,0.0,0.0,0.0,0,0
1761251344.3346305,0.8328042030334473,0.0,0.0,-0.0,0.0,0.0,-0.0,0.0,0.0,0.0,0.0,0.0,0.0,0.0,0.0,0.0,-0.0,manual,85.0,0.0,0.0,0.0,0.0,0.0,0.0,0,0
1761251344.441756,0.939929723739624,0.0,0.0,-0.0,0.0,0.0,-0.0,0.0,0.0,0.0,0.0,0.0,0.0,0.0,0.0,0.0,-0.0,manual,85.0,0.0,0.0,0.0,0.0,0.0,0.0,0,0
1761251344.5460482,1.0442218780517578,0.0,0.0,-0.0,0.0,0.0,-0.0,0.0,0.0,0.0,0.0,0.0,0.0,0.0,0.0,0.0,-0.0,manual,85.0,0.0,0.0,0.0,0.0,0.0,0.0,0,0
1761251344.651123,1.149296760559082,0.0,0.0,-0.0,0.0,0.0,-0.0,0.0,0.0,0.0,0.0,0.0,0.0,0.0,0.0,0.0,-0.0,manual,85.0,0.0,0.0,0.0,0.0,0.0,0.0,0,0
1761251344.7555063,1.2536799907684326,0.0,0.0,-0.0,0.0,0.0,-0.0,0.0,0.0,0.0,0.0,0.0,0.0,0.0,0.0,0.0,-0.0,manual,85.0,0.0,0.0,0.0,0.0,0.0,0.0,0,0
1761251344.8579648,1.3561384677886963,0.0,0.0,-0.0,0.0,0.0,-0.0,0.0,0.0,0.0,0.0,0.0,0.0,0.0,0.0,0.0,-0.0,manual,85.0,0.0,0.0,0.0,0.0,0.0,0.0,0,0
1761251344.9610212,1.4591948986053467,0.0,0.0,-0.0,0.0,0.0,-0.0,0.0,0.0,0.0,0.0,0.0,0.0,0.0,0.0,0.0,-0.0,manual,85.0,0.0,0.0,0.0,0.0,0.0,0.0,0,0
1761251345.0652788,1.5634524822235107,0.0,0.0,-0.0,0.0,0.0,-0.0,0.0,0.0,0.0,0.0,0.0,0.0,0.0,0.0,0.0,-0.0,manual,85.0,0.0,0.0,0.0,0.0,0.0,0.0,0,0
1761251345.1689193,1.66709303855896,0.0,0.0,-0.0,0.0,0.0,-0.0,0.0,0.0,0.0,0.0,0.0,0.0,0.0,0.0,0.0,-0.0,manual,85.0,0.0,0.0,0.0,0.0,0.0,0.0,0,0
1761251345.2726004,1.7707741260528564,0.0,0.0,-0.0,0.0,0.0,-0.0,0.0,0.0,0.0,0.0,0.0,0.0,0.0,0.0,0.0,-0.0,manual,85.0,0.0,0.0,0.0,0.0,0.0,0.0,0,0
1761251345.3754623,1.87363600730896,0.0,0.0,-0.0,0.0,0.0,-0.0,0.0,0.0,0.0,0.0,0.0,0.0,0.0,0.0,0.0,-0.0,manual,85.0,0.0,0.0,0.0,0.0,0.0,0.0,0,0
1761251345.4791112,1.9772849082946777,0.0,0.0,-0.0,0.0,0.0,-0.0,0.0,0.0,0.0,0.0,0.0,0.0,0.0,0.0,0.0,-0.0,manual,85.0,0.0,0.0,0.0,0.0,0.0,0.0,0,0
1761251345.5826483,2.080821990966797,0.0,0.0,-0.0,0.0,0.0,-0.0,0.0,0.0,0.0,0.0,0.0,0.0,0.0,0.0,0.0,-0.0,manual,85.0,0.0,0.0,0.0,0.0,0.0,0.0,0,0
1761251345.6865566,2.184730291366577,0.0,0.0,-0.0,0.0,0.0,-0.0,0.0,0.0,0.0,0.0,0.0,0.0,0.0,0.0,0.0,-0.0,manual,85.0,0.0,0.0,0.0,0.0,0.0,0.0,0,0
1761251345.7918591,2.2900328636169434,0.0,0.0,-0.0,0.0,0.0,-0.0,0.0,0.0,0.0,0.0,0.0,0.0,0.0,0.0,0.0,-0.0,manual,85.0,0.0,0.0,0.0,0.0,0.0,0.0,0,0
1761251345.8954802,2.3936538696289062,0.0,0.0,-0.0,0.0,0.0,-0.0,0.0,0.0,0.0,0.0,0.0,0.0,0.0,0.0,0.0,-0.0,manual,85.0,0.0,0.0,0.0,0.0,0.0,0.0,0,0
1761251346.0003278,2.4985015392303467,0.0,0.0,-0.0,0.0,0.0,-0.0,0.0,0.0,0.0,0.0,0.0,0.0,0.0,0.0,0.0,-0.0,manual,85.0,0.0,0.0,0.0,0.0,0.0,0.0,0,0
1761251346.1047485,2.602922201156616,0.0,0.0,-0.0,0.0,0.0,-0.0,0.0,0.0,0.0,0.0,0.0,0.0,0.0,0.0,0.0,-0.0,manual,85.0,0.0,0.0,0.0,0.0,0.0,0.0,0,0
1761251346.2084007,2.7065744400024414,0.0,0.0,-0.0,0.0,0.0,-0.0,0.0,0.0,0.0,0.0,0.0,0.0,0.0,0.0,0.0,-0.0,manual,85.0,0.0,0.0,0.0,0.0,0.0,0.0,0,0
1761251346.3140168,2.812190532684326,0.0,0.0,0.0667432862378042,0.0,0.0,1.2450955269081023,0.0,0.0,0.0,0.35,0.0,0.0,0.0,0.0,0.0,0.0667432862378042,stabilize,85.0,2.0,0.0,0.0,-2.0,1.9332567137621959,0.0,0,0
1761251346.420433,2.918606758117676,0.0,0.0,0.20680903288576905,0.0,0.0,1.3177817080607874,0.0,0.0,0.0,0.35,0.0,0.0,0.0,0.0,0.0,0.20680903288576905,stabilize,85.0,2.0,0.0,0.0,-2.0,1.793190967114231,0.0,0,0
1761251346.52565,3.0238237380981445,0.0,0.0,0.3469930579942723,0.0,0.0,1.3122608474740614,0.0,0.0,0.0,0.35,0.0,0.0,0.0,0.0,0.0,0.3469930579942723,stabilize,85.0,2.0,0.0,0.0,-2.0,1.6530069420057276,0.0,0,0
1761251346.6291728,3.1273465156555176,0.0,0.0,0.4835311345336844,0.0,0.0,1.3080836504476863,0.0,0.0,0.0,0.5000270126970265,0.0,0.0,0.0,0.0,0.0,0.4835311345336844,stabilize,85.0,2.0,0.0,0.0,-2.0,1.5164688654663157,0.0,0,0
1761251346.7325141,3.2306878566741943,0.0,0.0,0.616051966028794,0.0,0.0,1.2447835217732746,0.0,0.0,0.0,0.35,0.0,0.0,0.0,0.0,0.0,0.616051966028794,stabilize,85.0,2.0,0.0,0.0,-2.0,1.383948033971206,0.0,0,0
1761251346.836184,3.334357738494873,0.0,0.0,0.7449198548513934,0.0,0.0,1.2112946357403283,0.0,0.0,0.0,0.35,0.0,0.0,0.0,0.0,0.0,0.7449198548513934,stabilize,85.0,2.0,0.0,0.0,-2.0,1.2550801451486064,0.0,0,0
1761251346.9423358,3.440509557723999,0.0,0.0,0.8692535236763013,0.0,0.0,1.1446162470904298,0.0,0.0,0.0,0.35,0.0,0.0,0.0,0.0,0.0,0.8692535236763013,stabilize,85.0,2.0,0.0,0.0,-2.0,1.1307464763236987,0.0,0,0
1761251347.045687,3.543860673904419,0.0,0.0,0.9835566254656689,0.0,0.0,1.0555692224829523,0.0,0.0,0.0,0.35,0.0,0.0,0.0,0.0,0.0,0.9835566254656689,stabilize,85.0,2.0,0.0,0.0,-2.0,1.016443374534331,0.0,0,0
1761251347.1458805,3.6440541744232178,0.0,0.0,1.0861035368938805,0.0,0.0,0.9821142634971678,0.0,0.0,0.0,0.35,0.0,0.0,0.0,0.0,0.0,1.0861035368938805,stabilize,85.0,2.0,0.0,0.0,-2.0,0.9138964631061195,0.0,0,0
1761251347.2500403,3.74821400642395,0.0,0.0,1.1848489537649425,0.0,0.0,0.9096067459672752,0.0,0.0,0.0,0.4263082580474641,0.0,0.0,0.0,0.0,0.0,1.1848489537649425,stabilize,85.0,2.0,0.0,0.0,-2.0,0.8151510462350575,0.0,0,0
1761251347.355166,3.853339672088623,0.0,0.0,1.2768304999465887,0.0,0.0,0.8484862869791158,0.0,0.0,0.0,0.5024112476488399,0.0,0.0,0.0,0.0,0.0,1.2768304999465887,stabilize,85.0,2.0,0.0,0.0,-2.0,0.7231695000534113,0.0,0,0
1761251347.4595401,3.9577138423919678,0.0,0.0,1.360871289389697,0.0,0.0,0.7625291795587353,0.0,0.0,0.0,0.35,0.0,0.0,0.0,0.0,0.0,1.360871289389697,stabilize,85.0,2.0,0.0,0.0,-2.0,0.639128710610303,0.0,0,0
1761251347.5634527,4.061626434326172,0.0,0.0,1.4376625877735525,0.0,0.0,0.6990826648635291,0.0,0.0,0.0,0.3979630126729379,0.0,0.0,0.0,0.0,0.0,1.4376625877735525,stabilize,85.0,2.0,0.0,0.0,-2.0,0.5623374122264475,0.0,0,0
1761251347.6668646,4.165038347244263,0.0,0.0,1.5071644416285048,0.0,0.0,0.6683254267489819,0.0,0.0,0.0,0.6028808957330448,0.0,0.0,0.0,0.0,0.0,1.5071644416285048,stabilize,85.0,2.0,0.0,0.0,-2.0,0.4928355583714952,0.0,0,0
1761251347.770013,4.268186807632446,0.0,0.0,1.5709489222988295,0.0,0.0,0.5980726986036714,0.0,0.0,0.0,0.35,0.0,0.0,0.0,0.0,0.0,1.5709489222988295,stabilize,85.0,2.0,0.0,0.0,-2.0,0.42905107770117046,0.0,0,0
1761251347.8736522,4.371825933456421,0.0,0.0,1.6290331496255979,0.0,0.0,0.551117061937179,0.0,0.0,0.0,0.5619596559015889,0.0,0.0,0.0,0.0,0.0,1.6290331496255979,stabilize,85.0,2.0,0.0,0.0,-2.0,0.37096685037440214,0.0,0,0
1761251347.9787745,4.476948261260986,0.0,0.0,1.6820577318017624,0.0,0.0,0.5096512986394319,0.0,0.0,0.0,0.630622522423409,0.0,0.0,0.0,0.0,0.0,1.6820577318017624,stabilize,85.0,2.0,0.0,0.0,-2.0,0.31794226819823757,0.0,0,0
1761251348.0822442,4.58041787147522,0.0,0.0,1.7295770489148101,0.0,0.0,0.46098402228932855,0.0,0.0,0.0,0.6206881467631833,0.0,0.0,0.0,0.0,0.0,1.7295770489148101,stabilize,85.0,2.0,0.0,0.0,-2.0,0.2704229510851899,0.0,0,0
1761251348.1880305,4.686204195022583,0.0,0.0,1.773484423159494,0.0,0.0,0.38117632043457933,0.0,0.0,0.0,0.4076672612409445,0.0,0.0,0.0,0.0,0.0,1.773484423159494,stabilize,85.0,2.0,0.0,0.0,-2.0,0.22651557684050605,0.0,0,0
1761251348.2980208,4.796194553375244,0.0,0.0,1.8133967197628853,0.0,0.0,0.32635520487372527,0.0,0.0,0.0,0.35,0.0,0.0,0.0,0.0,0.0,1.8133967197628853,stabilize,85.0,2.0,0.0,0.0,-2.0,0.1866032802371147,0.0,0,0
1761251348.4031126,4.901286363601685,0.0,0.0,1.8482002090069525,0.0,0.0,0.3207859342583575,0.0,0.0,0.0,0.35,0.0,0.0,0.0,0.0,0.0,1.8482002090069525,stabilize,85.0,2.0,0.0,0.0,-2.0,0.15179979099304752,0.0,0,0
1761251348.5081778,5.006351470947266,0.0,0.0,1.8791807306418808,0.0,0.0,0.26660014240374286,0.0,0.0,0.0,0.4123521494260079,0.0,0.0,0.0,0.0,0.0,1.8791807306418808,stabilize,85.0,2.0,0.0,0.0,-2.0,0.12081926935811915,0.0,0,0
1761251348.614144,5.112317800521851,0.0,0.0,1.9069577927505919,0.0,0.0,0.24472886043937897,0.0,0.0,0.0,0.35,0.0,0.0,0.0,0.0,0.0,1.9069577927505919,stabilize,85.0,2.0,0.0,0.0,-2.0,0.09304220724940815,0.0,0,0
1761251348.7188802,5.2170538902282715,0.0,0.0,1.932045090332251,0.0,0.0,0.2453889702537633,0.0,0.0,0.0,0.5877468572267252,0.0,0.0,0.0,0.0,0.0,1.932045090332251,stabilize,85.0,2.0,0.0,0.0,-2.0,0.06795490966774898,0.0,0,0
1761251348.8232517,5.321425437927246,0.0,0.0,1.9542487553185934,0.0,0.0,0.21198216477707413,0.0,0.0,0.0,0.5487691416290843,0.0,0.0,0.0,0.0,0.0,1.9542487553185934,stabilize,85.0,2.0,0.0,0.0,-2.0,0.045751244681406567,0.0,0,0
1761251348.929301,5.427474737167358,0.0,0.0,1.9745115105080164,0.0,0.0,0.1999017188869607,0.0,0.0,0.0,0.35,0.0,0.0,0.0,0.0,0.0,1.9745115105080164,stabilize,85.0,2.0,0.0,0.0,-2.0,0.025488489491983568,0.0,0,0
1761251349.0343301,5.532503843307495,0.0,0.0,1.9919151755495357,0.0,0.0,0.16830074797791233,0.0,0.0,0.0,0.5509049445617735,0.0,0.0,0.0,0.0,0.0,1.9919151755495357,stabilize,85.0,2.0,0.0,0.0,-2.0,0.008084824450464323,0.0,0,0
1761251349.1389294,5.637103080749512,0.0,0.0,2.007626601338445,0.0,0.0,0.12520797538341596,0.0,0.0,0.0,0.4026870860931816,0.0,0.0,0.0,0.0,0.0,2.007626601338445,stabilize,85.0,2.0,0.0,0.0,-2.0,0.007626601338444949,0.0,0,0
1761251349.2435966,5.741770267486572,0.0,0.0,2.020719587662081,0.0,0.0,0.15130614182877777,0.0,0.0,0.0,0.6655256900982001,0.0,0.0,0.0,0.0,0.0,2.020719587662081,stabilize,85.0,2.0,0.0,0.0,-2.0,0.02071958766208093,0.0,0,0
1761251349.3495321,5.847705841064453,0.0,0.0,2.032953900455089,0.0,0.0,0.09382294994350751,0.0,0.0,0.0,0.35,0.0,0.0,0.0,0.0,0.0,2.032953900455089,stabilize,85.0,2.0,0.0,0.0,-2.0,0.03295390045508917,0.0,0,0
1761251349.4528723,5.951045989990234,0.0,0.0,2.0433305877457086,0.0,0.0,0.09887847472568241,0.0,0.0,0.0,0.35,0.0,0.0,0.0,0.0,0.0,2.0433305877457086,stabilize,85.0,2.0,0.0,0.0,-2.0,0.04333058774570864,0.0,0,0
1761251349.556168,6.054341793060303,0.0,0.0,2.052403625743072,0.0,0.0,0.09617586349303166,0.0,0.0,0.0,0.5594758378606984,0.0,0.0,0.0,0.0,0.0,2.052403625743072,stabilize,85.0,2.0,0.0,0.0,-2.0,0.052403625743072,0.0,0,0
1761251349.6605783,6.158751964569092,0.0,0.0,2.060569435992207,0.0,0.0,0.05609361290539512,0.0,0.0,0.0,0.3757013266579743,0.0,0.0,0.0,0.0,0.0,2.060569435992207,stabilize,85.0,2.0,0.0,0.0,-2.0,0.06056943599220688,0.0,0,0
1761251349.7647667,6.262940406799316,0.0,0.0,2.0673718272144295,0.0,0.0,0.047964669571644275,0.0,0.0,0.0,0.35,0.0,0.0,0.0,0.0,0.0,2.0673718272144295,stabilize,85.0,2.0,0.0,0.0,-2.0,0.06737182721442947,0.0,0,0
1761251349.875043,6.37321662902832,0.0,0.0,2.0731288146923332,0.0,0.0,0.04684336144459861,0.0,0.0,0.0,0.35,0.0,0.0,0.0,0.0,0.0,2.0731288146923332,stabilize,85.0,2.0,0.0,0.0,-2.0,0.07312881469233323,0.0,0,0
1761251349.979008,6.477181673049927,0.0,0.0,2.078822963950814,0.0,0.0,0.08656253830368328,0.0,0.0,0.0,0.6710695815991791,0.0,0.0,0.0,0.0,0.0,2.078822963950814,stabilize,85.0,2.0,0.0,0.0,-2.0,0.078822963950814,0.0,0,0
1761251350.0870395,6.5852131843566895,0.0,0.0,2.084362106606982,0.0,0.0,0.031941151183875145,0.0,0.0,0.0,0.42398587731071335,0.0,0.0,0.0,0.0,0.0,2.084362106606982,stabilize,85.0,2.0,0.0,0.0,-2.0,0.08436210660698196,0.0,0,0
1761251350.1911542,6.689327955245972,0.0,0.0,2.088956592148528,0.0,0.0,0.03489245871913472,0.0,0.0,0.0,0.46133386099077156,0.0,0.0,0.0,0.0,0.0,2.088956592148528,stabilize,85.0,2.0,0.0,0.0,-2.0,0.08895659214852802,0.0,0,0
1761251350.295042,6.793215751647949,0.0,0.0,2.0931738009446192,0.0,0.0,0.03628448321894483,0.0,0.0,0.0,0.5008701921396748,0.0,0.0,0.0,0.0,0.0,2.0931738009446192,stabilize,85.0,2.0,0.0,0.0,-2.0,0.09317380094461925,0.0,0,0
1761251350.3984394,6.896613121032715,0.0,0.0,2.096059678615684,0.0,0.0,0.009725358317462518,0.0,0.0,0.0,0.35,0.0,0.0,0.0,0.0,0.0,2.096059678615684,stabilize,85.0,2.0,0.0,0.0,-2.0,0.09605967861568399,0.0,0,0
1761251350.5080268,7.006200551986694,0.0,0.0,2.0987851764427976,0.0,0.0,-0.00232537987876966,0.0,0.0,0.0,0.35,0.0,0.0,0.0,0.0,0.0,2.0987851764427976,stabilize,85.0,2.0,0.0,0.0,-2.0,0.0987851764427976,0.0,0,0
1761251350.610465,7.108638763427734,0.0,0.0,2.1015038777187796,0.0,0.0,0.018345757477691075,0.0,0.0,0.0,0.35,0.0,0.0,0.0,0.0,0.0,2.1015038777187796,stabilize,85.0,2.0,0.0,0.0,-2.0,0.10150387771877956,0.0,0,0
1761251350.7143884,7.212562084197998,0.0,0.0,2.1033159018355216,0.0,0.0,0.01722882914377745,0.0,0.0,0.0,0.4989800418426091,0.0,0.0,0.0,0.0,0.0,2.1033159018355216,stabilize,85.0,2.0,0.0,0.0,-2.0,0.10331590183552164,0.0,0,0
1761251350.819961,7.318134784698486,0.0,0.0,2.1053339107781484,0.0,0.0,0.030279087790555433,0.0,0.0,0.0,0.35,0.0,0.0,0.0,0.0,0.0,2.1053339107781484,stabilize,85.0,2.0,0.0,0.0,-2.0,0.10533391077814835,0.0,0,0
1761251350.9257967,7.423970460891724,0.0,0.0,2.106681844201739,0.0,0.0,-0.012731773988757591,0.0,0.0,0.0,0.35,0.0,0.0,0.0,0.0,0.0,2.106681844201739,stabilize,85.0,2.0,0.0,0.0,-2.0,0.1066818442017392,0.0,0,0
1761251351.029661,7.52783465385437,0.0,0.0,2.1092318353519803,0.0,0.0,0.02963982887984492,0.0,0.0,0.0,0.35,0.0,0.0,0.0,0.0,0.0,2.1092318353519803,stabilize,85.0,2.0,0.0,0.0,-2.0,0.10923183535198033,0.0,0,0
1761251351.1340086,7.632182359695435,0.0,0.0,2.110232618807039,0.0,0.0,0.028254551205117967,0.0,0.0,0.0,0.6026328468618845,0.0,0.0,0.0,0.0,0.0,2.110232618807039,stabilize,85.0,2.0,0.0,0.0,-2.0,0.11023261880703883,0.0,0,0
1761251351.2375665,7.7357401847839355,0.0,0.0,2.110854422221196,0.0,0.0,0.038451138298091374,0.0,0.0,0.0,0.6701305064241971,0.0,0.0,0.0,0.0,0.0,2.110854422221196,stabilize,85.0,2.0,0.0,0.0,-2.0,0.11085442222119601,0.0,0,0
1761251351.3457675,7.8439412117004395,0.0,0.0,2.111552658631589,0.0,0.0,-0.017738116273989014,0.0,0.0,0.0,0.35,0.0,0.0,0.0,0.0,0.0,2.111552658631589,stabilize,85.0,2.0,0.0,0.0,-2.0,0.11155265863158892,0.0,0,0
1761251351.4499106,7.948084354400635,0.0,0.0,2.1113948720737343,0.0,0.0,-0.0007896622923899282,0.0,0.0,0.0,0.35,0.0,0.0,0.0,0.0,0.0,2.1113948720737343,stabilize,85.0,2.0,0.0,0.0,-2.0,0.11139487207373433,0.0,0,0
1761251351.5552144,8.053388118743896,0.0,0.0,2.111404027309107,0.0,0.0,0.0173720046997683,0.0,0.0,0.0,0.35,0.0,0.0,0.0,0.0,0.0,2.111404027309107,stabilize,85.0,2.0,0.0,0.0,-2.0,0.11140402730910681,0.0,0,0
1761251351.6595538,8.157727479934692,0.0,0.0,2.1116586966878037,0.0,0.0,-0.0017818953778747058,0.0,0.0,0.0,0.35,0.0,0.0,0.0,0.0,0.0,2.1116586966878037,stabilize,85.0,2.0,0.0,0.0,-2.0,0.1116586966878037,0.0,0,0
1761251351.7682893,8.266463041305542,0.0,0.0,2.11080331522414,0.0,0.0,-0.03810871470849206,0.0,0.0,0.0,0.35,0.0,0.0,0.0,0.0,0.0,2.11080331522414,stabilize,85.0,2.0,0.0,0.0,-2.0,0.11080331522413989,0.0,0,0
1761251351.8730412,8.371214866638184,0.0,0.0,2.113753865560836,0.0,0.0,0.022813500483156723,0.0,0.0,0.0,0.5649837216391049,0.0,0.0,0.0,0.0,0.0,2.113753865560836,stabilize,85.0,2.0,0.0,0.0,-2.0,0.11375386556083589,0.0,0,0
1761251351.9786773,8.476850986480713,0.0,0.0,2.114788505162581,0.0,0.0,0.01766999239385042,0.0,0.0,0.0,0.5678364503392206,0.0,0.0,0.0,0.0,0.0,2.114788505162581,stabilize,85.0,2.0,0.0,0.0,-2.0,0.11478850516258099,0.0,0,0
1761251352.0838878,8.582061529159546,0.0,0.0,2.1147255535920872,0.0,0.0,-0.02141119571010708,0.0,0.0,0.0,0.35,0.0,0.0,0.0,0.0,0.0,2.1147255535920872,stabilize,85.0,2.0,0.0,0.0,-2.0,0.11472555359208725,0.0,0,0
1761251352.188519,8.686692714691162,0.0,0.0,2.113965559907659,0.0,0.0,-0.02970345361211102,0.0,0.0,0.0,0.35,0.0,0.0,0.0,0.0,0.0,2.113965559907659,stabilize,85.0,2.0,0.0,0.0,-2.0,0.11396555990765922,0.0,0,0
1761251352.29148,8.789653778076172,0.0,0.0,2.1134523771232163,0.0,0.0,-0.019237604205288295,0.0,0.0,0.0,0.35,0.0,0.0,0.0,0.0,0.0,2.1134523771232163,stabilize,85.0,2.0,0.0,0.0,-2.0,0.11345237712321632,0.0,0,0
1761251352.3962097,8.894383430480957,0.0,0.0,2.1113563328736786,0.0,0.0,-0.03598066623194365,0.0,0.0,0.0,0.35,0.0,0.0,0.0,0.0,0.0,2.1113563328736786,stabilize,85.0,2.0,0.0,0.0,-2.0,0.11135633287367863,0.0,0,0
1761251352.5005176,8.998691320419312,0.0,0.0,2.1095229801029203,0.0,0.0,-0.015460614436227836,0.0,0.0,0.0,0.5162329357339137,0.0,0.0,0.0,0.0,0.0,2.1095229801029203,stabilize,85.0,2.0,0.0,0.0,-2.0,0.10952298010292028,0.0,0,0
1761251352.6038494,9.102023124694824,0.0,0.0,2.1071518251832377,0.0,0.0,-0.04027011012598691,0.0,0.0,0.0,0.35,0.0,0.0,0.0,0.0,0.0,2.1071518251832377,stabilize,85.0,2.0,0.0,0.0,-2.0,0.10715182518323774,0.0,0,0
1761251352.7069643,9.205137968063354,0.0,0.0,2.1047584614780277,0.0,0.0,-0.015229110802252477,0.0,0.0,0.0,0.5408996400532163,0.0,0.0,0.0,0.0,0.0,2.1047584614780277,stabilize,85.0,2.0,0.0,0.0,-2.0,0.1047584614780277,0.0,0,0
1761251352.8161652,9.31433892250061,0.0,0.0,2.1018949809029603,0.0,0.0,0.03877604138895279,0.0,0.0,0.0,0.8002614237786884,0.0,0.0,0.0,0.0,0.0,2.1018949809029603,stabilize,85.0,2.0,0.0,0.0,-2.0,0.10189498090296034,0.0,0,0
1761251352.9221447,9.420318365097046,0.0,0.0,2.1009684766369237,0.0,0.0,0.0033779039599281177,0.0,0.0,0.0,0.5960985686943681,0.0,0.0,0.0,0.0,0.0,2.1009684766369237,stabilize,85.0,2.0,0.0,0.0,-2.0,0.10096847663692365,0.0,0,0
1761251353.0268762,9.525049924850464,0.0,0.0,2.099387104656532,0.0,0.0,-0.02732331656244979,0.0,0.0,0.0,0.4231474568881497,0.0,0.0,0.0,0.0,0.0,2.099387104656532,stabilize,85.0,2.0,0.0,0.0,-2.0,0.099387104656532,0.0,0,0
1761251353.128838,9.627011775970459,0.0,0.0,2.1014498638882215,0.0,0.0,-0.003279230232069526,0.0,0.0,0.0,0.40757150211084586,0.0,0.0,0.0,0.0,0.0,2.1014498638882215,stabilize,85.0,2.0,0.0,0.0,-2.0,0.10144986388822153,0.0,0,0
1761251353.233375,9.73154878616333,0.0,0.0,2.1017809485177006,0.0,0.0,0.025709874540416087,0.0,0.0,0.0,0.618784708125597,0.0,0.0,0.0,0.0,0.0,2.1017809485177006,stabilize,85.0,2.0,0.0,0.0,-2.0,0.10178094851770059,0.0,0,0
1761251353.3378456,9.836019277572632,0.0005527497167133785,0.0,2.116115414816472,0.038679705866605026,0.0,0.5497287470580527,0.0,-0.09280126825067576,0.0,1.0,0.0,-0.3,0.0,0.0005527497167133785,0.0,2.116115414816472,auto,85.0,5,10.0,0.0,0.0,10.220904547055602,0.09280126825067575,0,0
1761251353.4411786,9.93935227394104,0.022992383138013932,0.0,2.2263518172129406,0.438497267406698,0.0,1.4406916578098545,0.0,-0.34261254488293286,0.0,0.35,0.0,-0.3,0.0,0.022992383138013932,0.0,2.2263518172129406,auto,85.0,5,10.0,0.0,0.0,10.222393232552221,0.34261254488293286,0,0
1761251353.5453317,10.043505430221558,0.09559397341608658,0.0,2.387246584046197,0.9435615757520707,0.0,1.5962544893303758,0.0,-0.3843762913922797,0.0,0.41743147066442843,0.0,0.3,0.0,0.09559397341608658,0.0,2.387246584046197,auto,85.0,5,10.0,0.0,0.0,10.188042255137734,0.3843762913922797,0,0
1761251353.6551018,10.153275489807129,0.22062660683822863,0.0,2.5707154991751437,1.3110426362728234,0.0,1.7424622952329496,0.0,-0.306571257750195,0.0,0.7387551355367139,0.0,-0.03151346300877245,0.0,0.22062660683822863,0.0,2.5707154991751437,auto,85.0,5,10.0,0.0,0.0,10.111613231358273,0.306571257750195,0,0
1761251353.759915,10.258088827133179,0.37214571099931637,0.0,2.7518234568022155,1.5635279580306585,0.0,1.707807714878407,0.0,-0.2686138346596823,0.0,0.35,0.0,-0.08886273135993379,0.0,0.37214571099931637,0.0,2.7518234568022155,auto,85.0,5,10.0,0.0,0.0,10.013396553998836,0.2686138346596823,0,0
1761251353.863874,10.362047672271729,0.5489434295876952,0.0,2.933667495845257,1.7825379619068529,0.0,1.716920647562609,0.0,-0.09746418993357342,0.0,0.35,0.0,0.3,0.0,0.5489434295876952,0.0,2.933667495845257,auto,85.0,5,10.0,0.0,0.0,9.895901943396195,0.09746418993357342,0,0
1761251353.9689026,10.467076301574707,0.7380875694657925,0.0,3.1131087523793055,1.830593684646759,0.0,1.6840687402323824,0.0,-0.137937535318345,0.0,0.35,0.0,0.3,0.0,0.7380875694657925,0.0,3.1131087523793055,auto,85.0,5,10.0,0.0,0.0,9.771103723481023,0.137937535318345,0,0
1761251354.075122,10.573295831680298,0.936406803636115,0.0,3.2880495725482657,1.8788541584279297,0.0,1.6153932679755183,0.0,-0.048352658742176424,0.0,0.35,0.0,-0.3,0.0,0.936406803636115,0.0,3.2880495725482657,auto,85.0,5,10.0,0.0,0.0,9.641576200015665,0.048352658742176424,0,0
1761251354.1789043,10.677078008651733,1.1336775647069302,0.0,3.450773615840211,1.912596690309119,0.0,1.5141649415959846,0.0,-0.05270773737924517,0.0,0.38192190504520485,0.0,-0.01391859329730026,0.0,1.1336775647069302,0.0,3.450773615840211,auto,85.0,5,10.0,0.0,0.0,9.514174271809411,0.05270773737924517,0,0
1761251354.2827194,10.780893087387085,1.333436509917369,0.0,3.603831836796461,1.9284467544551582,0.0,1.4224562311960987,0.0,-0.05778964045164329,0.0,0.35,0.0,-0.049374875037916044,0.0,1.333436509917369,0.0,3.603831836796461,auto,85.0,5,10.0,0.0,0.0,9.385996304897045,0.05778964045164329,0,0
1761251354.3878243,10.885998010635376,1.5369919165752788,0.0,3.748227242894284,1.9290500725449147,0.0,1.3145629258453948,0.0,-0.022754768754587287,0.0,0.35,0.0,-0.05213172185217903,0.0,1.5369919165752788,0.0,3.748227242894284,auto,85.0,5,10.0,0.0,0.0,9.255901538180225,0.022754768754587287,0,0
1761251354.4930255,10.991199254989624,1.740130184684372,0.0,3.8831334423058457,1.923544897440957,0.0,1.2194710691685962,0.0,-0.024446348614874592,0.0,0.35514077606240907,0.0,-0.08791260422418759,0.0,1.740130184684372,0.0,3.8831334423058457,auto,85.0,5,10.0,0.0,0.0,9.127112067719793,0.02444634861487459,0,0
1761251354.596867,11.095040798187256,1.939620688785901,0.0,4.006746390259329,1.907433569122921,0.0,1.128599026422842,0.0,-0.014293686227068062,0.0,0.35,0.0,-0.08718112757592399,0.0,1.939620688785901,0.0,4.006746390259329,auto,85.0,5,10.0,0.0,0.0,9.001318307698293,0.014293686227068062,0,0
1761251354.7012217,11.199395418167114,2.1385159798146116,0.0,4.121161559661753,1.8893963585120495,0.0,1.060179710698899,0.0,0.015559961962010663,0.0,0.4548436955481364,0.0,-0.3,0.0,2.1385159798146116,0.0,4.121161559661753,auto,85.0,5,10.0,0.0,0.0,8.876198713439438,0.015559961962010663,0,0
1761251354.8075457,11.305719375610352,2.338731030964262,0.0,4.227794927797031,1.8617318448323632,0.0,0.9663367883331831,0.0,0.04417315644477446,0.0,0.35,0.0,-0.3,0.0,2.338731030964262,0.0,4.227794927797031,auto,85.0,5,10.0,0.0,0.0,8.75038811524473,0.04417315644477446,0,0
1761251354.9120293,11.410202980041504,2.53206717669103,0.0,4.323523769338233,1.832278106967179,0.0,0.870774783001396,0.0,0.04756528416672815,0.0,0.35,0.0,-0.3,0.0,2.53206717669103,0.0,4.323523769338233,auto,85.0,5,10.0,0.0,0.0,8.629187588498015,0.04756528416672815,0,0
1761251355.018645,11.516818761825562,2.7259311835286986,0.0,4.411749260266896,1.7955416109987046,0.0,0.7903051727138144,0.0,0.05110949109566352,0.0,0.35,0.0,-0.3,0.0,2.7259311835286986,0.0,4.411749260266896,auto,85.0,5,10.0,0.0,0.0,8.507385537415459,0.05110949109566352,0,0
1761251355.1250505,11.623224258422852,2.916164428727626,0.0,4.491730111524561,1.7736580885170978,0.0,0.7186310360558383,0.0,0.07271461123644542,0.0,0.4833498554152976,0.0,-0.055812127714377734,0.0,2.916164428727626,0.0,4.491730111524561,auto,85.0,5,10.0,0.0,0.0,8.387870158484825,0.07271461123644542,0,0
1761251355.2317436,11.729917287826538,3.102693913745424,0.0,4.564573375172971,1.7378162099993968,0.0,0.6440598359193297,0.0,0.03741154482046456,0.0,0.35,0.0,0.12211182862616311,0.0,3.102693913745424,0.0,4.564573375172971,auto,85.0,5,10.0,0.0,0.0,8.270922641690126,0.03741154482046456,0,0
1761251355.3376708,11.83584451675415,3.284075608612735,0.0,4.630816690318507,1.697443881582947,0.0,0.5946523066696752,0.0,0.04247849288131848,0.0,0.35,0.0,-0.016918690878002844,0.0,3.284075608612735,0.0,4.630816690318507,auto,85.0,5,10.0,0.0,0.0,8.157702105995465,0.04247849288131848,0,0
1761251355.4427302,11.940903902053833,3.4599686475613427,0.0,4.689297954662662,1.6603915438710768,0.0,0.5280786093696195,0.0,0.04146029245770635,0.0,0.35,0.0,0.2789357070776889,0.0,3.4599686475613427,0.0,4.689297954662662,auto,85.0,5,10.0,0.0,0.0,8.047454591265739,0.04146029245770635,0,0
1761251355.5531886,12.05136227607727,3.639989930415312,0.0,4.744682046060976,1.5991718425482098,0.0,0.48514641860953106,0.0,0.07351984385495378,0.0,0.49339529046993996,0.0,-0.3,0.0,3.639989930415312,0.0,4.744682046060976,auto,85.0,5,10.0,0.0,0.0,7.934843149264641,0.07351984385495378,0,0
1761251355.657818,12.155991792678833,3.8057376076954115,0.0,4.791400807143089,1.5750593383208882,0.0,0.4351965753820275,0.0,0.05050927979299072,0.0,0.5466565138216992,0.0,0.12321599655684082,0.0,3.8057376076954115,0.0,4.791400807143089,auto,85.0,5,10.0,0.0,0.0,7.831117945696541,0.05050927979299072,0,0
1761251355.7637696,12.261943340301514,3.9703167100046857,0.0,4.83366512250544,1.5398797840887422,0.0,0.36448662671661497,0.0,0.056746216640030434,0.0,0.35,0.0,0.07552845172337774,0.0,3.9703167100046857,0.0,4.83366512250544,auto,85.0,5,10.0,0.0,0.0,7.727962156621515,0.056746216640030434,0,0
1761251355.8675754,12.36574912071228,4.1267984127133825,0.0,4.8699368445491205,1.501387019806131,0.0,0.34593655130982853,0.0,0.042019663969540634,0.0,0.5394522315565681,0.0,0.1500616721852091,0.0,4.1267984127133825,0.0,4.8699368445491205,auto,85.0,5,10.0,0.0,0.0,7.629599055966381,0.04201966396954063,0,0
1761251355.9717736,12.469947338104248,4.281572422488211,0.0,4.902335300218224,1.4620820331252153,0.0,0.2815497400339448,0.0,0.03453114066480489,0.0,0.39711819279237504,0.0,0.14990027042843412,0.0,4.281572422488211,0.0,4.902335300218224,auto,85.0,5,10.0,0.0,0.0,7.532151442649905,0.03453114066480489,0,0
1761251356.075607,12.57378077507019,4.43117618278411,0.0,4.930821612453841,1.4239027725263174,0.0,0.2707904431038972,0.0,0.045871124799986604,0.0,0.543780341138211,0.0,0.030077903331084545,0.0,4.43117618278411,0.0,4.930821612453841,auto,85.0,5,10.0,0.0,0.0,7.438064296645522,0.045871124799986604,0,0
1761251356.1809635,12.679137229919434,4.579102898186468,0.0,4.955926760124051,1.3854966550793197,0.0,0.21623954442327797,0.0,0.05813736250982331,0.0,0.39948427827425437,0.0,-0.19846437851567805,0.0,4.579102898186468,0.0,4.955926760124051,auto,85.0,5,10.0,0.0,0.0,7.3448849848152165,0.05813736250982331,0,0
1761251356.2941458,12.792319536209106,4.733815881109727,0.0,4.979162304437448,1.3442883500750424,0.0,0.19154874895105023,0.0,0.06873069159407301,0.0,0.35,0.0,-0.3,0.0,4.733815881109727,0.0,4.979162304437448,auto,85.0,5,10.0,0.0,0.0,7.247396251619127,0.06873069159407301,0,0
1761251356.3998752,12.898048877716064,4.871093498771792,0.0,4.999864538795413,1.271229303662535,0.0,0.16999796222741717,0.0,-0.027625695550762414,0.0,0.3937620265503136,0.0,-0.14174253096611344,0.0,4.871093498771792,0.0,4.999864538795413,auto,85.0,5,10.0,0.0,0.0,7.16270391016164,0.027625695550762414,0,0
1761251356.5049715,13.003145217895508,5.004662128264682,0.0,5.0179308150317885,1.254084554282602,0.0,0.15235438479137312,0.0,0.007462613843181375,0.0,0.35,0.0,-0.08011089706070797,0.0,5.004662128264682,0.0,5.0179308150317885,auto,85.0,5,10.0,0.0,0.0,7.080468213136665,0.007462613843181375,0,0
1761251356.6112719,13.109445571899414,5.136794587496889,0.0,5.03389127325891,1.220005580865091,0.0,0.14497357937476252,0.0,0.015402605309974112,0.0,0.4618511386750985,0.0,-0.26317803376454485,0.0,5.136794587496889,0.0,5.03389127325891,auto,85.0,5,10.0,0.0,0.0,6.99934484328296,0.015402605309974112,0,0
1761251356.7167413,13.214915037155151,5.264629217107284,0.0,5.048303907110784,1.192361830403916,0.0,0.13104929346466584,0.0,0.014364073223259914,0.0,0.35,0.0,-0.1747369973792947,0.0,5.264629217107284,0.0,5.048303907110784,auto,85.0,5,10.0,0.0,0.0,6.9216406140469315,0.014364073223259916,0,0
1761251356.8233523,13.321526050567627,5.390992042204082,0.0,5.060666929207077,1.164586572224689,0.0,0.10106404739038541,0.0,0.021536753212208,0.0,0.35,0.0,-0.2665528878962398,0.0,5.390992042204082,0.0,5.060666929207077,auto,85.0,5,10.0,0.0,0.0,6.8449473426313725,0.021536753212208,0,0
1761251356.930518,13.428691625595093,5.514836411075133,0.0,5.071423272075405,1.1328031975421007,0.0,0.08382989113128266,0.0,0.027672573788327513,0.0,0.35,0.0,-0.3,0.0,5.514836411075133,0.0,5.071423272075405,auto,85.0,5,10.0,0.0,0.0,6.770230898866405,0.027672573788327513,0,0
1761251357.0341623,13.532335996627808,5.63109725004258,0.0,5.080921089352424,1.103347389678807,0.0,0.07164636297333137,0.0,0.10478555269237146,0.0,0.35,0.0,-0.2776950151199355,0.0,5.63109725004258,0.0,5.080921089352424,auto,85.0,5,10.0,0.0,0.0,6.700975328622822,0.10478555269237146,0,0
1761251357.1376915,13.635865211486816,5.743056035809134,0.0,5.088574936468824,1.077594393770872,0.0,0.06139893067956664,0.0,-0.009409155837371237,0.0,0.35,0.0,0.3,0.0,5.743056035809134,0.0,5.088574936468824,auto,85.0,5,10.0,0.0,0.0,6.634392722647623,0.009409155837371237,0,0
1761251357.2431898,13.741363525390625,5.854886615872401,0.0,5.09461323597809,1.0514297652297613,0.0,0.04504572448259883,0.0,-0.014847330386498657,0.0,0.35,0.0,0.3,0.0,5.854886615872401,0.0,5.09461323597809,auto,85.0,5,10.0,0.0,0.0,6.567880098743956,0.014847330386498657,0,0
1761251357.3475606,13.845734357833862,5.963008822490135,0.0,5.100938357040508,1.026399068796097,0.0,0.07848833922430665,0.0,-0.00949746409558995,0.0,0.35,0.0,0.23069818099937264,0.0,5.963008822490135,0.0,5.100938357040508,auto,85.0,5,10.0,0.0,0.0,6.505141803959357,0.00949746409558995,0,0
1761251357.4525435,13.950717210769653,6.069202697758116,0.0,5.10753135456569,1.001866775593078,0.0,0.05260206940372861,0.0,0.010048732401470657,0.0,0.35,0.0,0.25706486685305785,0.0,6.069202697758116,0.0,5.10753135456569,auto,85.0,5,10.0,0.0,0.0,6.44500147161998,0.010048732401470657,0,0
1761251357.5575423,14.055716037750244,6.172228941943078,0.0,5.112430718518362,0.980889679043354,0.0,0.04031328192831644,0.0,0.016352926895654322,0.0,0.4434605166197194,0.0,0.23308648250782643,0.0,6.172228941943078,0.0,5.112430718518362,auto,85.0,5,10.0,0.0,0.0,6.386609360572195,0.016352926895654322,0,0
1761251357.6623425,14.160516262054443,6.273666580874553,0.0,5.116650723337468,0.9582834388156831,0.0,0.03369571587156888,0.0,0.009996536999670111,0.0,0.35,0.0,0.3,0.0,6.273666580874553,0.0,5.116650723337468,auto,85.0,5,10.0,0.0,0.0,6.329745285169142,0.009996536999670111,0,0
1761251357.7675316,14.265705347061157,6.37198721148038,0.0,5.120223525727766,0.9320004253805272,0.0,0.018238581933164792,0.0,0.008687987031887159,0.0,0.35,0.0,0.28853289131387483,0.0,6.37198721148038,0.0,5.120223525727766,auto,85.0,5,10.0,0.0,0.0,6.275282124899086,0.008687987031887159,0,0
1761251357.8742347,14.372408390045166,6.4702419171282015,0.0,5.124074150350401,0.9085559647223758,0.0,0.026817820730912295,0.0,0.039476851340469916,0.0,0.35,0.0,0.07028827085929229,0.0,6.4702419171282015,0.0,5.124074150350401,auto,85.0,5,10.0,0.0,0.0,6.2221642554570975,0.039476851340469916,0,0
1761251357.9793296,14.477503299713135,6.563747740636347,0.0,5.127832193764975,0.8868308009221298,0.0,0.02496202463322983,0.0,0.024285729899704185,0.0,0.44008877035857524,0.0,0.25295332860991837,0.0,6.563747740636347,0.0,5.127832193764975,auto,85.0,5,10.0,0.0,0.0,6.172721652350309,0.024285729899704185,0,0
1761251358.0857568,14.583930492401123,6.6562240828686825,0.0,5.130356153814122,0.866050525106026,0.0,0.024338523635149382,0.0,0.013619414428534083,0.0,0.46596287038232426,0.0,0.3,0.0,6.6562240828686825,0.0,5.130356153814122,auto,85.0,5,10.0,0.0,0.0,6.12383798356601,0.013619414428534083,0,0
1761251358.192506,14.690679788589478,6.746579496050494,0.0,5.13146658237174,0.8402299372612927,0.0,0.010517913061782814,0.0,0.008891346124150748,0.0,0.35,0.0,0.29406827237309074,0.0,6.746579496050494,0.0,5.13146658237174,auto,85.0,5,10.0,0.0,0.0,6.075910982027055,0.008891346124150748,0,0
1761251358.2994735,14.79764723777771,6.834708419198202,0.0,5.1318737077642025,0.820668100238127,0.0,0.005681547270596225,0.0,0.008377365948780241,0.0,0.35,0.0,0.3,0.0,6.834708419198202,0.0,5.1318737077642025,auto,85.0,5,10.0,0.0,0.0,6.029527223915341,0.008377365948780241,0,0
1761251358.4052196,14.903393268585205,6.919544636315539,0.0,5.131592803999787,0.796434040144901,0.0,-0.014653277691343424,0.0,-0.0014484902183952483,0.0,0.35,0.0,0.3,0.0,6.919544636315539,0.0,5.131592803999787,auto,85.0,5,10.0,0.0,0.0,5.985185874616992,0.0014484902183952483,0,0
1761251358.5083745,15.006548166275024,6.999127549602678,0.0,5.130720810556466,0.74414429981066,0.0,0.0019878462321610522,0.0,-0.002986528757096176,0.0,0.5210382711592872,0.0,-0.2233037277138426,0.0,6.999127549602678,0.0,5.130720810556466,auto,85.0,5,10.0,0.0,0.0,5.94386503038476,0.002986528757096176,0,0
1761251358.6126382,15.110811948776245,7.0770378510104965,0.0,5.129146142180838,0.7349003764668594,0.0,-0.015294128207510692,0.0,0.017629119954679633,0.0,0.43670074979911727,0.0,-0.2695756501511308,0.0,7.0770378510104965,0.0,5.129146142180838,auto,85.0,5,10.0,0.0,0.0,5.903545364632503,0.017629119954679633,0,0
1761251358.718216,15.216389656066895,7.154468884258194,0.0,5.127779401291073,0.719069142560678,0.0,-0.008371635416727637,0.0,0.020228868913490062,0.0,0.49287166756457296,0.0,-0.199854304082971,0.0,7.154468884258194,0.0,5.127779401291073,auto,85.0,5,10.0,0.0,0.0,5.864398427712755,0.020228868913490062,0,0
1761251358.8227487,15.320922374725342,7.229172965651079,0.0,5.126873858766999,0.7005265653609386,0.0,-0.006574528392608659,0.0,0.008251162263306886,0.0,0.35,0.0,-0.23446342879037274,0.0,7.229172965651079,0.0,5.126873858766999,auto,85.0,5,10.0,0.0,0.0,5.827719795768089,0.008251162263306886,0,0
1761251358.9265327,15.42470645904541,7.301453551731949,0.0,5.126225730471703,0.6826187817182279,0.0,-0.004830843873711551,0.0,0.0012158428381734247,0.0,0.5002999994914467,0.0,-0.11406662819304493,0.0,7.301453551731949,0.0,5.126225730471703,auto,85.0,5,10.0,0.0,0.0,5.793128962245727,0.0012158428381734247,0,0
1761251359.0315318,15.52970552444458,7.37287660484774,0.0,5.125680702570771,0.6644867462090684,0.0,-0.004530923287320274,0.0,0.008063593793411128,0.0,0.35,0.0,-0.22702382324222387,0.0,7.37287660484774,0.0,5.125680702570771,auto,85.0,5,10.0,0.0,0.0,5.759720479160663,0.008063593793411126,0,0
1761251359.1367826,15.634956359863281,7.442609373820468,0.0,5.12621510231995,0.6485133761531098,0.0,-0.007431978364083025,0.0,0.006317663341521285,0.0,0.35,0.0,-0.16540194748284914,0.0,7.442609373820468,0.0,5.12621510231995,auto,85.0,5,10.0,0.0,0.0,5.728728313519858,0.006317663341521285,0,0
1761251359.2422898,15.740463495254517,7.510841544926792,0.0,5.126500793735203,0.6320020643867538,0.0,0.013630609754232156,0.0,0.007303097791714102,0.0,0.35,0.0,-0.2880204695310785,0.0,7.510841544926792,0.0,5.126500793735203,auto,85.0,5,10.0,0.0,0.0,5.6988525338553995,0.007303097791714102,0,0
1761251359.3509953,15.8491690158844,7.579338667097413,0.0,5.12621313982287,0.6073467121912998,0.0,0.004336978323614776,0.0,0.0424405560755429,0.0,0.4955648228249068,0.0,-0.3,0.0,7.579338667097413,0.0,5.12621313982287,auto,85.0,5,10.0,0.0,0.0,5.669008947206061,0.0424405560755429,0,0
1761251359.4549956,15.953169345855713,7.642581892801894,0.0,5.125602740655246,0.5995738048313861,0.0,0.006582891701516616,0.0,0.04770692091751458,0.0,0.35,0.0,-0.3,0.0,7.642581892801894,0.0,5.125602740655246,auto,85.0,5,10.0,0.0,0.0,5.641739411489871,0.04770692091751457,0,0
1761251359.5594232,16.057596921920776,7.704887888894409,0.0,5.125480312452633,0.5885596838987488,0.0,0.006941194560851027,0.0,0.05221182571005608,0.0,0.35,0.0,-0.29408902946408955,0.0,7.704887888894409,0.0,5.125480312452633,auto,85.0,5,10.0,0.0,0.0,5.615878207002277,0.05221182571005609,0,0
1761251359.6631563,16.161329984664917,7.7652337581535935,0.0,5.124592033265023,0.5717845759404963,0.0,0.009750605131123816,0.0,0.04869512369517164,0.0,0.5425993237881965,0.0,-0.3,0.0,7.7652337581535935,0.0,5.124592033265023,auto,85.0,5,10.0,0.0,0.0,5.590672916841018,0.04869512369517164,0,0
1761251359.769072,16.267245769500732,7.8254127072862705,0.0,5.123906371622625,0.5603013790693528,0.0,-0.004743009509790811,0.0,0.052686418601741745,0.0,0.35,0.0,-0.25596329162374504,0.0,7.8254127072862705,0.0,5.123906371622625,auto,85.0,5,10.0,0.0,0.0,5.566259641697193,0.052686418601741745,0,0
1761251359.8713598,16.36953353881836,7.8819995489404056,0.0,5.122634098053544,0.546916789500279,0.0,-0.014132866023604439,0.0,0.04740299940436884,0.0,0.35,0.0,-0.18217072282243285,0.0,7.8819995489404056,0.0,5.122634098053544,auto,85.0,5,10.0,0.0,0.0,5.543221627648446,0.04740299940436883,0,0
1761251359.9749446,16.4731183052063,7.937926523582214,0.0,5.120543144247016,0.5336951426321125,0.0,-0.024422386625069795,0.0,0.04963076751532261,0.0,0.35,0.0,-0.1830913580902016,0.0,7.937926523582214,0.0,5.120543144247016,auto,85.0,5,10.0,0.0,0.0,5.520154808901725,0.04963076751532261,0,0
1761251360.082127,16.58030080795288,7.993992733622309,0.0,5.117714951333804,0.5158179894431936,0.0,-0.02020928239621107,0.0,0.03994527744168833,0.0,0.35,0.0,-0.1677293750585195,0.0,7.993992733622309,0.0,5.117714951333804,auto,85.0,5,10.0,0.0,0.0,5.496823762489176,0.03994527744168833,0,0
1761251360.1869166,16.68509030342102,8.047381384933823,0.0,5.115344670130429,0.49984351253091736,0.0,0.020765561205090204,0.0,0.048045337032264955,0.0,0.6723333613643581,0.0,-0.23416906742776983,0.0,8.047381384933823,0.0,5.115344670130429,auto,85.0,5,10.0,0.0,0.0,5.475351180530318,0.048045337032264955,0,0
1761251360.291679,16.789852619171143,8.099299071743179,0.0,5.115520737802174,0.48742584040979986,0.0,0.0272200901510311,0.0,0.04979678344338313,0.0,0.6160383994157339,0.0,-0.26832196660976065,0.0,8.099299071743179,0.0,5.115520737802174,auto,85.0,5,10.0,0.0,0.0,5.457216913185735,0.04979678344338313,0,0
1761251360.3961828,16.89435648918152,8.14979806130925,0.0,5.115784980135878,0.4769549730331376,0.0,-0.018578495314650115,0.0,0.049462898584634624,0.0,0.35,0.0,-0.2557252676528626,0.0,8.14979806130925,0.0,5.115784980135878,auto,85.0,5,10.0,0.0,0.0,5.440083011951091,0.04946289858463463,0,0
1761251360.50116,16.99933362007141,8.199272034099218,0.0,5.115433639998624,0.46459358849825444,0.0,0.0078262376943911,0.0,0.05039314497144471,0.0,0.35,0.0,-0.23597496230335746,0.0,8.199272034099218,0.0,5.115433639998624,auto,85.0,5,10.0,0.0,0.0,5.423124794102265,0.05039314497144471,0,0
1761251360.604855,17.103028774261475,8.246858750345185,0.0,5.114675636713187,0.45267449191007525,0.0,0.024933339413572318,0.0,0.04693743419138196,0.0,0.6615590525084766,0.0,-0.16220321962371592,0.0,8.246858750345185,0.0,5.114675636713187,auto,85.0,5,10.0,0.0,0.0,5.406793052265704,0.046937434191381966,0,0
1761251360.7110488,17.209222555160522,8.294355110703588,0.0,5.114467252954754,0.44327437971861594,0.0,-0.014275743401125654,0.0,0.04991223212070437,0.0,0.35,0.0,-0.15427099070516825,0.0,8.294355110703588,0.0,5.114467252954754,auto,85.0,5,10.0,0.0,0.0,5.391381990726452,0.04991223212070437,0,0
1761251360.8198037,17.31797742843628,8.341712100223566,0.0,5.1129224446343375,0.4322466780034096,0.0,-0.036317964247053955,0.0,0.05486127964528044,0.0,0.35,0.0,-0.07576538425469724,0.0,8.341712100223566,0.0,5.1129224446343375,auto,85.0,5,10.0,0.0,0.0,5.375118108785193,0.05486127964528044,0,0
1761251360.9247944,17.42296814918518,8.385769802646113,0.0,5.112644771185219,0.4205405749364221,0.0,-0.01123415138005863,0.0,0.033629995508822993,0.0,0.48317275988980746,0.0,0.0235474404455726,0.0,8.385769802646113,0.0,5.112644771185219,auto,85.0,5,10.0,0.0,0.0,5.3614247813782425,0.033629995508822993,0,0
1761251361.0285811,17.52675485610962,8.428426627494298,0.0,5.112114761257891,0.41234467674053515,0.0,-0.027294944498704392,0.0,0.03030323466017689,0.0,0.35,0.0,0.0901768320637401,0.0,8.428426627494298,0.0,5.112114761257891,auto,85.0,5,10.0,0.0,0.0,5.348229632078242,0.03030323466017689,0,0
1761251361.1342454,17.632419109344482,8.470750465068068,0.0,5.1128768154471205,0.39997644146983086,0.0,0.002588221145206869,0.0,0.0355802997496999,0.0,0.35,0.0,0.03308146538088109,0.0,8.470750465068068,0.0,5.1128768154471205,auto,85.0,5,10.0,0.0,0.0,5.336676256812495,0.0355802997496999,0,0
1761251361.2388341,17.73700785636902,8.51149857449993,0.0,5.113670372847419,0.3890966950950426,0.0,-0.015166231943327656,0.0,0.03526330287830713,0.0,0.3586471934541693,0.0,0.03452399305873196,0.0,8.51149857449993,0.0,5.113670372847419,auto,85.0,5,10.0,0.0,0.0,5.32590472838683,0.03526330287830713,0,0
1761251361.3421164,17.840290069580078,8.550650639907845,0.0,5.115134048692075,0.37944001204813604,0.0,-0.004658689109093834,0.0,0.034480032437199,0.0,0.4271271757715064,0.0,0.03161445488633436,0.0,8.550650639907845,0.0,5.115134048692075,auto,85.0,5,10.0,0.0,0.0,5.316503541209063,0.034480032437199,0,0
1761251361.4452407,17.943414449691772,8.58882206417595,0.0,5.115642656183123,0.3708247265115618,0.0,-0.011850820040626245,0.0,0.03196710588421979,0.0,0.35,0.0,0.07191766891939712,0.0,8.58882206417595,0.0,5.115642656183123,auto,85.0,5,10.0,0.0,0.0,5.3067148926918,0.03196710588421979,0,0
1761251361.5509694,18.049143075942993,8.626876280407723,0.0,5.11551697706595,0.3566144215831634,0.0,-0.013001220477725004,0.0,0.04116329788927791,0.0,0.4331315257559542,0.0,-0.05666022705758271,0.0,8.626876280407723,0.0,5.11551697706595,auto,85.0,5,10.0,0.0,0.0,5.296601050858643,0.0411632978892779,0,0
1761251361.6545937,18.152767419815063,8.663020549168776,0.0,5.114051632742882,0.34772874435553913,0.0,-0.022843857552036554,0.0,0.039300334836782025,0.0,0.44135118507536236,0.0,-0.07358636861444381,0.0,8.663020549168776,0.0,5.114051632742882,auto,85.0,5,10.0,0.0,0.0,5.285928315282482,0.039300334836782025,0,0
1761251361.758793,18.256966829299927,8.698500807683788,0.0,5.111853914680721,0.33909034690821765,0.0,-0.009623607371588148,0.0,0.0403325827558929,0.0,0.5463154573713559,0.0,-0.04502226966858737,0.0,8.698500807683788,0.0,5.111853914680721,auto,85.0,5,10.0,0.0,0.0,5.274936074744069,0.0403325827558929,0,0
1761251361.8639197,18.362093448638916,8.73336047999556,0.0,5.109100857679547,0.33158091190693983,0.0,-0.03431261986883925,0.0,0.03704087862146679,0.0,0.4410914748629209,0.0,-0.025837824888457466,0.0,8.73336047999556,0.0,5.109100857679547,auto,85.0,5,10.0,0.0,0.0,5.263771200154786,0.037040878621466794,0,0
1761251361.9696438,18.467817544937134,8.767578730556918,0.0,5.105454416167268,0.3225045646331453,0.0,-0.00889247270266063,0.0,0.03782455744764824,0.0,0.6113062050585705,0.0,0.0032915505156462486,0.0,8.767578730556918,0.0,5.105454416167268,auto,85.0,5,10.0,0.0,0.0,5.252097388752188,0.03782455744764824,0,0
1761251362.0743876,18.572561264038086,8.800482818910622,0.0,5.1025435272193125,0.31150686786996623,0.0,0.004531362201942633,0.0,0.03718155306304794,0.0,0.6553441020671469,0.0,-0.04557208588108961,0.0,8.800482818910622,0.0,5.1025435272193125,auto,85.0,5,10.0,0.0,0.0,5.241640193192996,0.03718155306304794,0,0
1761251362.1788654,18.67703914642334,8.8324001559781,0.0,5.100522336931697,0.3062370475122418,0.0,-0.04031982896705265,0.0,0.0366806137011777,0.0,0.35,0.0,-0.01160716091985627,0.0,8.8324001559781,0.0,5.100522336931697,auto,85.0,5,10.0,0.0,0.0,5.232458074872569,0.0366806137011777,0,0
1761251362.2845554,18.782729148864746,8.863907132189475,0.0,5.098980607588564,0.29833590871758897,0.0,-0.016632246653774378,0.0,0.03817066090218959,0.0,0.4975259985887938,0.0,-0.013518925614911234,0.0,8.863907132189475,0.0,5.098980607588564,auto,85.0,5,10.0,0.0,0.0,5.224012848457993,0.03817066090218959,0,0
1761251362.3895757,18.887749433517456,8.89438988290453,0.0,5.096734187643016,0.29109384024546797,0.0,-0.04417853644473442,0.0,0.03675086344113768,0.0,0.3544009164381275,0.0,-0.011467286048969438,0.0,8.89438988290453,0.0,5.096734187643016,auto,85.0,5,10.0,0.0,0.0,5.215273061931942,0.03675086344113768,0,0
1761251362.495945,18.994118690490723,8.92438709329644,0.0,5.096181544630753,0.28245145603105454,0.0,0.0002838049965741031,0.0,0.03554885860771048,0.0,0.5652524483078787,0.0,-0.013734560884071573,0.0,8.92438709329644,0.0,5.096181544630753,auto,85.0,5,10.0,0.0,0.0,5.2084555734787985,0.03554885860771048,0,0
1761251362.6061838,19.104357481002808,8.955040736581633,0.0,5.0935218703967475,0.2862988198481931,0.0,-0.03481555677760963,0.0,0.024943461374179927,0.0,0.37931065608372044,0.0,0.27115345725494777,0.0,8.955040736581633,0.0,5.0935218703967475,auto,85.0,5,10.0,0.0,0.0,5.199606226091918,0.02494346137417993,0,0
1761251362.7115028,19.209676504135132,8.983798660407345,0.0,5.091572009059781,0.276694006800926,0.0,-0.01890471790201771,0.0,0.0054930211926909715,0.0,0.35,0.0,0.28401302436736386,0.0,8.983798660407345,0.0,5.091572009059781,auto,85.0,5,10.0,0.0,0.0,5.191991013670089,0.0054930211926909715,0,0
1761251362.8191373,19.31731104850769,9.012444760799822,0.0,5.091122182797924,0.2668033188862731,0.0,-0.00915344133954042,0.0,0.018192112058300708,0.0,0.35,0.0,0.17574217573892417,0.0,9.012444760799822,0.0,5.091122182797924,auto,85.0,5,10.0,0.0,0.0,5.186018745690071,0.01819211205830071,0,0
1761251362.9233184,19.421492099761963,9.039148517594679,0.0,5.091549355259593,0.2592024237668266,0.0,-0.003437332227155261,0.0,0.015453655347978329,0.0,0.35,0.0,0.21805450248539818,0.0,9.039148517594679,0.0,5.091549355259593,auto,85.0,5,10.0,0.0,0.0,5.181419729020694,0.015453655347978327,0,0
1761251363.0252686,19.523442268371582,9.064743597438554,0.0,5.093188770674054,0.26346685591729163,0.0,0.03882164866580887,0.0,-0.024138213969970276,0.0,0.35,0.0,0.3,0.0,9.064743597438554,0.0,5.093188770674054,auto,85.0,5,10.0,0.0,0.0,5.178346878324438,0.024138213969970276,0,0
1761251363.1314116,19.62958526611328,9.091513835970352,0.0,5.0939110697633945,0.24918072113275588,0.0,-0.0001116297653927182,0.0,-0.03121568283582348,0.0,0.35,0.0,0.3,0.0,9.091513835970352,0.0,5.0939110697633945,auto,85.0,5,10.0,0.0,0.0,5.174290008966579,0.03121568283582348,0,0
1761251363.236876,19.735049724578857,9.117160090018368,0.0,5.094154939039861,0.2413155414824335,0.0,0.007341994968998606,0.0,-0.03201674877478126,0.0,0.35,0.0,0.3,0.0,9.117160090018368,0.0,5.094154939039861,auto,85.0,5,10.0,0.0,0.0,5.17008905625431,0.03201674877478126,0,0
1761251363.3413377,19.839511394500732,9.141824760989117,0.0,5.093193456672667,0.23255925775236694,0.0,-0.016779466523364386,0.0,-0.03352503866200066,0.0,0.35,0.0,0.241421420150503,0.0,9.141824760989117,0.0,5.093193456672667,auto,85.0,5,10.0,0.0,0.0,5.164986382164493,0.03352503866200067,0,0
1761251363.4447575,19.942931175231934,9.165535649514089,0.0,5.091466465765673,0.22495075487962984,0.0,0.018615220167123844,0.0,-0.028507006600496366,0.0,0.65183437666348,0.0,0.17638639169637027,0.0,9.165535649514089,0.0,5.091466465765673,auto,85.0,5,10.0,0.0,0.0,5.159395461122191,0.02850700660049637,0,0
1761251363.5492167,20.047390460968018,9.188602784602418,0.0,5.091888238393262,0.21782688884471613,0.0,0.01226441735292835,0.0,-0.03227761318726857,0.0,0.5484892036761938,0.0,0.23969327086077774,0.0,9.188602784602418,0.0,5.091888238393262,auto,85.0,5,10.0,0.0,0.0,5.156131425152251,0.03227761318726857,0,0
1761251363.6543157,20.15248942375183,9.2110958811694,0.0,5.091106865112042,0.2100323948071767,0.0,-0.016790562704523136,0.0,-0.03166387291898411,0.0,0.35,0.0,0.24458215805954708,0.0,9.2110958811694,0.0,5.091106865112042,auto,85.0,5,10.0,0.0,0.0,5.151867508069171,0.03166387291898411,0,0
1761251363.7592676,20.25744128227234,9.23284358501464,0.0,5.0893942615825,0.2040753524244296,0.0,-0.006794604620309879,0.0,-0.0321111750988857,0.0,0.35,0.0,0.2453295605818485,0.0,9.23284358501464,0.0,5.0893942615825,auto,85.0,5,10.0,0.0,0.0,5.146888663540534,0.0321111750988857,0,0
1761251363.869381,20.367554664611816,9.254677394619492,0.0,5.086718958875644,0.19218348216833614,0.0,-0.029770153882247012,0.0,-0.030565975544258387,0.0,0.4470981874810604,0.0,0.1203720851839841,0.0,9.254677394619492,0.0,5.086718958875644,auto,85.0,5,10.0,0.0,0.0,5.141032537601382,0.030565975544258384,0,0
1761251363.973698,20.471871614456177,9.274743340448586,0.0,5.084510785812612,0.18962365839144546,0.0,0.023921000436798498,0.0,-0.03239269188331071,0.0,0.6958388591925904,0.0,0.15296315473898,0.0,9.274743340448586,0.0,5.084510785812612,auto,85.0,5,10.0,0.0,0.0,5.135975774209655,0.03239269188331071,0,0
1761251364.0749056,20.573079347610474,9.293760834115341,0.0,5.08369260874801,0.181222766896096,0.0,-0.02127748793642753,0.0,-0.015170605895838794,0.0,0.35,0.0,0.16839395312394553,0.0,9.293760834115341,0.0,5.08369260874801,auto,85.0,5,10.0,0.0,0.0,5.13251442274336,0.015170605895838794,0,0
1761251364.1794345,20.677608251571655,9.312368590090022,0.0,5.0823491542772326,0.17950219123141903,0.0,-0.02311770367352578,0.0,-0.0315789189873376,0.0,0.35,0.0,0.3,0.0,9.312368590090022,0.0,5.0823491542772326,auto,85.0,5,10.0,0.0,0.0,5.128655757786565,0.0315789189873376,0,0
1761251364.2826934,20.780867099761963,9.330443494579447,0.0,5.080337599150496,0.175209004510494,0.0,-0.022027032897099518,0.0,-0.03364176462079953,0.0,0.35,0.0,0.3,0.0,9.330443494579447,0.0,5.080337599150496,auto,85.0,5,10.0,0.0,0.0,5.124269317209353,0.03364176462079953,0,0
1761251364.3886046,20.886778354644775,9.348567844261252,0.0,5.077952845735074,0.17037028839810875,0.0,-0.01382941047342856,0.0,-0.03290332591672851,0.0,0.35,0.0,0.3,0.0,9.348567844261252,0.0,5.077952845735074,auto,85.0,5,10.0,0.0,0.0,5.119567262673611,0.03290332591672851,0,0
1761251364.4937327,20.99190640449524,9.36604042230043,0.0,5.076001137797022,0.16577615124737557,0.0,-0.002787929526327601,0.0,-0.035220989417404674,0.0,0.35,0.0,0.20833051627574342,0.0,9.36604042230043,0.0,5.076001137797022,auto,85.0,5,10.0,0.0,0.0,5.1154366672918234,0.035220989417404674,0,0
1761251364.5991712,21.097344875335693,9.383151943930688,0.0,5.07596077829492,0.16079907118270578,0.0,0.020017279016233777,0.0,-0.033710256271382355,0.0,0.5698339253701289,0.0,0.25398230130212796,0.0,9.383151943930688,0.0,5.07596077829492,auto,85.0,5,10.0,0.0,0.0,5.113304151628853,0.033710256271382355,0,0
1761251364.701475,21.19964861869812,9.399287571995062,0.0,5.075569994905025,0.15532123984311125,0.0,-0.01433840510915325,0.0,-0.034269330082222965,0.0,0.35,0.0,0.22931445510800635,0.0,9.399287571995062,0.0,5.075569994905025,auto,85.0,5,10.0,0.0,0.0,5.110994638457351,0.034269330082222965,0,0
1761251364.804282,21.30245566368103,9.415098841419645,0.0,5.074424626239412,0.15160541465776442,0.0,-0.01148760210055477,0.0,-0.034235280971148516,0.0,0.4696341771735797,0.0,0.163614348703413,0.0,9.415098841419645,0.0,5.074424626239412,auto,85.0,5,10.0,0.0,0.0,5.1080225775434505,0.03423528097114851,0,0
1761251364.9082212,21.406394958496094,9.430743086704572,0.0,5.072842234293862,0.14920750801609103,0.0,0.032245164292267835,0.0,-0.03421498670654046,0.0,0.7145366897800574,0.0,0.19511128078302578,0.0,9.430743086704572,0.0,5.072842234293862,auto,85.0,5,10.0,0.0,0.0,5.104682337557371,0.034214986706540454,0,0
1761251365.0135417,21.511715412139893,9.446266232057859,0.0,5.072415715055554,0.14341474527085016,0.0,-0.027269363194325193,0.0,-0.03243177345159729,0.0,0.35,0.0,0.1923023258060218,0.0,9.446266232057859,0.0,5.072415715055554,auto,85.0,5,10.0,0.0,0.0,5.1025505653645356,0.03243177345159729,0,0
1761251365.1178675,21.61604118347168,9.461118443850975,0.0,5.072232031474666,0.1417203001067697,0.0,0.034480298455114265,0.0,-0.03412144619229331,0.0,0.6802156656095646,0.0,0.2247978743293848,0.0,9.461118443850975,0.0,5.072232031474666,auto,85.0,5,10.0,0.0,0.0,5.100777500800756,0.03412144619229331,0,0
1761251365.2214622,21.71963596343994,9.475534778843157,0.0,5.072744368404894,0.1365453159368175,0.0,-0.006099192877044267,0.0,-0.033037225150553476,0.0,0.35,0.0,0.22223088566951368,0.0,9.475534778843157,0.0,5.072744368404894,auto,85.0,5,10.0,0.0,0.0,5.09978423027746,0.033037225150553476,0,0
1761251365.325469,21.82364273071289,9.48953307511388,0.0,5.072131553636579,0.13374301039371317,0.0,0.03480885954276637,0.0,-0.03388238378118243,0.0,0.6655840731590869,0.0,0.2042994467324004,0.0,9.48953307511388,0.0,5.072131553636579,auto,85.0,5,10.0,0.0,0.0,5.097753915088341,0.03388238378118243,0,0
1761251365.4298985,21.928072214126587,9.50321059313366,1.1624773304244177e-06,5.073480079887223,0.13156677956510407,0.0004012227117477678,0.09854851118961397,0.005229056735837793,-0.03487981172639281,0.00023225655675909206,1.0,0.3,0.3,0.0,9.50321059313366,1.1624773304244177e-06,5.073480079887223,auto,85.0,20,0.0,10.0,0.0,14.698679819933322,0.03527035927692512,1,0
1761251365.5353994,22.033573150634766,9.515667960983043,0.008336648965417734,5.143818952272825,0.026421790825265974,0.23974175561035385,1.2071434483877586,0.23219424443412787,0.16537073908588545,0.016313391704943326,1.0,0.3,0.3,-0.059912507495094997,9.515667960983043,0.008336648965417734,5.143818952272825,auto,85.0,20,0.0,10.0,0.0,14.725493087766125,0.28553069054493324,1,0
1761251365.6419232,22.14009690284729,9.491246996026417,0.06802858327506438,5.321706714843976,-0.5655690802835962,0.9473061762676956,2.1008588588296564,0.3991953808197948,0.40502849146998193,0.03374123129630866,1.0,-0.3,-0.01449861809335995,-0.10561977470861134,9.491246996026417,0.06802858327506438,5.321706714843976,auto,85.0,20,0.0,10.0,0.0,14.732562170954417,0.5696871963276875,1,0
1761251365.7454598,22.24363350868225,9.398989312516498,0.19319131824660132,5.564356401998596,-1.1746502304938409,1.4020028872320227,2.6230520192385787,0.16916831200891894,0.262437167133373,0.03751453848893233,1.0,0.040598503376623435,-0.3,-0.09081768231585069,9.398989312516498,0.19319131824660132,5.564356401998596,auto,85.0,20,0.0,10.0,0.0,14.679119823265154,0.31448135887358175,1,0
1761251365.8497534,22.34792709350586,9.260998730907257,0.35286402818655604,5.8592357206829595,-1.482048457889487,1.6937127020472278,3.063444102607096,0.21542746677843141,0.2570449284687149,0.03469974274380731,1.0,-0.3,0.04871244415977373,-0.06926293903756381,9.260998730907257,0.35286402818655604,5.8592357206829595,auto,85.0,20,0.0,10.0,0.0,14.600136067278617,0.33717230141360266,1,0
1761251365.9519176,22.45009136199951,9.09434980355823,0.5340607692978188,6.189124171373958,-1.7280372954152883,1.8014272424539066,3.389641335742679,-0.00035623610125816614,0.07073845151498735,0.026894263061083744,0.35,0.2683336975443933,-0.3,-0.040378848651955596,9.09434980355823,0.5340607692978188,6.189124171373958,auto,85.0,20,0.0,10.0,0.0,14.512631114911988,0.07567930240492991,1,0
1761251366.0582876,22.556461334228516,8.910610466482401,0.7269072748044167,6.568881077115979,-1.7368175098712384,1.837475790306842,3.7576369180670577,0.05331212119249028,0.09629815642824749,0.02073247212783164,0.9213072882293765,0.3,0.3,-0.028983007440423,8.910610466482401,0.7269072748044167,6.568881077115979,auto,85.0,20,0.0,10.0,0.0,14.440894230647677,0.11200603822139818,1,0
1761251366.1616092,22.659782886505127,8.727223776741244,0.920031721400576,6.968670594271305,-1.7888308838828535,1.8906351156959365,3.9756830889968153,0.027075418052664203,0.05662819841115116,0.014766473564527389,0.47937324490085603,0.27822997491012935,0.3,-0.017772673609084168,8.727223776741244,0.920031721400576,6.968670594271305,auto,85.0,20,0.0,10.0,0.0,14.393492579674716,0.06448162420062885,1,0
1761251366.2653491,22.76352286338806,8.53840383702929,1.1182189151556297,7.393501739250389,-1.828615846078594,1.9239544311928911,4.194184414444866,0.003183426565917481,0.02733497092629436,0.0077191279725371655,0.5236498648079636,0.23325074005032714,0.3,-0.0015619700234788293,8.53840383702929,1.1182189151556297,7.393501739250389,auto,85.0,20,0.0,10.0,0.0,14.368515695491801,0.028581808495935886,1,0
1761251366.369159,22.867332696914673,8.346978608985838,1.318480712183706,7.839733462597858,-1.8394993131845125,1.9505109907385312,4.393326717642254,0.03502247362217018,-0.01571817549962132,0.00789278934908386,0.6593480566205133,-0.3,0.3,-0.014770304332529911,8.346978608985838,1.318480712183706,7.839733462597858,auto,85.0,20,0.0,10.0,0.0,14.370186143824654,0.039190953335706366,1,0
1761251366.4722238,22.970397472381592,8.156819190847717,1.518193081047668,8.299610826427397,-1.8620703390678432,1.9447082106896507,4.5415797519670775,0.06934642091637397,0.010309681883758446,0.008629178577414484,0.35,-0.3,-0.3,-0.020942183463860772,8.156819190847717,1.518193081047668,8.299610826427397,auto,85.0,20,0.0,10.0,0.0,14.39994054823561,0.07063765537853103,1,0
1761251366.576511,23.074684619903564,7.964726170965102,1.7196304105150375,8.780045590454261,-1.8504706257554593,1.9152885942726836,4.682970961180384,0.04848114852214157,0.08171493567595167,0.003984480291379331,0.35,-0.13923142430903007,-0.3,-0.002266342331237672,7.964726170965102,1.7196304105150375,8.780045590454261,auto,85.0,20,0.0,10.0,0.0,14.45996487158178,0.09509799449906008,1,0
1761251366.6803966,23.17857027053833,7.773776526925526,1.917739790031306,9.270975721430666,-1.8066963936071259,1.884403586383973,4.759970241063196,0.01970481903348806,0.01582867977964007,-0.0037065837724816306,0.35,0.23922173093236332,0.3,0.019938621690686366,7.773776526925526,1.917739790031306,9.270975721430666,auto,85.0,20,0.0,10.0,0.0,14.550103862845047,0.025545366702619948,1,0
1761251366.7825015,23.280675172805786,7.588688256208817,2.110265353827744,9.7632282581048,-1.8009756809180726,1.8687919199812217,4.8337516651395385,0.0003280174157480574,-0.0223146964291856,-0.009678845619494508,0.35,0.22668126452755427,0.21834575422790345,0.031891413019899575,7.588688256208817,2.110265353827744,9.7632282581048,auto,85.0,20,0.0,10.0,0.0,14.668221714195234,0.024325569359785814,1,0
1761251366.88273,23.380903720855713,7.410775497188643,2.297006339405543,10.254016902151344,-1.7425791938826865,1.838426071871782,4.9528602188783895,-0.04441611389942113,-0.0035592480169038335,-0.014043637264151169,0.35,0.3,0.3,0.03841415650478411,7.410775497188643,2.297006339405543,10.254016902151344,auto,85.0,20,0.0,10.0,0.0,14.812176323366375,0.04671919485585384,1,0
1761251366.9854944,23.483668088912964,7.231247150005055,2.4844128789348554,10.763437621473724,-1.7428853721554676,1.8241716683793578,4.983240154702472,0.0019866228672656867,-0.02403170029446182,-0.01814046116534964,0.5597202067869101,-0.16982231573105078,0.14415547199137158,0.04451763457170545,7.231247150005055,2.4844128789348554,10.763437621473724,auto,85.0,20,0.0,10.0,0.0,14.987547316026475,0.030175248478697535,1,0
1761251367.0956411,23.593814849853516,7.041066070198567,2.682546080398823,11.313957062297268,-1.7245783791379403,1.800767575457067,5.021864241049847,0.06134942925123478,0.01769613025023014,-0.019268859710231664,0.5020655893076367,-0.3,-0.3,0.04047687223943261,7.041066070198567,2.682546080398823,11.313957062297268,auto,85.0,20,0.0,10.0,0.0,15.202873665129706,0.06669478577683537,1,0
1761251367.1994812,23.697654962539673,6.865567170738029,2.8669306646965436,11.837514461945156,-1.671509971353079,1.7393421747031255,5.0838888951016745,0.01621701529856551,0.0547146183412075,-0.02301086881281626,0.7105692182679169,0.3,-0.16341685449592358,0.052256687661910196,6.865567170738029,2.8669306646965436,11.837514461945156,auto,85.0,20,0.0,10.0,0.0,15.431896816494174,0.06153195209757731,1,0
1761251367.304168,23.80234169960022,6.69180675872343,3.0489617572128322,12.368938388083677,-1.6379897975002546,1.7182926357359707,5.068585635853663,-0.0271857718598415,0.033970411827562504,-0.021859611773121887,0.38365405894210003,0.3,0.001224993192870517,0.041894658531143845,6.69180675872343,3.0489617572128322,12.368938388083677,auto,85.0,20,0.0,10.0,0.0,15.687187357745056,0.048691864805336396,1,0
1761251367.4098012,23.9079749584198,6.520032752833097,3.2286713365725266,12.907968524948636,-1.5990732084816264,1.673752968242668,5.0965128973958205,-0.047014844972254395,0.0074038084606072585,-0.017379049936499157,0.35,0.3,0.060942970126576304,0.02504023483934392,6.520032752833097,3.2286713365725266,12.907968524948636,auto,85.0,20,0.0,10.0,0.0,15.968010846916265,0.0506679721735714,1,0
