timestamp,simulation_time,position_x,position_y,position_z,velocity_x,velocity_y,velocity_z,attitude_roll,attitude_pitch,attitude_yaw,angular_velocity_x,angular_velocity_y,angular_velocity_z,acceleration_x,acceleration_y,acceleration_z,motor_speed_1,motor_speed_2,motor_speed_3,motor_speed_4,control_throttle,control_roll,control_pitch,control_yaw,estimated_position_x,estimated_position_y,estimated_position_z,estimated_velocity_x,estimated_velocity_y,estimated_velocity_z,estimated_attitude_roll,estimated_attitude_pitch,estimated_attitude_yaw,sensor_accel_x,sensor_accel_y,sensor_accel_z,sensor_gyro_x,sensor_gyro_y,sensor_gyro_z,sensor_gps_x,sensor_gps_y,sensor_gps_z,sensor_gps_vx,sensor_gps_vy,sensor_gps_vz,sensor_baro_altitude,sensor_mag_x,sensor_mag_y,sensor_mag_z,flight_mode,battery_level,gps_fix,waypoint_index,mission_complete,setpoint_altitude,setpoint_position_x,setpoint_position_y,setpoint_position_z,position_error,attitude_error
1760898817.3507454,0.10024809837341309,-2.118810845902202,1.5727287551087386,-3.757735296926795,-1.3039632787818736,48.98579918519431,-55.55902599277495,1.7561327273091494,3.102742740400485,0.014333975273276784,,,,,,,,,,,0.7,-0.3,-0.3,0.04612692742411575,-2.411691717682877,1.1194854231840816,1.777729166569585,-47.24233377891255,30.32307403915582,52.23851203821237,1.6287281536146663,2.208299079651239,-0.07708236546555296,,,,,,,,,,,,,,,,,auto,85.0,True,0,False,-10.0,15.0,0.0,-10.0,21.050775767306344,2.745046796437415
1760898817.4609804,0.21048307418823242,-2.50286947036353,5.65810882955751,-8.927611381253216,-2.6685250629968067,11.685367861850228,-53.03182877008664,-0.11218112844365116,-0.7642005076088891,-0.017204813768935994,,,,,,,,,,,0.7,0.3,-0.3,0.0005569708541251694,-6.499921779456119,4.715792242185866,6.667452008137994,-64.69831797595897,40.76070386367867,1.4983159097021783,-2.4686668621705854,1.998474120714414,-0.02827822099358959,,,,,,,,,,,,,,,,,auto,85.0,True,0,False,-10.0,15.0,0.0,-10.0,27.609586911755404,3.1763209134668644
1760898817.5690706,0.3185732364654541,-3.4177904451269914,6.530802169432645,-15.588705242154022,-8.114897419025054,9.004822137233486,-59.10855685351075,1.4456401282436349,-3.0106910556519595,0.01191719516825758,,,,,,,,,,,0.42999999999999994,0.3,0.3,-0.001018538025674793,-13.688844059351664,9.324576479221014,12.309033589407388,-71.49174889006103,42.095232184398235,10.230224509918838,-0.8852143351927568,-2.4147062170533027,-0.04786392346121282,,,,,,,,,,,,,,,,,auto,85.0,True,0,False,-10.0,15.0,0.0,-10.0,37.51920147966833,2.572294984848302
1760898817.676047,0.4255497455596924,-2.866947742578592,7.623822111254077,-21.058362649329386,12.274945293068747,21.626569222199382,-53.00133478747862,1.967595274885867,2.416823618579213,0.22788003453463637,,,,,,,,,,,0.42999999999999994,-0.3,-0.3,-0.1562524073677521,-12.009735450623408,11.364598425190792,14.373836021251032,-51.55499717917848,27.102969146388567,-52.469974112101276,1.7311788851825967,1.6516191258785446,0.26115922966886335,,,,,,,,,,,,,,,,,auto,85.0,True,0,False,-10.0,15.0,0.0,-10.0,38.11513857864544,2.4068714574549053
1760898817.7858143,0.5353169441223145,-2.1426081154642187,12.502549557608399,-27.193573502348034,13.743113811685392,37.589132070759135,-44.27377441336833,0.9748812361087686,1.064050634268829,-0.21744156648619073,,,,,,,,,,,0.42999999999999994,0.3,-0.3,0.08786732143767176,-9.615461910891943,12.716924948020583,18.828470863026602,2.2659288436567504,13.774345912375827,-62.89105867986118,-1.9707394862127752,1.648434622007906,-0.14347622927258194,,,,,,,,,,,,,,,,,auto,85.0,True,0,False,-10.0,15.0,0.0,-10.0,39.984020277112386,2.5732734510577804
1760898817.8927906,0.6422932147979736,-1.2179203191740309,15.670063420575744,-31.082089360890294,-4.363381185904223,28.186993272323598,-30.766141565975897,-0.43648806080426383,-1.864532879920708,-0.040582921886656874,,,,,,,,,,,0.42999999999999994,0.3,0.3,0.09936077972538788,-4.8569695841443465,14.948912495214906,22.91587635594616,7.473746227631035,34.72504604293703,-72.73325672957834,-2.31579487119013,-1.3504958720753693,-0.17075375192287268,,,,,,,,,,,,,,,,,auto,85.0,True,0,False,-10.0,15.0,0.0,-10.0,41.24589848863959,2.686243069738638
1760898818.0020487,0.7515513896942139,-1.6564036218640408,19.62489317469769,-34.95493339807549,-4.6234572103601295,28.08904629947782,-42.06931884708571,2.6658924367483734,2.9713977078508047,0.4639915296942714,,,,,,,,,,,0.42999999999999994,0.3,-0.3,-0.2,-5.539353174142559,19.213639960135655,27.817602034789353,-30.67638777402642,19.4454661380744,-116.39595475228892,-2.795084509546538,2.226601222397537,0.40126250716967826,,,,,,,,,,,,,,,,,auto,85.0,True,0,False,-10.0,15.0,0.0,-10.0,47.129608665801435,3.596006398596826
1760898818.1091022,0.858604907989502,-3.104148869767537,22.40957345845459,-38.76529791496017,-12.6485979902024,31.103250176021184,-34.944139507804,-0.060716121595972866,0.7202900447860698,-0.28053841059626083,,,,,,,,,,,0.42999999999999994,-0.3,-0.3,0.07602135594735075,-4.9439663014780555,20.14890651282234,29.744141991531453,-0.9257391077920731,9.45385053122787,-121.66726668622778,2.493891346924052,1.4351984976610015,-0.11676918663821624,,,,,,,,,,,,,,,,,auto,85.0,True,0,False,-10.0,15.0,0.0,-10.0,48.81943309933003,2.8797437075023202
1760898818.2175972,0.9670999050140381,-6.310273204421885,25.325447339958746,-41.181210783968275,-44.896209436713505,-0.6013618516926922,-14.36029756536604,-0.2551336896514856,2.9234711412491836,-0.5460518020925375,,,,,,,,,,,0.42999999999999994,-0.3,0.3,0.2,-4.383975500291051,20.72108162915513,32.75550303827847,31.2310642087167,-7.790905647813732,-149.1984280324821,-0.16765891510334946,-2.358530551687482,-0.5988910706491819,,,,,,,,,,,,,,,,,auto,85.0,True,0,False,-10.0,15.0,0.0,-10.0,51.31407964812614,2.439148701813855
1760898818.328074,1.0775766372680664,-12.746387209023224,24.077642062449765,-41.31586082488949,-25.56671720510449,-28.63988520647409,8.897905889231724,-0.47603238893066,-1.1136345662694116,0.4777034475317034,,,,,,,,,,,0.42999999999999994,0.29669773338981337,0.3,-0.2,-2.1593039349456227,19.067953172922003,34.42846984964574,27.310310603599667,-29.045353121146555,-163.83306244692542,-0.6864172672795714,-2.5964879761746156,0.42936165804636917,,,,,,,,,,,,,,,,,auto,85.0,True,0,False,-10.0,15.0,0.0,-10.0,51.30221713452029,2.719792254684029
1760898818.4361963,1.1856989860534668,-13.882097654293009,20.13657042502212,-39.76978679753799,-4.609292378751382,-27.044639518087916,27.28624130940094,1.9960822419602,0.8542981759768359,0.5151271106701598,,,,,,,,,,,0.42999999999999994,-0.3,0.3,-0.2,-8.058832371707854,18.554486513495725,33.52882369139722,9.815163033582255,-47.89574255158183,-74.2394879566214,3.041743925056823,-2.352207530217062,0.5883277016583126,,,,,,,,,,,,,,,,,auto,85.0,True,0,False,-10.0,15.0,0.0,-10.0,52.637792621677825,3.889886355071121
1760898818.5451035,1.2946062088012695,-16.390851285561816,20.44256455332872,-38.33134900032829,-38.29700680672646,7.167763479869475,-4.831371878794759,2.460133973584852,-1.7103679502747036,-0.5572170865947925,,,,,,,,,,,0.42999999999999994,-0.3,0.3,0.2,-8.368450106348224,14.957867909131346,32.947958743160555,21.561014522929444,-41.94229349859579,-78.33863634169909,2.0039078301992244,-0.9302059587185085,-0.5429861870487248,,,,,,,,,,,,,,,,,auto,85.0,True,0,False,-10.0,15.0,0.0,-10.0,51.1307092945534,2.275030487025371
1760898818.6520667,1.4015693664550781,-20.10584480557463,20.251421998159184,-39.842433093121905,-25.707375740635925,2.444373497940262,-13.542205199311915,2.7806667454163967,-2.452802763279434,-0.4524111112630979,,,,,,,,,,,0.42999999999999994,-0.3,-0.045603691856640906,0.2,-5.906037731652608,9.510113547254939,34.331013206073685,34.78259349793509,-64.47975376791902,-100.07499478664415,2.4001155694037606,-0.31861677495149304,-0.587986732111437,,,,,,,,,,,,,,,,,auto,85.0,True,0,False,-10.0,15.0,0.0,-10.0,49.92738131722957,2.491545663421386
1760898818.759093,1.5085957050323486,-21.91314041503071,16.874625940341886,-40.41111251214093,0.5824781535247268,-44.03311003501743,-2.599044549888988,1.253037402887674,2.429589395330051,0.6687677155729493,,,,,,,,,,,0.42999999999999994,0.3,-0.3,-0.2,-1.5491159475311589,-0.40109259433263067,35.30889438543243,48.485777071333594,-103.42495123621171,-116.60174112311323,-1.565670805197205,1.8844328698428892,0.5775382594770607,,,,,,,,,,,,,,,,,auto,85.0,True,0,False,-10.0,15.0,0.0,-10.0,48.23826307345994,2.517133836797512
1760898818.868168,1.6176707744598389,-20.283078641839847,11.111617142028624,-40.90826724597666,27.54659399716948,-55.56817499517214,-6.452076717459738,2.0448040457223295,-1.4055032479126697,0.6738055821892289,,,,,,,,,,,0.42999999999999994,0.3,-0.3,-0.2,-4.916288249645016,-3.3974485390250737,33.29304425253146,45.63958847726305,-82.64517360726202,-101.03960270649966,-0.9884545693344544,0.6843166810517614,0.6881214880631543,,,,,,,,,,,,,,,,,auto,85.0,True,0,False,-10.0,15.0,0.0,-10.0,47.77540031093323,1.38522306432506
1760898818.976458,1.7259607315063477,-20.165325135905977,6.167460330446646,-42.06198755682002,-5.960382870013127,-40.258087134573415,-8.686067983810696,0.5549051051032707,-1.6974657987599822,-0.6089501153154521,,,,,,,,,,,0.42999999999999994,-0.3,0.3,0.2,0.4296333167598849,-13.60409262608485,36.668231395434574,42.804999589183424,-99.74489638828608,-88.72226757059657,-0.04674442045888607,-2.365302352807754,-0.4727531862798703,,,,,,,,,,,,,,,,,auto,85.0,True,0,False,-10.0,15.0,0.0,-10.0,50.747322520907396,2.412537219646508
1760898819.0840683,1.833570957183838,-19.772384735098456,4.049299538234789,-42.812848606735045,10.084361843980343,3.0549991017946607,-13.890735586723835,-1.9625556818478707,1.7694460455490286,-0.842942558308171,,,,,,,,,,,0.42999999999999994,-0.3,-0.3,0.2,-8.968273130183665,-11.025060840016886,36.42478893378909,33.55126120461176,-91.75077896057174,-29.110581348402228,-0.07739643203899392,1.5727076394750128,-1.032960305173455,,,,,,,,,,,,,,,,,auto,85.0,True,0,False,-10.0,15.0,0.0,-10.0,53.39748225259337,1.883190515858518
1760898819.1950865,1.9445891380310059,-17.79229633695934,4.250952812104394,-44.27646358648869,16.221299035766386,10.911470531564976,-17.502482868707773,1.5141935251615346,1.8822089032625426,0.4626666133353387,,,,,,,,,,,0.42999999999999994,0.3,-0.3,-0.1869507014943443,-8.833837297131431,-15.398024426708036,38.57758083966082,16.08625942891414,-96.59369480548746,-38.67051987788504,-2.80431145305063,2.474319696071312,0.28965631878772335,,,,,,,,,,,,,,,,,auto,85.0,True,0,False,-10.0,15.0,0.0,-10.0,56.25773117346106,3.751042717310884
1760898819.302693,2.0521955490112305,-15.960802794489654,5.533402056929459,-47.45260399111344,6.193689233381214,22.789536581895568,-26.607353780641933,1.679018388232301,-2.4986454601784898,1.1941257375997207,,,,,,,,,,,0.42999999999999994,-0.3,0.3,-0.2,-9.927578650620893,-17.212734389492987,38.010276780706164,25.881685833903077,-68.54137744051548,-69.15323961422013,2.3417064491825603,-0.7900110518010075,1.1695406603074292,,,,,,,,,,,,,,,,,auto,85.0,True,0,False,-10.0,15.0,0.0,-10.0,56.768380980138396,2.7341418968706193
1760898819.4100335,2.159536123275757,-16.673928171379842,8.453732157235448,-49.28974712358671,-1.75062125115738,30.08146789048764,2.0574825664841754,-2.1090880273715884,3.0268785139894536,0.47890646260739195,,,,,,,,,,,0.42999999999999994,-0.3,0.3,-0.2,-6.089517169838667,-27.06337180712311,44.24113882068468,46.96908512539615,-87.2302874994054,-83.12168273714546,1.1869294116123934,-2.589910005919367,0.6657643190130241,,,,,,,,,,,,,,,,,auto,85.0,True,0,False,-10.0,15.0,0.0,-10.0,64.1817339169977,2.9256926351520036
1760898819.5175016,2.2670042514801025,-16.66243103889461,11.677628979679117,-50.351448618423085,-0.6324927824649835,30.28101717644044,-22.070029427453687,-0.5718846016448589,-0.27701401777022056,-0.8890217199761141,,,,,,,,,,,0.42999999999999994,-0.3,-0.3,0.2,-7.185971885924897,-21.32595339141072,41.635963962871834,21.442492142265404,-55.014033090776294,-63.36307018108258,1.9901833691231012,1.9359972340209042,-0.8473631630539805,,,,,,,,,,,,,,,,,auto,85.0,True,0,False,-10.0,15.0,0.0,-10.0,60.11061812151553,2.9029191278731163
1760898819.62408,2.373582601547241,-16.3576442464525,13.88748798223209,-51.570932464640826,10.980724046183244,19.43172532313035,12.13032699065364,-2.0406865021985054,2.3434970622156843,-0.8579959280538795,,,,,,,,,,,0.42999999999999994,-0.3,0.3,0.2,-11.955190887556377,-9.999084824552375,44.27089024009633,-8.207268969857575,-57.624727206707774,-93.72981600036108,2.0243243111960383,-0.3999862852216467,-0.9628665479321731,,,,,,,,,,,,,,,,,auto,85.0,True,0,False,-10.0,15.0,0.0,-10.0,61.415743425979784,2.2770572971252934
1760898819.7317271,2.481229782104492,-14.753741385544146,14.393728668456642,-49.62135826939039,8.534406812105452,-4.4652704069951765,20.370395176081956,2.7073134055996158,-2.7487216283810816,0.5841199397071053,,,,,,,,,,,0.42999999999999994,0.3,-0.3,-0.2,-11.788802307936749,-10.009645281208375,45.72949745952457,18.07031177507701,-64.01215734614797,-70.7786101786523,-2.226375117990938,0.6945461250886267,0.3691804138201849,,,,,,,,,,,,,,,,,auto,85.0,True,0,False,-10.0,15.0,0.0,-10.0,62.638724562689575,2.3612358340143054
1760898819.8421686,2.5916712284088135,-15.840255786098304,15.312032222793773,-47.151054345691115,-47.767429640180026,8.810689441125888,18.99827499223558,-0.6456894843121332,-2.0586625381964594,1.3687304312531394,,,,,,,,,,,0.42999999999999994,-0.3,-0.04052528260360594,-0.2,-12.014444906772152,-8.810562756935502,38.765960448149,-3.947425129905211,-55.28470464882448,-96.39278714244213,0.9968634817481671,0.4860665863837544,1.338360985760435,,,,,,,,,,,,,,,,,auto,85.0,True,0,False,-10.0,15.0,0.0,-10.0,56.44045666138217,1.738162148893905
1760898819.9520817,2.7015843391418457,-20.619798621476743,16.10914256876194,-44.60767081839143,-43.53658843355648,-7.802153356889601,29.063499353257402,2.2100549106588514,3.1365523436418186,0.5828635575147374,,,,,,,,,,,0.42999999999999994,0.3,0.3,-0.2,-12.603917850334726,-15.880848104049395,39.04783177932046,-15.483061232743834,-48.448929578883764,-150.5856688562976,-1.456723464144394,-3.02218992184394,0.5992071293172944,,,,,,,,,,,,,,,,,auto,85.0,True,0,False,-10.0,15.0,0.0,-10.0,58.47963251803516,3.408038197923931
1760898820.0603113,2.809813976287842,-25.739244932715362,14.961917130692926,-41.28528556085523,-39.37758137373686,-0.3885999516649288,46.94599622341896,0.7020141710879513,-2.749866973157778,-1.113367783367419,,,,,,,,,,,0.42999999999999994,0.3,0.3,0.2,-14.413479494008987,-22.234754223429004,36.00521322486486,-18.88568466763631,-71.45795726217526,-148.36543986905485,-3.081811184253182,-0.812726012999095,-1.0339340081199078,,,,,,,,,,,,,,,,,auto,85.0,True,0,False,-10.0,15.0,0.0,-10.0,58.95775364772696,3.3506869863865685
1760898820.1672454,2.916748046875,-29.601760827237623,14.742123049680854,-37.368458924687005,-41.943581941615676,-2.5821271162591595,29.41320837552456,0.9947929935524945,-2.6948030040104016,-1.4681099425423358,,,,,,,,,,,0.42999999999999994,-0.3,-0.17422276421914304,0.2,-20.098107047407566,-14.2943450435865,29.869529567792338,-12.93362935370387,-49.82563362064732,-92.57073234714926,0.9840986581167537,0.584663779458533,-1.5400521952013506,,,,,,,,,,,,,,,,,auto,85.0,True,0,False,-10.0,15.0,0.0,-10.0,55.00713414179523,1.9188649425799698
1760898820.274866,3.0243687629699707,-31.294850351599305,15.517796578532003,-35.414443676678516,-13.330891528307822,20.67925971202198,11.89482634369727,-2.3079278307011353,-0.9214512044622791,-0.2148478296530475,,,,,,,,,,,0.42999999999999994,-0.3,-0.3,0.14123742874030565,-26.083634429283286,-2.9228939253083226,29.378604472323058,9.188394703015476,-29.906063087989175,-23.13611936462534,2.491386686293716,0.5131136037992299,-0.28008847218394795,,,,,,,,,,,,,,,,,auto,85.0,True,0,False,-10.0,15.0,0.0,-10.0,56.983180123658045,2.5590511412036596
1760898820.3819003,3.1314029693603516,-32.07705164954352,16.255474276753233,-33.4014821058377,6.876249779668809,7.786620123876242,29.66696421009953,-0.16859550952324145,2.44669612860813,1.3388805654655687,,,,,,,,,,,0.42999999999999994,0.3,-0.3,-0.2,-24.39337484344799,-9.591005007836088,31.805547615576792,14.347374740310674,-95.11159644270172,-52.71145388564195,-2.910018250046732,0.3095578108720221,1.3144719838379233,,,,,,,,,,,,,,,,,auto,85.0,True,0,False,-10.0,15.0,0.0,-10.0,58.23683688229466,3.208094270773808
1760898820.489044,3.23854660987854,-32.065289151952214,14.674341571293716,-31.514794106778783,-2.047327568342294,-26.58483781140685,7.034189218530598,0.6873016005337809,2.4469372312977584,1.3796592329658377,,,,,,,,,,,0.42999999999999994,-0.3,-0.24726234855669332,-0.2,-26.895909019922712,-9.918429390309319,28.600993364318835,-10.261973247574637,-85.01478281321073,-64.25055795002616,0.1912258664189694,0.6517968231411513,1.527935181394383,,,,,,,,,,,,,,,,,auto,85.0,True,0,False,-10.0,15.0,0.0,-10.0,57.82455467090412,1.6721221095324552
1760898820.5957851,3.345287799835205,-35.15046417447592,12.87390540072669,-30.605861090705027,-41.70349921242139,-14.647250702735676,27.489122837725386,1.2372975223834044,2.109310595167643,-0.13303583516561937,,,,,,,,,,,0.42999999999999994,-0.3,-0.3,-0.06947874604326237,-28.820001775436626,-3.9882513310989296,25.54348711174845,12.322171989709226,-52.93204459644155,-65.31558228317714,1.4159502093190377,1.786423868580727,0.16781431668222796,,,,,,,,,,,,,,,,,auto,85.0,True,0,False,-10.0,15.0,0.0,-10.0,56.563576445821646,2.2856917723938808
1760898820.6993487,3.4488513469696045,-37.35913951841893,14.728070552383157,-26.92787452299585,-13.948776273694033,27.09478726698755,47.28712392318781,2.7464804430227656,-2.4949851483247696,-1.6266041084550236,,,,,,,,,,,0.42999999999999994,0.3,0.3,0.2,-26.5724517689628,-11.659299483653387,24.054298935803807,22.66935586381657,-88.52521526897037,-100.84092887906647,-2.979900651884734,-2.114494328444057,-1.4896963828823806,,,,,,,,,,,,,,,,,auto,85.0,True,0,False,-10.0,15.0,0.0,-10.0,54.99002897381803,3.9458952689216162
1760898820.8079908,3.5574934482574463,-38.435986789312196,18.558122946471997,-22.53536044186028,6.9961846767787765,24.526903457683886,43.266809354937635,1.4228524309026458,-0.4505195439685168,-1.7355528505506057,,,,,,,,,,,0.42999999999999994,-0.3,0.3,0.2,-32.106558610665736,-4.1923156824177426,17.94392806713132,-18.231006688381456,-57.572829281934794,-35.516311075268625,2.409180344991978,-1.5323920499843067,-1.7408296361372746,,,,,,,,,,,,,,,,,auto,85.0,True,0,False,-10.0,15.0,0.0,-10.0,54.9314708590817,3.344078819586137
1760898820.9145849,3.6640875339508057,-36.1387009731751,22.04195689533978,-19.648694520833587,27.554754765023045,50.33628087897971,18.85641688753121,0.604143474953887,0.34227784681050033,-0.27606152500644454,,,,,,,,,,,0.42999999999999994,-0.3,-0.3,0.2,-33.35276149361047,-11.081872652448482,19.33131373138731,-26.74531027786432,-75.14137756824613,-41.464121533518096,2.5765305520569024,2.4702537016695536,-0.5286145432282356,,,,,,,,,,,,,,,,,auto,85.0,True,0,False,-10.0,15.0,0.0,-10.0,57.629188878138265,3.608337064577972
1760898821.0237656,3.773268222808838,-33.40757894323667,25.555251703757687,-17.85317339019476,39.17228778817133,31.985239522401947,13.222913900229514,2.8901663745015607,1.6646963148410117,1.453501053110026,,,,,,,,,,,0.42999999999999994,0.3,-0.16391603252284065,-0.2,-35.83637859180973,-0.5647462573281581,15.8656491284756,-17.79647116466967,-51.10460547695847,-18.519802268707757,-0.5952671195611247,0.5501536519630315,1.4746193743962916,,,,,,,,,,,,,,,,,auto,85.0,True,0,False,-10.0,15.0,0.0,-10.0,57.04110913632717,1.6827103980613447
1760898821.1313124,3.880815029144287,-28.68610345063314,28.614954201368374,-15.450929360596136,67.56989624379662,32.53413189368482,25.83934469068884,-1.9453149807075332,-0.08278861025774327,1.5749207270220704,,,,,,,,,,,0.42999999999999994,-0.3,0.3,-0.2,-34.88878247027662,7.622664764725911,15.996721142988626,4.402421871300681,-25.92826722605933,16.999916011173752,0.10729003467637228,-1.6974476495241893,1.6413300055074702,,,,,,,,,,,,,,,,,auto,85.0,True,0,False,-10.0,15.0,0.0,-10.0,56.76993169511731,2.363642075567958
1760898821.239041,3.988543748855591,-22.923180548742028,30.980437366308475,-11.640175947897218,43.32932410342738,-10.753702989467554,46.57849696490326,-0.8709315160800553,0.6857446254483052,0.15422510041385498,,,,,,,,,,,0.42999999999999994,0.3,-0.3,-0.1384409517723025,-31.64145246022859,9.303708165026697,14.838098206566773,25.998177309930156,-40.850222831603475,37.85799042702743,-0.8386878481170086,3.093503667651416,0.2774919111100824,,,,,,,,,,,,,,,,,auto,85.0,True,0,False,-10.0,15.0,0.0,-10.0,53.65552344110347,3.217167078204585
1760898821.3460255,4.0955281257629395,-18.428180882921026,29.69049432022565,-8.152946100357989,49.81833889122304,-20.1502500596483,25.49689534609274,-1.0560643616019454,0.6489274847449942,-1.5672869826587306,,,,,,,,,,,0.7,-0.3,0.3,0.2,-26.085015827431352,8.97746395800239,10.288241325251168,43.085326221071796,-74.38122669579188,16.00009311523512,0.7721091527864709,-2.1599537102307744,-1.4898668289650367,,,,,,,,,,,,,,,,,auto,85.0,True,0,False,-10.0,15.0,0.0,-10.0,46.692463211198714,2.735188429013011
1760898821.4538426,4.20334529876709,-16.859146097784755,26.1519865596564,-6.841884760532035,11.381277468889255,-35.12428171678497,32.314356513675435,-2.662044386691672,0.2226389657897371,-1.78130416617766,,,,,,,,,,,0.7,-0.3,-0.3,0.2,-20.854779458230027,11.386529108861794,5.952484201562241,5.052723122694936,-63.18836062960701,-26.143148429841634,1.7366110083401394,3.1395139284069264,-1.8729851445368633,,,,,,,,,,,,,,,,,auto,85.0,True,0,False,-10.0,15.0,0.0,-10.0,40.86196284255522,4.04727548513874
1760898821.5628119,4.312314510345459,-15.4560730229471,20.504675530179462,-2.6964455337506648,-23.34522184973149,-86.67399658019133,31.356496193619787,-0.2936849128335223,2.791143302791236,-0.41205832526451697,,,,,,,,,,,0.7,-0.04031102001203851,-0.3,0.2,-18.697549536409284,12.33701037527959,4.154944823531001,6.562504008093253,-90.00027885132418,24.53808905709642,-0.29932959444167906,-0.09892105810046647,-0.6971059714547208,,,,,,,,,,,,,,,,,auto,85.0,True,0,False,-10.0,15.0,0.0,-10.0,38.57575835567877,0.7650753670601125
1760898821.6721158,4.421618461608887,-18.428395511509088,14.893917900339135,0.2226015253631916,-31.945430839026827,-20.533993051609244,34.264939084106345,-2.7103531756137706,0.7500110490516586,1.5523123104469434,,,,,,,,,,,0.7,0.3,0.17403536638137743,-0.2,-19.888960079224397,7.431218160303371,1.5521312409710368,-16.83342299879144,-81.9362970458524,-20.878433933285148,-1.526639781619956,0.2659788154809962,1.4617235709734635,,,,,,,,,,,,,,,,,auto,85.0,True,0,False,-10.0,15.0,0.0,-10.0,37.49552339899198,2.130260442070104
1760898821.7808409,4.530343532562256,-20.612321143530675,16.667804565502355,5.404411157694331,-19.089852234572753,37.36291552184236,41.274707874060084,-2.845172591333527,2.034653323006869,1.9416934018660608,,,,,,,,,,,0.7,-0.3,0.3,-0.2,-21.333849968866545,2.7540205244329203,-4.068549257537747,-17.59569815730234,-40.66732775693032,-15.292711985755936,0.06487030195935163,-2.3469655280277624,1.936606352544134,,,,,,,,,,,,,,,,,auto,85.0,True,0,False,-10.0,15.0,0.0,-10.0,36.91768398097797,3.0435011927944475
1760898821.888221,4.637723684310913,-20.403224643765373,19.65073643064342,9.119113879602255,7.76108118979938,17.468558887284015,46.65298938101739,2.678681172927512,-1.5747633590016463,0.7282208409571482,,,,,,,,,,,0.7,0.20545314715938962,0.3,-0.2,-23.11903083461493,4.287758374177748,-6.4461775247783955,-10.06113303522956,-43.35659951778566,13.977472609145753,-0.5085877141843309,-3.0417082864411418,0.9822625838661249,,,,,,,,,,,,,,,,,auto,85.0,True,0,False,-10.0,15.0,0.0,-10.0,38.52369449872436,3.2365862488874457
1760898821.9970045,4.746507167816162,-20.528540928972394,22.00714591078724,12.954363877391508,-19.412524362274436,21.185826102041446,26.019514258033215,-0.6574164145395945,-0.514457495579781,-1.4209773208455752,,,,,,,,,,,0.7,0.3,0.2214973724082472,0.2,-23.602360294389293,7.5159337083986175,-9.581289858461652,-27.989259504074095,-29.67068868113638,-2.883967492762311,-1.3081747343216157,0.14677929142309334,-1.197379200282469,,,,,,,,,,,,,,,,,auto,85.0,True,0,False,-10.0,15.0,0.0,-10.0,39.32946475594999,1.7794893214563499
1760898822.1043007,4.853803396224976,-21.32944076771141,23.671863198495195,14.531919227440989,1.6561806285130114,35.604989223107616,-8.910784616180651,-2.2268460945188484,-2.9047993408660786,-2.1743657098941456,,,,,,,,,,,0.7,-0.3,0.3,0.2,-23.48716969675725,11.318910120540606,-12.574329281752734,-23.220802835589392,-35.962080493545066,-20.861608814050474,0.9651885708833425,-0.9229564560271417,-2.2847081330982397,,,,,,,,,,,,,,,,,auto,85.0,True,0,False,-10.0,15.0,0.0,-10.0,40.19959115258208,2.646380329909375
1760898822.210939,4.960441589355469,-20.38618572706679,26.934875209574766,12.727349549714258,-2.56261028411583,44.94252238156841,-5.633967177733583,0.867413272746142,1.7127642228848243,-1.3670200369665517,,,,,,,,,,,0.7,0.3,0.3,0.2,-24.2623721107152,12.336482803561845,-12.14679369014736,-13.44446233663906,-46.22387731122812,9.160202049024695,-2.6994806319485245,-0.6724734682128619,-1.527818357212205,,,,,,,,,,,,,,,,,auto,85.0,True,0,False,-10.0,15.0,0.0,-10.0,41.21081647906167,3.1739006254686113
1760898822.3201468,5.0696494579315186,-23.16424293617885,30.618536733320678,9.728081117134904,-25.609766411133158,23.474207221476846,-21.438233361920577,-1.3024929504969704,1.7898808344952333,0.7684628134049475,,,,,,,,,,,0.7,0.3,0.3,-0.2,-24.588811439777864,13.960841225190944,-10.568746891955834,-23.6834272162068,-27.15450814659318,-37.78086706178794,-1.412642789572572,-2.7988447151233755,0.52298839122648,,,,,,,,,,,,,,,,,auto,85.0,True,0,False,-10.0,15.0,0.0,-10.0,41.98216945271393,3.1784600434271764
1760898822.4281058,5.177608489990234,-26.25035051252622,33.497371303588906,6.31153761589164,-25.133941218235428,19.3691894644787,-30.98595159629646,-0.16820781719673122,-2.177037811583939,1.9720301148345993,,,,,,,,,,,0.7,-0.3,0.3,-0.2,-27.55976114832055,15.508373517435242,-10.000293023398319,-9.489603186361753,-38.27665055415551,-69.5123010141139,1.5732128303396842,-2.7174542631222804,1.8856345709866946,,,,,,,,,,,,,,,,,auto,85.0,True,0,False,-10.0,15.0,0.0,-10.0,45.297272746206744,3.662673069904961
1760898822.5353873,5.2848899364471436,-28.289242220048433,36.30438477234355,4.9701354797048,-14.494692286439458,39.240824212985615,-6.832805309803465,-2.961470273890808,0.6475317104525624,1.6209972626331055,,,,,,,,,,,0.7,-0.3,-0.3,-0.2,-29.020234301846223,14.281012423932028,-11.15468068856667,-12.973602795435703,-8.651826219328996,-128.1087717424451,3.120264604603569,1.8645104548244875,1.7224358221127711,,,,,,,,,,,,,,,,,auto,85.0,True,0,False,-10.0,15.0,0.0,-10.0,46.293213663932306,4.022342054100942
1760898822.6448283,5.394330978393555,-30.723363791098233,39.49956404022303,4.232367261261494,-12.700548467957601,18.320116549055687,-18.664276081283564,-0.20936214704432266,-1.2797269968257188,-0.2816563852457605,,,,,,,,,,,0.7,-0.3,0.1985673808526406,0.0383945486943955,-29.738020851042865,24.0729953467733,-9.481868846723856,21.007893315272554,-0.47676604476376283,-108.2392199471847,2.1706767932834956,-0.611165898382106,-0.025086851468838905,,,,,,,,,,,,,,,,,auto,85.0,True,0,False,-10.0,15.0,0.0,-10.0,50.80618145979985,2.255214146452914
1760898822.7545357,5.504038333892822,-29.983850389081255,43.78254041024578,2.102215762712461,25.25559903427444,68.57128312895844,-25.273584769023163,-0.696385347576802,0.191587898392103,-1.8043775440092804,,,,,,,,,,,0.7,-0.3,0.3,0.2,-29.025381768673647,26.391668322928336,-7.44407857023152,41.43424866387551,-3.485262426561241,-85.61962598215437,1.6678076670415536,-2.3651586363474677,-1.7910377053549325,,,,,,,,,,,,,,,,,auto,85.0,True,0,False,-10.0,15.0,0.0,-10.0,51.39345416587672,3.403435595297003
1760898822.8633525,5.6128551959991455,-25.49167620429386,48.57236646049661,-2.346099747917962,36.84834653819538,34.38946717898546,-45.83904734047124,-2.220872129371532,0.2870475729435909,-1.6507969829442193,,,,,,,,,,,0.7,-0.3,-0.3,0.2,-25.5888804697059,34.76334432887029,-3.2813759889188634,17.38619645318339,-9.427041891637495,-78.34709743139067,1.2067756723379468,2.4938414407164786,-1.8114113166532533,,,,,,,,,,,,,,,,,auto,85.0,True,0,False,-10.0,15.0,0.0,-10.0,53.86174185183717,3.3101002421197183
1760898822.9704273,5.719929933547974,-22.25857087800199,50.92357790611696,-3.859424109606745,35.484881099891176,21.512727320966714,2.4697235584806023,-3.1034811593535836,-2.810319992948233,0.059068503348180035,,,,,,,,,,,0.7,-0.3,-0.3,0.058234850439870686,-24.665644130497302,39.47788708940793,-1.143049290612252,16.212968722197367,-34.94037100891606,-75.61639424565763,2.5490000071361734,2.801096666402356,-0.1643510331605113,,,,,,,,,,,,,,,,,auto,85.0,True,0,False,-10.0,15.0,0.0,-10.0,56.65961938805996,3.790851465437749
1760898823.0770125,5.826515197753906,-18.81422661329501,51.24386806508575,-3.978983100329443,37.10062906566959,0.8649695516201801,5.310182097754393,-0.6512697998832104,-1.970556483643604,1.775723281750965,,,,,,,,,,,0.7,0.3,-0.3,-0.2,-20.041137771233597,35.25912643682916,-0.11302764334014448,63.94907231416918,-31.939937236685438,-87.63977051186279,-0.837810108008843,2.1031777293210836,1.6371171724612767,,,,,,,,,,,,,,,,,auto,85.0,True,0,False,-10.0,15.0,0.0,-10.0,50.683720816177605,2.7938208558462696
1760898823.1854587,5.934961318969727,-15.878457642243163,51.96323110893085,-4.397216529170451,12.095594218200292,5.59108759811129,-15.707003531598119,2.453100760434128,-1.8770302296552535,1.9841711780033497,,,,,,,,,,,0.7,-0.3,0.3,-0.2,-14.514112870960826,31.961781062811355,-0.8331929777389335,43.289538606306834,-27.400651250595555,-115.7995863498688,0.806669934716601,-1.9016189985756062,1.9475859156558053,,,,,,,,,,,,,,,,,auto,85.0,True,0,False,-10.0,15.0,0.0,-10.0,44.45974199486853,2.8390072381345277
1760898823.294058,6.043560743331909,-13.05447806181092,54.27095782906899,-7.283305702167206,24.44294298168897,22.54566622189222,-32.610732491199315,1.8320938825534447,-0.002705911794086743,0.6366995732308618,,,,,,,,,,,0.7,-0.08854977902589058,-0.3,-0.2,-10.791264030852531,27.85136803194057,-1.3675290896680417,19.311717003910168,-38.33594612480626,-164.9369510709749,-0.2531460561187155,2.7151089808079774,0.8686786375634602,,,,,,,,,,,,,,,,,auto,85.0,True,0,False,-10.0,15.0,0.0,-10.0,38.92823596796387,2.8619053581052785
1760898823.4000227,6.14952540397644,-12.12155076805443,57.62601377483656,-10.602866430088055,18.4695710346073,35.652071623292834,-14.731026681840042,-1.6773895342759062,-2.1946765556601604,-1.376862940236818,,,,,,,,,,,0.7,0.3,0.3,0.2,-11.603947403453121,47.636398859967215,1.6262597144811082,-4.429772473483077,8.585028814309362,-79.94294090866322,0.18201409267129948,-1.2417628842083075,-1.2039777381445311,,,,,,,,,,,,,,,,,auto,85.0,True,0,False,-10.0,15.0,0.0,-10.0,55.78679439383618,1.7391568602273666
1760898823.507712,6.257214546203613,-10.942574076565018,59.90520341664111,-10.715494563228516,7.738365574188265,27.387696873208938,-3.7066410885811045,-2.80934943366359,-2.5459718620507363,-1.9589142215504383,,,,,,,,,,,0.7,-0.3,0.3,0.2,-14.50437013270913,44.08946820054579,4.867586274174082,-56.40002639879772,-70.97828200534103,-112.63351260780267,0.30603098473985363,-0.7888675179294625,-1.8748431750675172,,,,,,,,,,,,,,,,,auto,85.0,True,0,False,-10.0,15.0,0.0,-10.0,55.09477456850918,2.056940411281349
1760898823.6153698,6.364872455596924,-8.32652627536312,62.079093482851185,-9.066648213867783,18.00925208797414,20.23187357399526,25.77662378721837,0.032573926758802024,-2.1981962461168627,-0.9861629921083378,,,,,,,,,,,0.7,-0.3,-0.3,0.2,-15.01432734902818,45.80324765567546,4.7052510363791225,11.293864694564473,-31.589647701035,-54.36943110316,0.19241576298304375,2.040182023702356,-1.2224991439526565,,,,,,,,,,,,,,,,,auto,85.0,True,0,False,-10.0,15.0,0.0,-10.0,56.70133816820102,2.38618328563578
1760898823.7231338,6.472636461257935,-7.8190390362713265,63.78035673798781,-6.240047786119585,-4.992733826366305,22.44024680994433,42.199630800892976,-1.6761381582565256,1.4425384227254927,1.166542932526893,,,,,,,,,,,0.7,0.3,0.3,-0.2,-12.454673789781454,45.01545759643959,4.2309926327026615,18.26746366782524,-49.28073174928625,-81.57575690697107,-2.9812164684688685,-1.4709598184098152,1.0412477551005592,,,,,,,,,,,,,,,,,auto,85.0,True,0,False,-10.0,15.0,0.0,-10.0,54.613841531540345,3.483614689765242
1760898823.832112,6.58161473274231,-7.39436514017839,64.57091918882715,-3.668295437320996,9.639464919056055,-5.44725032199661,0.1679656897772408,0.14348031620671142,-1.1684087261210707,2.215467559315934,,,,,,,,,,,0.7,-0.3,-0.15014790252620344,-0.2,-8.282123807030256,53.94669513825717,3.045034669777065,13.071250346342199,12.075597948287978,1.417597662707804,2.893844896551107,-0.3275977635847541,2.1352253447517553,,,,,,,,,,,,,,,,,auto,85.0,True,0,False,-10.0,15.0,0.0,-10.0,60.187009685160724,3.611211133798587
1760898823.9421108,6.691613435745239,-7.008999588969426,67.35582234914617,-3.6520525720069945,-10.088812818139576,23.936417382235934,18.36597617940666,0.47133174219671525,-1.4251946287876631,1.6167348876673762,,,,,,,,,,,0.7,-0.3,-0.3,-0.2,-6.423529151712089,54.217352079469734,2.8575811969148814,8.557274948632905,6.458475727253743,-23.037329512478543,0.8754393717362517,1.7145889035665949,1.7944216972881069,,,,,,,,,,,,,,,,,auto,85.0,True,0,False,-10.0,15.0,0.0,-10.0,59.69762358803487,2.6317595690940294
1760898824.0508242,6.800326824188232,-6.3805536717819615,68.88122654776814,-2.916915406564507,10.19377284709871,17.455820236927828,5.949973957633048,-1.0361239030719085,0.8684816631925292,-0.491947234194534,,,,,,,,,,,0.7,0.3,0.3,0.2,-5.156916426681384,59.36064523521499,0.9344080691432137,4.248257716256024,25.881761247626912,-57.342169656368604,-0.8514952036268446,-1.4518600964100077,-0.26681785942364855,,,,,,,,,,,,,,,,,auto,85.0,True,0,False,-10.0,15.0,0.0,-10.0,63.63606495059083,1.704151868659192
1760898824.1579683,6.907470941543579,-7.548057596387854,70.5862164609943,-4.279959927883817,-21.618351756324437,21.580100618148645,-27.969267218321228,2.0341928501381004,-2.223424550765488,-2.170390357988476,,,,,,,,,,,0.7,0.3,0.3,0.2,-5.6865960024925055,64.21256083372278,-0.5971755991980001,-3.500521235198171,6.4961628452544335,-68.94361214851719,-2.8497618131050215,-3.1169557250498077,-1.9824275580500847,,,,,,,,,,,,,,,,,auto,85.0,True,0,False,-10.0,15.0,0.0,-10.0,68.11461906013426,4.665466151015225
1760898824.267036,7.016538619995117,-10.283252547109862,71.28050193415231,-6.28790210633605,-45.37171435199802,-12.82501999578328,-13.59534952457353,0.43897619110828734,-0.24287964155367261,-2.297448159049982,,,,,,,,,,,0.7,0.3,-0.3,0.2,-6.1483845910196235,67.31801325549037,2.2757290868265647,-32.16577475089376,-12.588458858065447,-55.665145735765925,-2.5614607969216805,1.0321157685554194,-2.328253730461632,,,,,,,,,,,,,,,,,auto,85.0,True,0,False,-10.0,15.0,0.0,-10.0,71.62166295255378,3.612078322417151
1760898824.3743906,7.1238932609558105,-15.28020774255105,71.78403467725501,-9.094053340724564,-58.615236504018704,0.6807815549083371,-24.05720348376578,-1.7151466707585985,2.725656727503248,-0.8669946355082777,,,,,,,,,,,0.7,0.3,-0.3,0.2,-11.87018625225694,68.18094801187662,5.255099461580636,-44.75598294325162,-17.759024610227318,-22.468394197672637,-3.0686735113546844,1.1081774261394894,-0.9896656501630298,,,,,,,,,,,,,,,,,auto,85.0,True,0,False,-10.0,15.0,0.0,-10.0,74.85563866945441,3.4094357929439942
1760898824.483322,7.2328245639801025,-20.86819443603573,70.75191291373409,-10.5229982752699,-60.3274857462554,-14.972611733004713,-18.682274551077917,1.081495982742933,0.8015917604301941,1.438831614648174,,,,,,,,,,,0.42999999999999994,-0.3,-0.3,-0.2,-16.71602302396779,67.03080348300675,8.469366144414028,-53.65992110487542,3.826309217450622,-30.226336145307876,2.3203179026795273,1.0958609035104296,1.394241053662797,,,,,,,,,,,,,,,,,auto,85.0,True,0,False,-10.0,15.0,0.0,-10.0,76.42088862222653,2.9203928511514614
1760898824.5900922,7.339594841003418,-27.872372590049814,68.429947839709,-11.583579232707306,-40.32683763503934,-21.052902002080202,3.6599809035821966,-0.9146414545394862,-1.1230968583555512,2.3587493490218026,,,,,,,,,,,0.42999999999999994,0.3,-0.3,-0.2,-24.517122247663938,69.3959951317004,9.528028419704741,-45.247842650698566,15.236832797515866,-3.203830259659661,-1.633640121163326,2.4470936217564314,2.3485102915770284,,,,,,,,,,,,,,,,,auto,85.0,True,0,False,-10.0,15.0,0.0,-10.0,82.21162317468618,3.7646444491822537
1760898824.6999831,7.449485778808594,-30.941344162702016,66.73851457744802,-12.539626238509989,-30.650168777841532,-6.718426203091523,-18.51554189831439,-0.2870420718612406,0.33047895191674764,1.7785269792960283,,,,,,,,,,,0.42999999999999994,-0.15300103865505943,0.3,-0.2,-30.128556251759854,67.39028710286651,11.15514871767612,-35.366645823106225,-29.59729175638093,-0.7947842951633843,-0.2582707231002644,-0.0790337705373199,1.8405578305934236,,,,,,,,,,,,,,,,,auto,85.0,True,0,False,-10.0,15.0,0.0,-10.0,83.81871928419106,1.8602696662190805
1760898824.80773,7.557232618331909,-33.27483575384088,64.52821736044733,-14.536519786504227,-15.540807054385754,-59.564479188545576,-8.450719513265014,-0.9681698237734915,-2.9164193508233613,-0.31697866273235503,,,,,,,,,,,0.42999999999999994,-0.3,-0.3,0.05346304879071043,-32.991311345496975,65.51466334494754,12.852645582540235,-16.23683788761139,-25.664785184782787,11.141021079118655,-0.09182946413779351,1.2465242960547767,-0.0034603802851356173,,,,,,,,,,,,,,,,,auto,85.0,True,0,False,-10.0,15.0,0.0,-10.0,84.3657542370329,1.2499069746866798
1760898824.916114,7.665616750717163,-33.55931273850531,59.0748674358169,-14.44002028946907,-4.654112245983467,-51.44999081975664,3.083984119514211,0.5655599698474872,-0.3039160661638877,-2.0808578382694853,,,,,,,,,,,0.42999999999999994,-0.3,0.3,0.2,-33.72735532055625,62.12065919947191,11.634546171553302,-11.225127392127245,-50.75948900930764,-8.801741720629849,2.949252448582049,-0.09199796377104434,-1.9908834170711587,,,,,,,,,,,,,,,,,auto,85.0,True,0,False,-10.0,15.0,0.0,-10.0,81.8619877840854,3.5595182835847554
1760898825.019989,7.769491672515869,-35.11529354097217,54.52513977464393,-14.436368874587794,-17.51420331280402,-44.34043891315421,10.375280321602274,0.3060155679362699,-0.23714979342596537,-2.2155764128781525,,,,,,,,,,,0.42999999999999994,-0.3,-0.3,0.2,-34.4101581008002,55.36086945113778,14.617898744037097,-19.738644842289958,-75.59428291209117,31.025349161154182,0.20341451578482408,1.6978110222062794,-2.2599719141821377,,,,,,,,,,,,,,,,,auto,85.0,True,0,False,-10.0,15.0,0.0,-10.0,78.18075548690774,2.833974732641274
1760898825.128046,7.877548694610596,-37.08913635258402,51.062725116365016,-13.524618493552879,-28.403343596936082,-33.38770250483701,11.97137118848104,-0.5462374222835843,2.104728207110773,-0.9027755647753418,,,,,,,,,,,0.42999999999999994,0.3,0.2267992012353447,0.2,-37.42883098899306,48.190038867270374,15.060495433588008,-21.895278480349774,-61.73132724517329,24.912492524486616,-2.5761103059388786,0.1794716889603603,-1.1078439382241467,,,,,,,,,,,,,,,,,auto,85.0,True,0,False,-10.0,15.0,0.0,-10.0,75.49232143919217,2.8099595347553983
1760898825.237477,7.986979722976685,-39.61982886307015,48.67223780605456,-12.473029905560235,-16.30846698540768,-18.687490128915936,-4.764401084740601,-1.3667805342567039,0.5296296620998453,1.4374707419258075,,,,,,,,,,,0.42999999999999994,-0.3,-0.3,-0.2,-39.236475488232195,44.55253046543135,14.440617756585295,-5.9442260284558595,-30.657366574802758,52.52428721355654,2.694016187310475,1.5244587814249206,1.293083976636693,,,,,,,,,,,,,,,,,auto,85.0,True,0,False,-10.0,15.0,0.0,-10.0,74.32272223608547,3.354663018007768
1760898825.3459034,8.09540605545044,-41.30363601626852,46.61408062241933,-12.280333552622464,-25.956906460178523,-28.707318802108542,-3.1287771463663465,1.0729892276528887,-1.4474252836336472,2.4276597372658744,,,,,,,,,,,0.42999999999999994,0.27601920527735646,0.3,-0.2,-38.63170724102403,43.57982403978897,13.286449413029755,2.2824347240030542,-32.4774759057813,29.281862840676496,-0.579630609388646,-0.7927435332283094,2.4199849264675732,,,,,,,,,,,,,,,,,auto,85.0,True,0,False,-10.0,15.0,0.0,-10.0,72.9233831578834,2.6116548388226617
1760898825.453481,8.202983617782593,-44.43549518807995,44.4151028784015,-12.232890623995019,-39.84209887609696,-8.572501922475674,12.239384008920378,-2.0451878604658114,1.3467608333565217,1.766922718401384,,,,,,,,,,,0.42999999999999994,-0.3,0.3,-0.2,-41.24426075973227,40.44853088707139,13.718797772713987,-17.988972485284634,-42.05315842497768,37.334284570538266,0.4792391100421684,-2.198248275628094,1.8697226698708342,,,,,,,,,,,,,,,,,auto,85.0,True,0,False,-10.0,15.0,0.0,-10.0,73.22623769602006,2.9253766369691303
1760898825.5618024,8.311305046081543,-48.0257477921979,44.6366498592166,-11.095542198688792,-38.33450619533478,17.91438168184972,1.4168051572317761,2.0921108876652594,-2.349862222168388,-0.44197369759323724,,,,,,,,,,,0.42999999999999994,0.3,0.3,0.2,-44.485396580818765,36.419573732040405,12.783438674151878,-40.79716049646787,-54.33469334481276,28.93738905209163,-2.731973138808255,-2.9900104182782927,-0.24909331832389003,,,,,,,,,,,,,,,,,auto,85.0,True,0,False,-10.0,15.0,0.0,-10.0,73.37562834497332,4.057818011421429
1760898825.6721978,8.421700477600098,-51.89498374249057,46.43908665061794,-12.355458326698127,-28.307996033208976,7.899257153297866,-18.682959054181218,-1.304445160095307,-0.12094560168547216,-2.1452798087175076,,,,,,,,,,,0.42999999999999994,-0.3,-0.3,0.2,-48.35657871557339,35.62112326347192,11.80344050437458,-28.98619952085302,-35.65570760758698,13.87871499394309,3.0009301718948422,1.221464878209401,-2.0356546891191716,,,,,,,,,,,,,,,,,auto,85.0,True,0,False,-10.0,15.0,0.0,-10.0,75.88353251478156,3.826414556555626
1760898825.7790384,8.528541088104248,-53.55282756639348,48.26520997896829,-14.30903254464789,-4.177010775396994,16.359714060598,-12.107088719893946,3.04292050490364,1.388093810313526,-2.22338462677145,,,,,,,,,,,0.49381781851667805,-0.3,-0.3,0.2,-53.591830583123134,37.759762974153524,10.605946740172541,-37.919681616821,-26.1813777916038,-32.24928874440061,1.4043485045081692,1.700076460596554,-2.41735047055585,,,,,,,,,,,,,,,,,auto,85.0,True,0,False,-10.0,15.0,0.0,-10.0,80.96446111515193,3.2720082505222123
1760898825.8880484,8.637551069259644,-55.80012224389631,51.065147390169216,-15.174377198060768,-22.102186038777727,28.054669381770687,-4.48225062622042,-1.2075159749043023,-1.7292278306958355,-0.7070412667751742,,,,,,,,,,,0.42999999999999994,-0.3,-0.3,0.2,-56.663863030692255,39.84853709616104,12.056886440512796,-27.79592683116994,-1.2825411580332422,-26.769352087432086,1.4663608305313944,0.8576930333204923,-0.9105562372340251,,,,,,,,,,,,,,,,,auto,85.0,True,0,False,-10.0,15.0,0.0,-10.0,84.91243379291174,1.9274242101543226
1760898825.996793,8.746295690536499,-56.70020746822895,56.54438327687721,-16.8136018613572,-5.10125471845382,55.95367109842883,-22.157874012656542,-1.4398185492709283,-1.5862759578322332,1.73224138457094,,,,,,,,,,,0.42999999999999994,0.19113804677664345,0.3,-0.2,-57.91844881430455,40.81964341515194,15.276207410247864,-6.7790390619644665,19.33138031717895,-5.218806670758574,0.33536043644430036,-2.601006488946046,1.591485728400523,,,,,,,,,,,,,,,,,auto,85.0,True,0,False,-10.0,15.0,0.0,-10.0,87.30538429598933,3.0676584232235005
1760898826.10595,8.8554527759552,-54.53074922100246,61.75951461271925,-19.080246263148055,36.08363366623984,36.53229235098029,-15.212369668082056,-1.6814796459791332,0.399900862143974,2.6361506331787936,,,,,,,,,,,0.42999999999999994,0.0640660316396839,0.3,-0.2,-58.974773232058894,43.00612741104392,16.690484401689233,6.2017337990457655,24.84049854722511,-24.221186063858724,0.4281444046959331,-1.5802244898818203,2.5777309083768247,,,,,,,,,,,,,,,,,auto,85.0,True,0,False,-10.0,15.0,0.0,-10.0,89.6335652935121,3.053704914639904
1760898826.2116597,8.961162328720093,-52.10540237246254,63.644260729548265,-18.916808312295633,12.446323672434488,1.2019567765516612,1.1718990050349998,0.5488188640027643,2.2399076639260285,1.921546296169716,,,,,,,,,,,0.42999999999999994,0.3,-0.3,-0.2,-55.548663043732056,55.848745704540185,15.644515664702515,10.679972404928042,22.665530198285925,-24.325129449264235,-0.695093098955874,2.987795276884323,2.0328689506328272,,,,,,,,,,,,,,,,,auto,85.0,True,0,False,-10.0,15.0,0.0,-10.0,93.56194438822665,3.6800314133489893
1760898826.3202221,9.069724798202515,-51.254473729843056,63.30933549238728,-19.639861366868285,-1.0782454539736812,-0.6366082143106642,-10.08199796984316,-0.31077130071733894,-3.0713187932149215,-0.3409129940150579,,,,,,,,,,,0.42999999999999994,-0.1338563361217544,-0.3,0.13439267506527613,-54.093194073607435,60.184682170263486,17.199600871002346,3.1620552247736597,12.766829185391058,-17.884079643005705,0.49772158591748467,0.9893578153950686,-0.11346620141616652,,,,,,,,,,,,,,,,,auto,85.0,True,0,False,-10.0,15.0,0.0,-10.0,95.58181690452763,1.1132970146530228
1760898826.4296987,9.179201364517212,-50.57195622577746,64.55811167758075,-21.238252008101853,11.125017789304115,16.805798537424288,-5.876874115205316,-2.4595980309936767,-1.395802553739133,-2.308273225096659,,,,,,,,,,,0.42999999999999994,-0.26369257927832773,-0.3,0.2,-52.73254585587172,61.83978153872906,20.022228073946998,13.076390803228296,17.131520977469112,0.7213200217758917,0.6068153057585718,2.5714603219523133,-2.2846689681924457,,,,,,,,,,,,,,,,,auto,85.0,True,0,False,-10.0,15.0,0.0,-10.0,96.50487307592084,3.492899268072227
1760898826.5363202,9.285822868347168,-49.45792614083054,64.86551082630027,-21.321631026228385,16.039225793423867,-2.9878905348786695,-14.006007493874186,-2.794020122912929,1.822317774799255,-2.748094250136458,,,,,,,,,,,0.42999999999999994,0.3,-0.3,0.2,-52.52598304949884,65.0822552884969,19.769004707775654,11.055950772908126,45.446229928535615,-31.89957400342798,-0.5833094536130927,0.23313668544022095,-2.893159618406049,,,,,,,,,,,,,,,,,auto,85.0,True,0,False,-10.0,15.0,0.0,-10.0,98.39538597683256,2.9605700819855443
1760898826.6449094,9.39441204071045,-45.89151252525911,66.26676659787746,-21.11090948578434,44.27666244128964,23.82330621690854,-0.13726936251085053,0.9677411848944462,1.1700098917833912,-1.5083226294001686,,,,,,,,,,,0.42999999999999994,0.3,-0.3,0.2,-50.854021284427965,67.09850070799551,18.37195526703713,3.455020653374316,14.19841231954229,-4.920373944182297,-1.982712498664143,1.3693398283942075,-1.8004020030274772,,,,,,,,,,,,,,,,,auto,85.0,True,0,False,-10.0,15.0,0.0,-10.0,98.2035068735609,3.0079374645246597
1760898826.7525244,9.502027034759521,-40.97537482772375,68.4594176527271,-20.733310943652334,54.73274757535156,32.32518418142499,-6.964491382661885,0.9802028652335528,0.8505230139115432,1.0491435143321324,,,,,,,,,,,0.42999999999999994,0.3,0.3,-0.2,-50.9373718507161,69.05577903993243,20.3404045671813,-8.271958064455044,14.224965136000018,-6.884612456281886,-1.2993178556897198,-0.5497755111164705,0.8036103847571637,,,,,,,,,,,,,,,,,auto,85.0,True,0,False,-10.0,15.0,0.0,-10.0,100.18471826926407,1.6236593402641653
1760898826.8604603,9.609962940216064,-36.23519067309233,71.80749095687978,-21.698520032520964,22.603607849907817,25.81338545981616,-7.299440581932694,-0.685152484751884,-1.6353321182929346,2.641643299986973,,,,,,,,,,,0.42999999999999994,0.3,-0.3,-0.2,-44.34796608068584,71.85804959596781,19.35252672767406,29.09583794733576,18.397783733178155,-15.121642754887057,-2.28490851367876,0.46848231942741075,2.5124026747729387,,,,,,,,,,,,,,,,,auto,85.0,True,0,False,-10.0,15.0,0.0,-10.0,97.71044567982293,3.428184621589681
1760898826.9673364,9.716839075088501,-35.899922762886234,74.40913278846656,-20.80989135101583,-6.165669749079738,44.506292502966176,18.236655809010042,-1.9800364389280338,2.780170579668175,2.6067418212902576,,,,,,,,,,,0.42999999999999994,0.3,0.3,-0.2,-39.616560945211546,73.58608425068655,19.573359196893538,1.5672364966612822,-8.408432859136024,-26.887851958309692,-2.4254691502806005,-1.6846970810080235,2.5789647691349096,,,,,,,,,,,,,,,,,auto,85.0,True,0,False,-10.0,15.0,0.0,-10.0,96.29363477935411,3.9207351522589393
1760898827.071982,9.821484565734863,-36.38160280660762,77.03618612447637,-18.68806586348314,-13.884919367429871,16.253559415552292,18.724314554923268,1.6557107687450574,0.0921308746207594,1.0452419922349787,,,,,,,,,,,0.42999999999999994,-0.3,-0.3,-0.2,-39.241741864362275,76.25876418754974,16.654657477871275,-16.48724190044793,15.002560197652901,-5.811336247021413,2.1260046648682347,1.7001584192129635,1.2737159727689296,,,,,,,,,,,,,,,,,auto,85.0,True,0,False,-10.0,15.0,0.0,-10.0,97.30383569600465,3.0054595097503674
1760898827.180204,9.929706573486328,-38.02888900843155,78.05938630258369,-16.424785009145694,-9.289878648972254,-5.577688283974633,14.293202753610345,-2.8434706085882224,1.1866706612838247,-1.5152402539589276,,,,,,,,,,,0.42999999999999994,-0.3,0.3,0.2,-39.90605066750717,77.39437240316543,16.648468036339427,-20.522111322749144,-10.381482830508961,-4.445549533422289,2.812860652614486,-2.433442016744432,-1.2806446527743096,,,,,,,,,,,,,,,,,auto,85.0,True,0,False,-10.0,15.0,0.0,-10.0,98.56319865074653,3.9336847645132207
1760898827.2867932,10.036295890808105,-39.113290447717716,76.09726473978188,-14.311469472092794,-19.522360564092146,-16.619151021466287,25.09269991721535,-0.9992369907375174,0.21164544618974473,-2.73529982879744,,,,,,,,,,,0.42999999999999994,-0.20822358561873272,-0.3,0.2,-40.60911330811713,76.77468041655186,13.97258955486417,7.060820503638375,-19.960859013181633,-13.903625180117666,-0.26746806013044977,3.1397897213984605,-2.7371768178421716,,,,,,,,,,,,,,,,,auto,85.0,True,0,False,-10.0,15.0,0.0,-10.0,97.78246307976019,4.173961618165884
1760898827.3959663,10.145468950271606,-39.12267209761562,72.80155760802306,-11.858522924278148,13.42522963264465,-39.11212319493627,28.939740396556537,-0.6534379362983052,2.3055776622731785,-2.375534556230437,,,,,,,,,,,0.42999999999999994,-0.3,-0.3,0.2,-41.852296593873405,69.45786778425258,12.319247000760253,-37.689826946823295,-92.25943353386894,-21.28748979075074,2.2515607113703933,2.0346270513170013,-2.469280639189013,,,,,,,,,,,,,,,,,auto,85.0,True,0,False,-10.0,15.0,0.0,-10.0,92.49177158976579,3.9123624256977223
1760898827.5053742,10.254876852035522,-38.42047979439519,69.83007396148511,-9.389853810501648,18.193928826678572,-29.24688492133855,11.710962042809935,-1.2201458107322463,-1.8095095917973487,-0.34681078338036686,,,,,,,,,,,0.7,-0.3,-0.3,0.2,-45.194523748220625,60.653601774728095,9.904599846677268,-30.24186350264731,-84.71986362980203,-19.496896294478795,0.06315857846723276,3.0773696525093386,-0.5847671564612179,,,,,,,,,,,,,,,,,auto,85.0,True,0,False,-10.0,15.0,0.0,-10.0,87.74071570587249,3.1330728704412842
1760898827.6146326,10.364135265350342,-35.52593739244426,64.98673698047372,-7.5023698893555695,25.408709594310785,-35.24057664710887,8.623885290806658,3.0874238091827677,3.1214273722282497,1.987663601018109,,,,,,,,,,,0.7,-0.3,0.3,-0.2,-42.87942642671067,58.490984569438154,7.465580842997023,14.023800503925408,-81.41432085393603,16.31242768404607,0.8597027604409102,-2.18247060002305,1.739198120297068,,,,,,,,,,,,,,,,,auto,85.0,True,0,False,-10.0,15.0,0.0,-10.0,84.1205670069486,2.9201158980286293
1760898827.7213955,10.470898151397705,-34.5271503498252,62.35859173779856,-8.095247337406521,23.496028874694655,3.967522406313364,-18.05861594758967,-1.4646841658219023,-0.4115035931958412,2.733551918878764,,,,,,,,,,,0.7,0.3,-0.3,-0.2,-40.937878762486925,52.84979417666732,6.476640851492531,-14.781044307539046,-86.08469008635835,-30.73359065756471,-1.0761472947485322,1.766613121379256,2.7163717935634613,,,,,,,,,,,,,,,,,auto,85.0,True,0,False,-10.0,15.0,0.0,-10.0,78.69959795775235,3.414336046948384
1760898827.8299682,10.579470872879028,-30.368432414336173,63.93053563873775,-8.685060455685049,33.80941540822635,5.55512303220256,-14.481864634998185,2.9672795077514293,2.5476109850892734,1.9406572807870868,,,,,,,,,,,0.7,-0.3,-0.3,-0.2,-36.518665262399345,53.076249783802,4.821155637937469,17.051991856757407,-59.249444692541246,-39.39802802634709,2.8795376795009515,2.9225958857684393,2.2331593548338606,,,,,,,,,,,,,,,,,auto,85.0,True,0,False,-10.0,15.0,0.0,-10.0,75.43823842041688,4.671220896431501
1760898827.937179,10.686681747436523,-28.618839743318407,66.40088274376609,-9.737885827646666,20.23881623827812,38.19721556977966,4.714961298192284,-0.578882042424018,-1.910586531084715,-0.3416004317776973,,,,,,,,,,,0.7,-0.3,0.0210751531908124,0.11482365691785233,-34.96989375310228,46.52962480490105,7.521948683207296,16.82877494402312,-87.011058715338,-38.43553252091781,2.087636454861164,-0.44363851612387983,-0.07836102580102022,,,,,,,,,,,,,,,,,auto,85.0,True,0,False,-10.0,15.0,0.0,-10.0,70.49124024897095,2.1356922884672493
1760898828.0468285,10.79633116722107,-26.351353696843617,70.85792064623162,-9.112707133257544,26.32590751986588,30.702932412839758,5.357738605755866,2.0353005113551945,-1.5851664608550793,-2.306371048964001,,,,,,,,,,,0.7,-0.3,-0.3,0.2,-30.643892456657174,45.425473451955796,7.527407613613539,30.81553651056555,-52.26882948210207,-7.110366696178518,2.0482462520778086,-0.06584839020986669,-2.2020289483100433,,,,,,,,,,,,,,,,,auto,85.0,True,0,False,-10.0,15.0,0.0,-10.0,66.73865877123231,3.008085804766788
1760898828.1538758,10.9033784866333,-22.192944340586163,72.99733319965658,-8.971891049952294,49.457623681292034,24.43407113602641,6.829236046630136,0.16118314333188805,3.0558694298018163,-2.710582499599166,,,,,,,,,,,0.7,-0.3,0.3,0.2,-22.747032755730288,50.97781167863201,7.894700836088211,88.08616379481278,-64.2413899706213,-5.084782380109905,2.737112969066521,-2.3222364243300686,-2.8494008269550597,,,,,,,,,,,,,,,,,auto,85.0,True,0,False,-10.0,15.0,0.0,-10.0,65.90748124012434,4.582974415002731
1760898828.263798,11.013300657272339,-17.054873696045206,77.71425245983646,-8.498003253133383,39.38856096175991,48.92005023197905,-9.36624027013152,-0.6954154389141401,1.2642070153631957,-1.5362230363866232,,,,,,,,,,,0.7,-0.3,-0.3,0.2,-16.620610549869525,56.234046807843555,7.184118119424032,40.61431219740025,-36.35792052662029,-34.77979462962459,1.7461404449915208,3.075950242178669,-1.7392962464335116,,,,,,,,,,,,,,,,,auto,85.0,True,0,False,-10.0,15.0,0.0,-10.0,66.76394945983631,3.9415260723293333
1760898828.3718371,11.121339797973633,-13.981532095589596,82.59527074501061,-8.58757582720699,23.875903150378477,25.405096614978184,17.441498052269225,2.8322902096327756,-1.4543031575397578,0.9615629723118235,,,,,,,,,,,0.7,0.3,0.3,-0.2,-12.145898202058362,61.30936150133365,6.876780748353938,53.350469868683525,-16.288875770123187,-34.60724809067345,-1.9559912901542216,-2.5049353945823873,0.7510439772806795,,,,,,,,,,,,,,,,,auto,85.0,True,0,False,-10.0,15.0,0.0,-10.0,69.1416178963563,3.2656806815731967
1760898828.4796875,11.229190111160278,-11.260314141584626,84.4746561603181,-7.912573844282141,14.733266417345853,31.717198425273004,8.95787501022237,-0.17278518464712275,-0.5256727491796539,2.5386724251422668,,,,,,,,,,,0.7,0.28442794214500866,0.3,-0.2,-7.364230249623753,60.67427908061537,6.317746095586338,31.048179157729276,11.313598905330945,-52.53204920961997,0.19323984678975395,-2.778966073635131,2.519311250315925,,,,,,,,,,,,,,,,,auto,85.0,True,0,False,-10.0,15.0,0.0,-10.0,66.69179690374678,3.7559184299942903
1760898828.5901124,11.339615106582642,-8.852285970208639,88.11622639584299,-8.277814880139218,35.965973264325584,48.57186684845928,-12.792853631591747,-2.755226373410271,1.1899707582025143,2.518442614518707,,,,,,,,,,,0.7,0.25206509256837384,0.3,-0.2,-7.439037014132496,65.39722781900382,5.324994826812962,-0.5642438933632041,-39.100321937864955,-45.852202238647685,-0.5567055686752278,-2.6979455068596665,2.6413375136823443,,,,,,,,,,,,,,,,,auto,85.0,True,0,False,-10.0,15.0,0.0,-10.0,70.81781735533889,3.8164767665169794
1760898828.696503,11.446005582809448,-8.300965810171913,90.70508166946928,-10.292205109667076,-16.420373819182736,17.864998466016146,-37.5650376473953,2.262391221121846,1.9339810274331388,0.9276299650948365,,,,,,,,,,,0.7,0.3,-0.3,-0.2,-8.233745215297754,57.31954056353077,7.31311262415009,-10.216740706010523,-96.93785293198239,-24.853365351320413,-2.3193036048129825,1.1854670833462975,1.2109189454103142,,,,,,,,,,,,,,,,,auto,85.0,True,0,False,-10.0,15.0,0.0,-10.0,64.22678970554364,2.8724251268483396
1760898828.8054552,11.554957866668701,-10.671785969523903,93.39933387813423,-12.651255494551272,-11.11515651155771,26.643802037974645,3.4239803483691746,3.1245788549536946,-1.8488839916089732,-1.6126648417540246,,,,,,,,,,,0.42999999999999994,0.3,0.3,0.2,-5.46343096676153,47.01877242728161,9.82616420056982,45.264876749026406,-103.17269232635013,-44.877482081753996,-1.6152301367285624,-0.7050482581839235,-1.398326284473909,,,,,,,,,,,,,,,,,auto,85.0,True,0,False,-10.0,15.0,0.0,-10.0,54.9781206882144,2.2497506170273547
1760898828.915544,11.665046691894531,-14.026326639385365,96.55423345609604,-12.904589051166969,-47.581909270558974,35.38708385363352,13.71180938015169,-2.762555743442286,-0.7963001199382456,-2.7510812487243497,,,,,,,,,,,0.42999999999999994,0.3,-0.3,0.2,-0.7530088088654523,35.54744570640277,11.360359809863406,45.97911735287281,-120.89203225885917,-20.60468850578039,-1.9859081702565236,0.9118721221049895,-2.6743284835354597,,,,,,,,,,,,,,,,,auto,85.0,True,0,False,-10.0,15.0,0.0,-10.0,44.36263240598638,3.453603171415752
1760898829.0239644,11.773467063903809,-18.277389138512813,102.4694633915675,-12.12359412542307,-36.177077817976766,49.231190518117636,10.70964707565274,-0.863685980386316,2.972989741570806,-2.215426264423948,,,,,,,,,,,0.42999999999999994,-0.3,0.3,0.2,-5.47061824678707,54.50433050481208,10.570465202773555,24.970198432707313,-49.11831340064123,-21.778262486013546,0.7487210211202949,-1.5495406435453074,-2.3827297651987784,,,,,,,,,,,,,,,,,auto,85.0,True,0,False,-10.0,15.0,0.0,-10.0,61.74878374382769,2.9392278760637884
1760898829.1336486,11.883151292800903,-21.73486030673642,107.02064900748502,-10.345564188661745,-27.311471954968496,18.659644531401046,20.495945009865714,1.8284465098846112,0.28058861389295847,-0.14386482237297418,,,,,,,,,,,0.42999999999999994,0.3,-0.04355968645835637,0.2,-4.356882194434007,48.12347820531074,10.22424525720214,4.467918386859397,-75.7898816477444,-28.091677556699437,-0.8809506810703768,-0.2623826156060337,-0.5306979503031116,,,,,,,,,,,,,,,,,auto,85.0,True,0,False,-10.0,15.0,0.0,-10.0,55.673855076594776,1.0613948623893692
1760898829.241201,11.990703582763672,-25.6529600126448,106.73805087047657,-9.031840216234006,-30.13877175240104,-13.7810714593011,10.204580724357356,1.5923592424472983,-2.379153909945052,2.1491741486255713,,,,,,,,,,,0.7,0.15327488010421733,-0.3,-0.2,-4.282510732137829,39.23790238179898,7.824292577469297,15.3405846770669,-57.26929223880149,-34.5589652728718,-0.4879994397723126,1.4141613552478964,2.0409128990826093,,,,,,,,,,,,,,,,,auto,85.0,True,0,False,-10.0,15.0,0.0,-10.0,47.213701500155906,2.530478463361512
1760898829.3509169,12.100419521331787,-28.385855272512273,109.20959929935468,-7.754969984334681,-22.334405030463092,33.207574119686655,4.203158967955471,-0.5221084940556019,-2.033655343158336,2.878372769015796,,,,,,,,,,,0.7,-0.3,0.3,-0.2,-13.855952494655009,65.48335991202808,7.5785389950910815,-42.30417371903139,25.595791383694014,0.9030429903157935,1.561520591882313,-2.5482972262606998,2.8681309356596554,,,,,,,,,,,,,,,,,auto,85.0,True,0,False,-10.0,15.0,0.0,-10.0,73.68677936335615,4.142262712133116
1760898829.4580033,12.207505941390991,-30.482268233795697,111.68269201276212,-7.046489283511159,-30.354673860256852,8.75520347016067,-3.0733222119139203,-1.5417252513174047,-1.7916185745020412,2.0505831670923906,,,,,,,,,,,0.7,-0.3,0.3,-0.2,-22.592375027064097,84.8017419741604,7.5166973500708725,-53.2225728937162,67.06747714407858,7.128271145529404,1.0592942233883627,-1.0802147796151886,2.1914220443093013,,,,,,,,,,,,,,,,,auto,85.0,True,0,False,-10.0,15.0,0.0,-10.0,94.39998298771822,2.662949266900855
