timestamp,simulation_time,position_x,position_y,position_z,velocity_x,velocity_y,velocity_z,attitude_roll,attitude_pitch,attitude_yaw,angular_velocity_x,angular_velocity_y,angular_velocity_z,acceleration_x,acceleration_y,acceleration_z,motor_speed_1,motor_speed_2,motor_speed_3,motor_speed_4,control_throttle,control_roll,control_pitch,control_yaw,estimated_position_x,estimated_position_y,estimated_position_z,estimated_velocity_x,estimated_velocity_y,estimated_velocity_z,estimated_attitude_roll,estimated_attitude_pitch,estimated_attitude_yaw,sensor_accel_x,sensor_accel_y,sensor_accel_z,sensor_gyro_x,sensor_gyro_y,sensor_gyro_z,sensor_gps_x,sensor_gps_y,sensor_gps_z,sensor_gps_vx,sensor_gps_vy,sensor_gps_vz,sensor_baro_altitude,sensor_mag_x,sensor_mag_y,sensor_mag_z,flight_mode,battery_level,gps_fix,waypoint_index,mission_complete,setpoint_altitude,setpoint_position_x,setpoint_position_y,setpoint_position_z,position_error,attitude_error
1760879985.6874554,0.10931611061096191,-9.125160760228592e-14,2.0261254278060836e-14,0.05794937000052979,-3.3552613947699975e-12,6.404748466624084e-13,1.0642288943449785,6.661220810726484e-07,4.534535695280905e-06,-2.664488148862888e-08,,,,,,,,,,,0.0,-0.010994937347083851,1.0,-0.10559640664261935,-3.57139427579576e-05,4.100784190529085e-05,-0.6680105744269148,-0.0014074529812028642,0.0007004686840680618,0.9524133306704661,0.0024947688587795384,0.0011537915981396768,0.06318422449455069,,,,,,,,,,,,,,,,,auto,85.0,True,0,False,-10.0,15.0,0.0,-10.0,17.665987038947122,0.06324398257295671
1760879985.795524,0.21738457679748535,-1.4348773456979444e-12,2.1142030943414972e-13,0.2306062840347191,-2.641049464282294e-11,3.2855713402920735e-12,2.1108375305745013,1.734161331352514e-06,1.8034189519053202e-05,-6.936643553925654e-08,,,,,,,,,,,0.0,0.00814962812310612,1.0,0.21827245721634828,-0.00012787557688513,0.0001443657115810577,0.1398686875185149,-0.0009616676754110895,0.0004368992763536856,2.0019244803877796,-0.0014808858683153213,0.00842675262985639,-0.10375492576151951,,,,,,,,,,,,,,,,,auto,85.0,True,0,False,-10.0,15.0,0.0,-10.0,18.105821530784475,0.10410709775331456
1760879985.9020774,0.32393813133239746,-7.1677554146337664e-12,7.822330035448575e-13,0.5089278843457387,-9.09800231753289e-11,7.866107142057765e-12,3.1070721138361703,2.8325434818973214e-06,4.0140411664011194e-05,-1.1330168314977972e-07,,,,,,,,,,,0.0,0.40474082906057696,1.0,0.09498104999378779,-1.245276529234751,1.0837015629813758,0.4059567673217003,0.008363684893257652,-0.024761955408180457,3.0278231633962163,0.003528166066094807,0.012717801782267005,-0.05994197584020275,,,,,,,,,,,,,,,,,auto,85.0,True,0,False,-10.0,15.0,0.0,-10.0,19.32271603145588,0.061377772080700575
1760879986.0108662,0.4327268600463867,-2.4358623528768964e-11,2.31162343376974e-12,0.9003155919368957,-2.417519967103221e-10,2.3872846452351704e-11,4.079841935990515,1.0393662268481334e-05,7.307194063767599e-05,-4.1574620810069275e-07,,,,,,,,,,,0.0,0.3136792372664847,1.0,-0.31646909509618937,-1.2444376328178601,1.080993784402424,0.844565094942857,0.006850654426311356,-0.024978551512742315,4.005877960642669,0.005430070486591567,0.017505646599838238,0.17391838374152357,,,,,,,,,,,,,,,,,auto,85.0,True,0,False,-10.0,15.0,0.0,-10.0,19.561566748777533,0.1748814956810229
1760879986.1206121,0.5424728393554688,-6.119514736710967e-11,6.712554779893427e-12,1.3993705443884166,-4.4517908684523565e-10,6.139638294544347e-11,5.004633763649716,2.4039188569683595e-05,0.00011678145942918517,-9.615663220676854e-07,,,,,,,,,,,0.0,0.12387398760417981,1.0,-0.06579931328173921,-0.012946224312343558,0.6382705189126744,1.263907304293162,0.012464739155246074,0.019855050476417186,4.947551591135281,0.007261865358534835,0.015796567448871552,0.04652725449889904,,,,,,,,,,,,,,,,,auto,85.0,True,0,False,-10.0,15.0,0.0,-10.0,18.779551415012985,0.049669423621153064
1760879986.228914,0.6507747173309326,-1.249642602059641e-10,1.6851999774230697e-11,1.987944046674623,-7.46249083088435e-10,1.3084953978451313e-10,5.853396625485404,4.075357109788456e-05,0.00016923081804097234,-1.630139538227757e-06,,,,,,,,,,,0.0,-0.021227777227197965,1.0,0.05402781394183157,-0.10457941454483807,0.23934044708807997,1.9392820564086932,0.010185628497373644,0.013742999889809177,5.773620160025667,0.005011345283237183,0.012169843161890355,-0.008992134493019645,,,,,,,,,,,,,,,,,auto,85.0,True,0,False,-10,15.0,0.0,-10.0,19.254922985106607,0.01593979757943578
1760879986.3372605,0.7591211795806885,-2.261007091486807e-10,3.6155138725542526e-11,2.66505188913036,-1.1462838779247405e-09,2.327225169022872e-10,6.633802232870566,5.84186781463119e-05,0.0002307327828886124,-2.3367401448593733e-06,,,,,,,,,,,0.0,0.22606114065499858,1.0,0.023745328139296425,0.370019560822588,0.7192544922131623,2.765328372413566,-0.020535985597493644,0.0026451336049438294,6.608117223533006,0.0028433259730116615,0.006509587332266636,-0.008003595797524354,,,,,,,,,,,,,,,,,auto,85.0,True,0,False,-10,15.0,0.0,-10.0,19.42954613805555,0.01070125111916165
1760879986.4451709,0.8670315742492676,-3.7846169248151613e-10,6.877926300119644e-11,3.4196664333132594,-1.6998698804477815e-09,3.787864157064569e-10,7.340301587783312,7.937724471666353e-05,0.00030129354865389283,-3.175077140363831e-06,,,,,,,,,,,0.0,0.2208031826662689,1.0,0.008477244067719266,0.36769580309696254,0.7194980062917758,3.389166388962079,-0.022111206883302783,0.0015568171878987034,7.320681502469661,-0.0016029459191378593,0.0026618771290726154,0.008478110740586603,,,,,,,,,,,,,,,,,auto,85.0,True,0,False,-10,15.0,0.0,-10.0,19.84670703373927,0.009029583999255476
1760879986.5541039,0.9759645462036133,-5.983723909083442e-10,1.19593336827682e-10,4.250823396017948,-2.398934912165896e-09,5.714201842862773e-10,7.978978896789472,0.00010456605982918366,0.0003817177612986707,-4.182621221422034e-06,,,,,,,,,,,0.0,0.4938686276972723,1.0,-0.006178246423157608,0.7181672450112452,1.3435288621754142,4.128089684719183,-0.011412596535252178,0.009201553511471509,7.944013066986486,-0.0027217908403365503,0.002965698196188204,0.0035028829401466586,,,,,,,,,,,,,,,,,auto,85.0,True,0,False,-10,15.0,0.0,-10.0,20.134019340023407,0.005336075342588822
1760879986.6618466,1.083707332611084,-9.06218335340002e-10,1.9518335104471115e-10,5.141584692914447,-3.31663441454918e-09,8.345047612060649e-10,8.544784711930374,0.00013547675180670276,0.0004718358125503688,-5.419036652570613e-06,,,,,,,,,,,0.0,0.40444143125580356,1.0,-0.002792231459570303,0.7169214312606585,1.3444760397259496,4.84043533971493,-0.012422446940366769,0.007390296130131299,8.517206734629998,-0.00031304978726774517,0.0051408375354806595,-0.004785654279765066,,,,,,,,,,,,,,,,,auto,85.0,True,0,False,-10,15.0,0.0,-10.0,20.64103849844862,0.007030554574210268
1760879986.767651,1.189511775970459,-1.3131502534740728e-09,3.001938403362141e-10,6.07679679007497,-4.298745767090798e-09,1.1321443847164032e-09,9.039061464683247,0.00017143114721259248,0.0005707002187210093,-6.8571952673029405e-06,,,,,,,,,,,0.0,0.10029589558817528,1.0,-0.12361803758425594,0.8060867035557295,0.5838696476519977,5.982539684263007,0.019283691367686918,0.033513202493160685,8.955068437702542,0.0007571973287275248,0.004271791075609778,0.04674669048610121,,,,,,,,,,,,,,,,,auto,85.0,True,0,False,-10,15.0,0.0,-10.0,21.383396671049915,0.04694757308095528
1760879986.8771183,1.2989790439605713,-1.8388184691135931e-09,4.415312148910622e-10,7.086444476464339,-5.394401948614867e-09,1.4773731387760756e-09,9.484068269342085,0.00020975962513526304,0.0006811539635157002,-8.390310485011986e-06,,,,,,,,,,,0.0,0.12262973691475103,1.0,-0.24699161477330828,0.17430771057283495,0.5537094018543551,7.021266586296351,0.017572395512704925,-0.02386817679216899,9.385390824937147,0.001752792788651315,0.0032548881838697216,0.12333110113242907,,,,,,,,,,,,,,,,,auto,85.0,True,0,False,-10,15.0,0.0,-10.0,22.579443353728863,0.12338649474795403
1760879986.9833894,1.405250072479248,-2.477105481322297e-09,6.192717205685202e-10,8.119959739742935,-6.587153656386624e-09,1.860883881355043e-09,9.864639720700785,0.00024895483557646014,0.0007983493425042095,-9.958088423558664e-06,,,,,,,,,,,0.0,0.06838983487223732,1.0,-0.035397736984935306,0.3870524129077201,0.2857703174491652,7.880739974310516,0.05406126129547828,-0.029020070306815377,9.814974952782707,-0.0037784301284072832,0.001187363595268787,0.003495043547040394,,,,,,,,,,,,,,,,,auto,85.0,True,0,False,-10,15.0,0.0,-10.0,23.094171643216544,0.005282205594099324
1760879987.0918598,1.5137205123901367,-3.2641612712261225e-09,8.445124315547385e-10,9.208623063400653,-7.955820262992928e-09,2.3018757328303963e-09,10.20024021329311,0.0002891984610607498,0.0009262819486787631,-1.1567794670777339e-05,,,,,,,,,,,0.0,0.08414162931484372,1.0,-0.08857904438339724,-0.24646833217780018,0.20516092870088462,8.806049248695427,0.03173559673178605,-0.055191724765376496,10.224674097788844,-0.010495558777461457,0.005455981295063274,0.038575611502363195,,,,,,,,,,,,,,,,,auto,85.0,True,0,False,-10,15.0,0.0,-10.0,24.21083178982341,0.040348510365619254
1760879987.2008932,1.6227538585662842,-4.219436588327681e-09,1.1237350369562563e-09,10.331753616600661,-9.676496384940101e-09,2.852767366886565e-09,10.489985797295374,0.0003329531357749927,0.0010636405974007229,-1.3317934024919768e-05,,,,,,,,,,,0.0,0.28148907083003183,1.0,-0.025890475513913238,-0.4137681387671948,0.7355916498707842,10.22528665651053,0.043582301593577615,-0.046405511203341354,10.515831166706853,-0.013044843500333551,0.003491101609916362,0.01339436255939647,,,,,,,,,,,,,,,,,auto,85.0,True,0,False,-10,15.0,0.0,-10.0,25.43988136075043,0.019020112533092888
1760879987.3078966,1.729757308959961,-5.35207615509822e-09,1.46022005492543e-09,11.467691589128211,-1.1469535640382693e-08,3.4298300420724163e-09,10.73570958693259,0.00038117844744671773,0.0012085560352580258,-1.5246889169793243e-05,,,,,,,,,,,0.0,0.17641448781046185,1.0,0.026235018178020562,0.6975271293490729,0.5743308225116923,11.18950527168868,-0.012397910539374054,-0.07641595830594633,10.761945482395879,-0.01020524782691219,0.002409336519950532,-0.014142135763543718,,,,,,,,,,,,,,,,,auto,85.0,True,0,False,-10,15.0,0.0,-10.0,25.571189252131294,0.01760545340596389
1760879987.4158893,1.83774995803833,-6.699022060691815e-09,1.865581329054278e-09,12.644384187244713,-1.3352808469547709e-08,4.041172204090804e-09,10.949275229913296,0.0004331826841667425,0.0013646399698161549,-1.7326988308233984e-05,,,,,,,,,,,0.0,0.05272894361045624,1.0,0.09200794683516852,0.1672706559916914,0.2596144836393542,12.693602145535264,-0.05526352673730531,-0.0423017536442705,10.985524859841732,-0.008110814683632131,-0.0005192615091893134,-0.04698205448648948,,,,,,,,,,,,,,,,,auto,85.0,True,0,False,-10,15.0,0.0,-10.0,27.11230048912418,0.047679853094557814
1760879987.522954,1.944814682006836,-8.235119263467999e-09,2.33291126914542e-09,13.826558091470789,-1.5383889536359895e-08,4.702232691652014e-09,11.129346687746038,0.0004859610341529558,0.0015274422466696274,-1.9438039631050895e-05,,,,,,,,,,,0.0,0.08427130029926166,1.0,-0.14341311335542073,0.16160547635118055,0.2547011208463397,13.663942757076732,-0.04989207158451974,-0.0501947286733035,11.167156802506428,-0.00873943556681073,-0.0067505190586249104,0.07844697903348158,,,,,,,,,,,,,,,,,auto,85.0,True,0,False,-10,15.0,0.0,-10.0,27.9325081492983,0.07922042515075763
1760879987.6309326,2.052793264389038,-1.0014615626719693e-08,2.8791518070797806e-09,15.036873460863434,-1.760747886374758e-08,5.425224046433786e-09,11.284184044715085,0.0005413499680012013,0.0017005378351320362,-2.1653498992331983e-05,,,,,,,,,,,0.0,0.08416771524958365,1.0,-0.025398537585660016,0.15669943878415707,0.248886268696909,15.050301720880263,-0.04078789024281054,-0.05680722709180869,11.324673589812878,-0.006625239896899953,-0.0018684692409619806,0.018809946712269973,,,,,,,,,,,,,,,,,auto,85.0,True,0,False,-10,15.0,0.0,-10.0,29.118776283224424,0.02002995447609235
1760879987.7376912,2.1595518589019775,-1.2023482421396525e-08,3.5001253186137324e-09,16.248697258693614,-2.0062270602782544e-08,6.218022788947782e-09,11.41444082396344,0.0005951952445511867,0.0018805285295843458,-2.3807197727206784e-05,,,,,,,,,,,0.0,-0.16005546906159795,1.0,0.02784004866309412,-0.9562671228664092,-0.46661683331934484,16.168690848302635,-0.024968907971663717,-0.09416982244175255,11.415026093115834,-0.006373364535245185,-0.0001783841044159368,-0.011490284313334181,,,,,,,,,,,,,,,,,auto,85.0,True,0,False,-10,15.0,0.0,-10.0,30.653231028383328,0.01314070888457251
1760879987.8458421,2.26770281791687,-1.4330874034073114e-08,4.216471152433914e-09,17.489406435162632,-2.2655913788694678e-08,7.041312233018018e-09,11.526496555053315,0.0006472862042446079,0.002071830938267159,-2.5890706508002578e-05,,,,,,,,,,,0.0,-0.08692612098974331,1.0,-0.04109450273980466,-0.6066917826398539,-0.26469887419558635,17.412694923607397,-0.02454784126470488,-0.0730023105970708,11.563447097418187,0.0010294784458941626,0.0034124886814356084,0.009996414448668112,,,,,,,,,,,,,,,,,auto,85.0,True,0,False,-10,15.0,0.0,-10.0,31.545122235729085,0.01061287928420122
1760879987.9528065,2.374667167663574,-1.6900407253756337e-08,5.015073345546992e-09,18.727493060433368,-2.5448205574367754e-08,7.90546316206099e-09,11.620439054018888,0.0006982068124315603,0.002269862964888721,-2.7927386756344356e-05,,,,,,,,,,,0.0,-0.06626025603460485,1.0,0.17634330199068893,-1.501488238571006,-0.21392353081530452,18.720084993874853,-0.011399680215994506,-0.018759898444178153,11.673712073158013,-0.001152756516715721,-0.000573114138194451,-0.09749153162584352,,,,,,,,,,,,,,,,,auto,85.0,True,0,False,-10,15.0,0.0,-10.0,33.12383068759,0.09750003100591854
1760879988.0608175,2.482678174972534,-1.9817733225006213e-08,5.919942542915356e-09,19.987087082256522,-2.870509615508947e-08,8.885680602326596e-09,11.700752067493806,0.0007491281932750601,0.0024789379950856654,-2.99640799366531e-05,,,,,,,,,,,0.0,0.22100927341201296,1.0,-0.16229753572885153,-1.5745212167577676,0.5560453446459636,19.620147028310264,-0.03876336143320502,-0.052886036849119106,11.759040222156797,0.0018996943862906652,0.0006992201468205178,0.07837067813063237,,,,,,,,,,,,,,,,,auto,85.0,True,0,False,-10,15.0,0.0,-10.0,33.94667951315376,0.07839681714349252
1760879988.1693656,2.59122633934021,-2.3103647911225752e-08,6.934462834372096e-09,21.260986802329516,-3.190776967096424e-08,9.823959024683851e-09,11.7689222375196,0.0008037523511989512,0.002698384688721603,-3.214886520013631e-05,,,,,,,,,,,0.0,-0.02490875277902133,1.0,0.2677157641778573,-1.6675607511811954,0.13593682317523192,21.21751610668447,-0.037594203373601635,-0.024948783320770822,11.802207717013111,0.004336871749477192,-0.0070638192817300246,-0.15163301192961037,,,,,,,,,,,,,,,,,auto,85.0,True,0,False,-10,15.0,0.0,-10.0,35.38868988936035,0.1518593965030209
1760879988.2776096,2.699470281600952,-2.6739503566451848e-08,8.050142056808202e-09,22.538093133033783,-3.531881071235485e-08,1.0800146280365958e-08,11.826269560219131,0.0008586253207948191,0.0029262860909194366,-3.4343583875676126e-05,,,,,,,,,,,0.0,0.03627993974197817,1.0,0.08047954254655948,-1.67097201577027,0.1333972848106991,22.282749025211224,-0.024215625412572574,-0.022682940354516744,11.859716700466608,-0.0016041754264911902,-0.013094444474098675,-0.04079807286362115,,,,,,,,,,,,,,,,,auto,85.0,True,0,False,-10,15.0,0.0,-10.0,36.33338667687017,0.04287797341607404
1760879988.3854702,2.807330846786499,-3.074139053002567e-08,9.269033629247973e-09,23.81635409906625,-3.898841036981314e-08,1.1826414135898051e-08,11.874462416604693,0.0009141238658078759,0.0031623953118607314,-3.656330582650297e-05,,,,,,,,,,,0.0,0.24109245785120176,1.0,-0.03244591236634388,-0.9094177904121608,0.6201172329128659,23.822504831817884,-0.030271400521821586,-0.04372624217940141,11.937978168511263,-0.001021602314646178,-0.007941341209037804,0.012689042229848596,,,,,,,,,,,,,,,,,auto,85.0,True,0,False,-10,15.0,0.0,-10.0,37.38256215016277,0.015004011603519024
1760879988.4918325,2.9136931896209717,-3.508823811351883e-08,1.058186135355433e-08,25.08154278049545,-4.2125556632703635e-08,1.267770476826447e-08,11.914572581612791,0.0009712181056720402,0.0034040722615519318,-3.884624508387514e-05,,,,,,,,,,,0.5,0.02383172159362542,0.023846392466866637,-0.0008040562477422864,-0.07871324360185811,0.5599676291815533,24.905405552971665,0.006525664470860729,-0.027881498880115194,11.929753446486478,-0.0049718868237640735,-0.004974495848396493,-0.0003021947344430207,,,,,,,,,,,,,,,,,manual,85.0,True,0,False,-10,15.0,0.0,-10.0,38.02720728170727,0.007039644109723008
1760879988.599659,3.021519660949707,-3.964975120353384e-08,1.1951134420720757e-08,26.36815134759258,-4.249854461761706e-08,1.2722907764740662e-08,11.948875813645456,0.0010289005507812456,0.0036522328978380843,-4.1120287047794354e-05,,,,,,,,,,,0.5,0.047297830955238346,0.03312663122044984,0.033892594663053485,0.19814997892411526,0.9895330077696507,26.403594336776905,0.009249222927003777,-0.07737115125083359,11.955632928735117,-0.011530782758793184,-0.008311749863801569,-0.02174443727717338,,,,,,,,,,,,,,,,,manual,85.0,True,0,False,-10,15.0,0.0,-10.0,39.31024828535818,0.02597815792795584
1760879988.7078507,3.129711389541626,-4.428548322515077e-08,1.333464055797245e-08,27.662533575734738,-4.3300451439625974e-08,1.2880086217743952e-08,11.97785454395963,0.0010875965168272556,0.003901863077055182,-4.34289246547596e-05,,,,,,,,,,,0.5,0.06007469346954311,0.03955455151009691,0.1328964094925102,0.7054066365120178,0.530387467237317,27.51050520269906,0.03882804503776453,-0.08324084836091844,11.985506316993174,-0.016158659319436622,-0.01111103021523992,-0.04993587172636249,,,,,,,,,,,,,,,,,manual,85.0,True,0,False,-10,15.0,0.0,-10.0,40.14541955011295,0.05364837880604892
1760879988.8158498,3.237710475921631,-4.897984252860208e-08,1.4726442356753991e-08,28.95135085540923,-4.404779590819594e-08,1.301640087970269e-08,12.002089852041331,0.0011469030884699598,0.004150509742630608,-4.573422922434006e-05,,,,,,,,,,,0.5,0.05427463454411622,0.03622114612940847,0.06402274103840248,0.08874794336686877,0.2304851248734246,28.939498999089086,0.08872896100682734,-0.08983898227300757,11.967628539757802,-0.016730858836978224,-0.0110562249293805,-0.02875052878252602,,,,,,,,,,,,,,,,,manual,85.0,True,0,False,-10,15.0,0.0,-10.0,41.69751963353807,0.03505359685377243
1760879988.9237576,3.34561824798584,-5.383744111822333e-08,1.6155881141703895e-08,30.247663656172513,-4.585378004553187e-08,1.3440294333341946e-08,12.022569049429938,0.0012074518678328982,0.004400606833652595,-4.8019792633080755e-05,,,,,,,,,,,0.5,0.04925154161731039,0.02005142236432006,0.25104053568428586,0.4178303195898519,0.39545142783658294,29.91524565614303,0.10456122718246544,-0.06477109161289174,11.962855319095416,-0.01681356067542562,-0.007741412716553322,-0.12425607778441945,,,,,,,,,,,,,,,,,manual,85.0,True,0,False,-10,15.0,0.0,-10.0,42.497328036128295,0.1256272190243895
1760879989.0294702,3.4513309001922607,-5.8782809375546655e-08,1.7600116282486374e-08,31.525613997198075,-4.714723799910764e-08,1.3721360339721397e-08,12.039547429305408,0.0012680019442391042,0.004647104342988169,-5.023541101779639e-05,,,,,,,,,,,0.5,0.06687244693896954,0.024079313843710252,-0.06287786851646751,0.5347091831218708,0.6305695628886772,31.292707850923886,0.07401273043545872,-0.07591545958712365,11.973219710202041,-0.020563442138785262,-0.008438279483597138,0.015218496549493553,,,,,,,,,,,,,,,,,manual,85.0,True,0,False,-10,15.0,0.0,-10.0,43.75762765566995,0.026938120767147307
1760879989.1367733,3.558634042739868,-6.391574018339305e-08,1.9088666195739496e-08,32.81829283873569,-4.853912215509568e-08,1.4027388304790704e-08,12.0539982106774,0.0013303785950694786,0.004896627675939409,-5.2482906148205384e-05,,,,,,,,,,,0.5,0.0649446575351615,0.05125279713450584,-0.13312631339253325,0.5435098525721367,0.6210783488497716,32.892959894853966,0.08954960987623535,-0.10250422741530411,11.9878562439501,-0.021473698886770066,-0.013979461932017262,0.05683081562328705,,,,,,,,,,,,,,,,,manual,85.0,True,0,False,-10,15.0,0.0,-10.0,45.26788988057252,0.062340089061505496
1760879989.2439983,3.6658589839935303,-6.918263877280373e-08,2.0605439848262514e-08,34.105356474395904,-5.015186134246881e-08,1.439430213889958e-08,12.066099343317289,0.001393663337174157,0.005145662496456251,-5.476146268365374e-05,,,,,,,,,,,0.5,0.058809684743687744,0.0351522850799562,0.08354125091605212,0.5137982103013191,1.648569344452092,34.20147112276676,-0.0006132232344492547,-0.12882645878975602,11.996576201602327,-0.019891480912918195,-0.012299423825465445,-0.028009969344428426,,,,,,,,,,,,,,,,,manual,85.0,True,0,False,-10,15.0,0.0,-10.0,46.54393486365458,0.03648979613567656
1760879989.3510976,3.772958278656006,-7.46756694142514e-08,2.2176733317053553e-08,35.40429156623341,-5.189078359227168e-08,1.4796419966504225e-08,12.07636882737623,0.0014586039859910422,0.0053975358965315315,-5.708804979289229e-05,,,,,,,,,,,0.5,0.0738248076822281,0.01777537481808058,0.07104723579020314,0.5146466493550274,1.6335250899613551,35.379074868230475,0.015821278360782502,-0.15238837275066125,12.00853057815208,-0.023178151436490727,-0.007968818506876672,-0.027709517485703,,,,,,,,,,,,,,,,,manual,85.0,True,0,False,-10,15.0,0.0,-10.0,47.662923764799004,0.03699386613614367
1760879989.458585,3.880445718765259,-8.035006805619282e-08,2.3789795159686225e-08,36.70282656875197,-5.4022684499839984e-08,1.5307437553597173e-08,12.084995988292741,0.0015246558819252318,0.005649500103389825,-5.939629283262755e-05,,,,,,,,,,,0.5,0.07179996591176022,0.035163414427891004,0.26448328946435884,0.2887843607967189,1.1170541807762502,36.58429409167494,-0.005556706103470997,-0.12288673430907245,11.97679319134609,-0.02289526632290837,-0.011113537237695266,-0.1446970375181569,,,,,,,,,,,,,,,,,manual,85.0,True,0,False,-10,15.0,0.0,-10.0,48.86475346960823,0.14691812888973727
1760879989.5660694,3.9879300594329834,-8.628103770001822e-08,2.54653762823279e-08,38.00217554708696,-5.645400057122966e-08,1.5902985274171084e-08,12.092250983000756,0.0015919232221725426,0.00590182233330327,-6.16514662256992e-05,,,,,,,,,,,0.5,0.08392321770097286,0.025354461320388738,-0.02868755269909059,0.47886847906472146,-0.27777231755601395,37.88521146537068,0.008927944018311332,-0.11239837205646172,12.021829602867053,-0.026475958724368514,-0.00905087315507847,0.016780927450343153,,,,,,,,,,,,,,,,,manual,85.0,True,0,False,-10,15.0,0.0,-10.0,50.039323488552164,0.032626587644702686
1760879989.6743345,4.096195220947266,-9.25067229866671e-08,2.7214709338532013e-08,39.31168716566412,-5.849079028581805e-08,1.6396565303405175e-08,12.098392280521256,0.001661164288488086,0.006156550809835825,-6.395073858406824e-05,,,,,,,,,,,0.5,0.0783820358536457,0.023084968100852046,0.15965739536575535,0.21008161389415803,1.1220930266876885,39.256365967155716,0.00265475128714209,-0.09785382026394114,12.01258678323953,-0.025543506030504738,-0.008083855037268182,-0.07904701008375571,,,,,,,,,,,,,,,,,manual,85.0,True,0,False,-10,15.0,0.0,-10.0,51.441134969191616,0.08346405942545196
1760879989.7815137,4.20337438583374,-9.889017730196979e-08,2.9000252036871396e-08,40.60866446774163,-6.056605894053208e-08,1.690696165615353e-08,12.1035021028845,0.0017310182004570554,0.006408943678109771,-6.620095530305911e-05,,,,,,,,,,,0.5,0.07087635530804066,0.023902300348192948,-0.06528132590750681,0.07744259980214453,0.6374055815946706,40.44018177335497,0.010309876938192547,-0.1139503298787886,12.0590350169341,-0.024013660234790908,-0.0077017752262373874,0.019162893783399026,,,,,,,,,,,,,,,,,manual,85.0,True,0,False,-10,15.0,0.0,-10.0,52.60514178829612,0.03167317031276305
1760879989.889979,4.311839580535889,-1.0556908245820249e-07,3.0860973170807584e-08,41.91559872384961,-6.305701327915433e-08,1.753612288713587e-08,12.107828943622875,0.0018027086449111881,0.0066636027764944055,-6.848182100163244e-05,,,,,,,,,,,0.5,0.06298523346028763,0.03907066184699442,0.00021608989763659096,0.44064933091688335,0.09323283091946191,41.93363456919643,-0.0030591607809759124,-0.11591555658642316,12.088208704041513,-0.022056785412965928,-0.010783854270647287,-0.008548273717842225,,,,,,,,,,,,,,,,,manual,85.0,True,0,False,-10,15.0,0.0,-10.0,53.93594148462532,0.025997428319726866
1760879989.9973366,4.41919732093811,-1.124748230117653e-07,3.2778359358995085e-08,43.21524312377157,-6.552794552148207e-08,1.8167579056104808e-08,12.111444095039896,0.0018749882889040922,0.006917286728728881,-7.0745202074602e-05,,,,,,,,,,,0.5,0.05071561799939236,0.031968573810275534,-0.07654236355385366,0.4413420316503942,0.0795690604879,43.25230023065476,0.015623948413060394,-0.13730097849607598,12.091518099913975,-0.017821669869170546,-0.01019274609453759,0.039412388472766596,,,,,,,,,,,,,,,,,manual,85.0,True,0,False,-10,15.0,0.0,-10.0,55.206596824388384,0.04443917590371899
1760879990.10545,4.527310609817505,-1.1972301326665274e-07,3.478535971172161e-08,44.53136636971091,-6.77723701733466e-08,1.8744781697300124e-08,12.11451852595198,0.0019491285488819094,0.007174770922560014,-7.306628189393026e-05,,,,,,,,,,,0.5,0.07255028254614201,0.021906083606346653,-0.05607280430135879,0.4439955520245406,0.06333740413378659,44.683403563996556,0.03334146033141037,-0.16183312431134372,12.093555386088982,-0.02226945830939149,-0.008110405022188495,0.03378774679209574,,,,,,,,,,,,,,,,,manual,85.0,True,0,False,-10,15.0,0.0,-10.0,56.58759495206662,0.04127128876476286
1760879990.2136657,4.635526418685913,-1.2715974187213566e-07,3.6840192904172486e-08,45.83635868372951,-7.038879393662762e-08,1.94314306362316e-08,12.117077523886653,0.002023926061401175,0.007430398043139987,-7.535497939563539e-05,,,,,,,,,,,0.5,0.08258956241203982,0.023536609437854242,0.13671817999851482,0.913700371733408,-1.4067608255360058,45.7536036189418,0.06179160052626112,-0.13125378720729403,12.088259426556377,-0.025540853271481007,-0.008066400407867767,-0.08021686820434712,,,,,,,,,,,,,,,,,manual,85.0,True,0,False,-10,15.0,0.0,-10.0,57.522753148086075,0.08457037274299414
1760879990.3205118,4.742372512817383,-1.3486198860488694e-07,3.896492698710211e-08,47.13727269415999,-7.312208534830552e-08,2.0158796499923845e-08,12.119221267122533,0.0020998983831861584,0.00768548160488044,-7.762687573947132e-05,,,,,,,,,,,0.5,0.07908239097991225,-0.00827130531253674,0.14344543728396303,2.1567854604795818,-1.5986701599340978,47.27934977337428,0.05619953230645833,-0.08243879434364884,12.131822020261419,-0.02543154948564857,-0.0008459355900197828,-0.0650693581526578,,,,,,,,,,,,,,,,,manual,85.0,True,0,False,-10,15.0,0.0,-10.0,58.72331578214027,0.0698677370941861
1760879990.4299357,4.851796388626099,-1.433608834774273e-07,4.130635966267469e-08,48.46350811904826,-8.883481305358268e-08,2.4452875191937802e-08,12.121053803998285,0.002179117738022996,0.007945690709092686,-7.998125637053853e-05,,,,,,,,,,,1.0,0.1048078082217117,0.015399315652618421,-0.181498584071927,0.7314638801157594,-1.1934815481626488,48.209704320898894,0.07374630045145958,-0.03414416386382356,12.167591514148945,-0.02428496767730352,-0.00354149738844716,0.10866001928806028,,,,,,,,,,,,,,,,,altitude_hold,85.0,True,0,False,-10,15.0,0.0,-10.0,59.94485130798742,0.1113970450708711
1760879990.535947,4.957807779312134,-1.5421951718877115e-07,4.4294412023633475e-08,49.74855913089269,-1.1583829250617537e-07,3.187647054808438e-08,12.122543962918389,0.0022592104787273015,0.008198346410866185,-8.233291063008021e-05,,,,,,,,,,,1.0,0.07859809332551457,-0.00031282724114080644,0.09600071513130606,-0.0024773873430478334,-0.025998393287903807,49.95357149817262,0.03425361042371626,-0.05050816540475869,12.167901792635643,-0.023367545252882455,-0.000521841777852721,-0.05438120673630738,,,,,,,,,,,,,,,,,altitude_hold,85.0,True,0,False,-10,15.0,0.0,-10.0,61.802149955003095,0.05919147012943355
1760879990.641545,5.063405752182007,-1.6777297722631384e-07,4.802587399186502e-08,51.02874313526448,-1.4050282840883584e-07,3.870673409380323e-08,12.123795098300645,0.0023417087769805785,0.008449632361172124,-8.454291699501034e-05,,,,,,,,,,,1.0,0.059729232384204446,-0.0028464658779634115,-0.04019172577575357,-0.035628400216719355,0.0445974435328567,51.13544820789833,0.01643722538773146,-0.07472410534463489,12.132890722436578,-0.02022930830678367,0.0006098817191773657,0.013549534816069318,,,,,,,,,,,,,,,,,altitude_hold,85.0,True,0,False,-10,15.0,0.0,-10.0,62.95724849373575,0.024355425761299433
1760879990.7483091,5.170169830322266,-1.8411756773070353e-07,5.2533190081571e-08,52.32318744827753,-1.655236908697139e-07,4.569544467861832e-08,12.124860449140325,0.002427078280579757,0.008703761958615044,-8.672329962316737e-05,,,,,,,,,,,1.0,0.04872912488311661,0.014255398055970316,-0.10909770213386594,-0.1655750323119118,-0.3881876431540081,52.07832766537283,0.027516239692832838,-0.09571980838787104,12.159777375318805,-0.017411671743439373,-0.003722636975521817,0.027549005756413156,,,,,,,,,,,,,,,,,altitude_hold,85.0,True,0,False,-10,15.0,0.0,-10.0,63.905118116128804,0.032802013004077854
1760879990.8541772,5.276037931442261,-2.028410225968468e-07,5.770880815282283e-08,53.606871839192394,-1.8805331756555226e-07,5.205179907444741e-08,12.125750159299937,0.0025133324574996363,0.008956017139385939,-8.88465493170265e-05,,,,,,,,,,,1.0,0.04961637339086416,-0.02141977519383159,-0.07604213148185326,0.9156328722071767,-0.2012280601985302,53.38589872742716,-0.0030207327244419096,-0.0697668973091146,12.13716884640766,-0.01683505074931094,0.0040250024445315944,0.028579140675085796,,,,,,,,,,,,,,,,,altitude_hold,85.0,True,0,False,-10,15.0,0.0,-10.0,64.93213416796274,0.03341237585291868
1760879990.9616575,5.383518218994141,-2.2428265918888965e-07,6.365321804065622e-08,54.91019298479899,-2.1069738192260838e-07,5.850709938752611e-08,12.126510293984172,0.0026026271307373994,0.009211585334460778,-9.098112154720962e-05,,,,,,,,,,,1.0,0.06585125378003844,-0.01237307520435566,0.12781693659205204,0.9155635298255715,-0.20994802378343677,54.87168159176258,0.002264376829102299,-0.09274239392243395,12.13864765306615,-0.020232015140456937,0.003413608555589353,-0.07465203177969022,,,,,,,,,,,,,,,,,altitude_hold,85.0,True,0,False,-10,15.0,0.0,-10.0,66.38336012434215,0.07742036559491533
1760879991.069628,5.491488695144653,-2.4818747610025276e-07,7.03031404823369e-08,56.219533720161046,-2.3220066438667496e-07,6.471278364262968e-08,12.127151882482528,0.0026943097467882174,0.009467657382992472,-9.309851120196099e-05,,,,,,,,,,,1.0,0.0638222124881266,-0.019407773523938295,-0.2315294441148495,-0.6060233672540518,-0.7219168501412757,56.21430401434376,-0.009551443188542584,-0.04986822194385353,12.119405397674969,-0.019786666252199728,0.005572172407768666,0.11124238377226224,,,,,,,,,,,,,,,,,altitude_hold,85.0,True,0,False,-10,15.0,0.0,-10.0,68.03236865920323,0.11312572304322795
1760879991.1776726,5.599533319473267,-2.7426355693043515e-07,7.758487291689466e-08,57.52361193687673,-2.5317173548539766e-07,7.084295502262315e-08,12.127688657950703,0.002787566488407176,0.0097221490619335,-9.526621714295189e-05,,,,,,,,,,,1.0,0.06013568224299109,-0.034683194099476275,0.3474402303277423,-0.48132100282697327,-0.13370096435902004,57.492694331258676,-0.0412691192424422,-0.04501361407857394,12.117835752203286,-0.01950752439915702,0.008948887476318553,-0.1741901394585373,,,,,,,,,,,,,,,,,altitude_hold,85.0,True,0,False,-10,15.0,0.0,-10.0,69.24559887843529,0.17550735249507982
1760879991.2849653,5.7068259716033936,-3.026595656953279e-07,8.554825329479446e-08,58.83107422471663,-2.734671149723126e-07,7.68606162546895e-08,12.128140823367875,0.002883396397287341,0.009976079772394229,-9.730379722329355e-05,,,,,,,,,,,1.0,0.06344349892163387,-0.025557393995267616,-0.10263416807172143,-0.22267045982325162,0.671388753333611,58.67494125132414,-0.08626846266911556,-0.058864927924786516,12.06033176031596,-0.020449269697816817,0.00822116387520639,0.026495972267687462,,,,,,,,,,,,,,,,,altitude_hold,85.0,True,0,False,-10,15.0,0.0,-10.0,70.34506389690253,0.03446442677670863
1760879991.3937285,5.815589189529419,-3.334760903554838e-07,9.423041250063188e-08,60.150191282654696,-2.931582903224259e-07,8.279357750545731e-08,12.128523749109588,0.0029823359805626923,0.01023115201451114,-9.931423525310751e-05,,,,,,,,,,,1.0,0.05606830081332111,-0.02265243962891791,-0.06884879962801832,-0.8710648143082939,1.2134646481512075,59.96526427789696,-0.06799747416392754,-0.07911682612038774,12.087294300912426,-0.01892938534553858,0.007880956533265128,0.026592027335611647,,,,,,,,,,,,,,,,,altitude_hold,85.0,True,0,False,-10,15.0,0.0,-10.0,71.75305847326824,0.03357926478136504
1760879991.5017262,5.923586845397949,-3.6619041233161645e-07,1.0349362068984638e-07,61.46006114658209,-3.1232343700797403e-07,8.86638239543615e-08,12.128842828995312,0.0030827868938584245,0.010483511271274558,-0.00010135609766200409,,,,,,,,,,,1.0,0.07015849449862832,-0.026000283953899396,0.12724729123870307,-0.3045189466803967,0.6616145358776451,61.58553156867429,-0.03292629740529442,-0.04483294992714619,12.072891107304779,-0.022439911395918187,0.008786816786223136,-0.06771090665634442,,,,,,,,,,,,,,,,,altitude_hold,85.0,True,0,False,-10,15.0,0.0,-10.0,73.2062453889902,0.07187158446086672
1760879991.6085136,6.03037428855896,-4.005116510799409e-07,1.1326339162556074e-07,62.75528382967495,-3.305033661271087e-07,9.433760496726414e-08,12.129108046042015,0.003184637260993917,0.010732195164704075,-0.0001033447678315539,,,,,,,,,,,1.0,0.06129912898535778,-0.022981855915440386,0.11815016528226199,-0.30776925750936884,0.6554403263766816,62.556050891987596,-0.02861320058343875,-0.0714231068279324,12.072569960270656,-0.020930941756120206,0.007698919901437236,-0.06478595452433912,,,,,,,,,,,,,,,,,altitude_hold,85.0,True,0,False,-10,15.0,0.0,-10.0,74.15617251923999,0.06851713358041607
1760879991.715645,6.137505769729614,-4.369029929398723e-07,1.2368135912489558e-07,64.05470547192841,-3.486915087465134e-07,1.001142280225189e-07,12.129331818854187,0.003288937654616781,0.010980874072826368,-0.00010537720805015002,,,,,,,,,,,1.0,0.05593007007922577,-0.0230626999114261,-0.09158782318353678,-0.4917675175271157,0.3166173480159574,63.814718527475144,-0.0703411383862645,-0.06707071002516296,12.062025158544916,-0.019252150139811075,0.007902299337528553,0.04957128391859397,,,,,,,,,,,,,,,,,altitude_hold,85.0,True,0,False,-10,15.0,0.0,-10.0,75.4235227144195,0.05376247584666823
1760879991.824189,6.246049642562866,-4.757064104686974e-07,1.3485702689131211e-07,65.37128076251018,-3.6616620513650735e-07,1.0578607989189413e-07,12.129522304612676,0.0033967602414152983,0.01123166549513746,-0.00010743932474550554,,,,,,,,,,,1.0,0.05680782628732956,-0.053153284992906245,0.035383097027724755,-0.17560432796403355,0.05309086490756626,65.11879305718665,-0.014494011241891619,-0.027470949009796672,12.011554585929236,-0.019446571025101157,0.015176347217955395,-0.01777668739348412,,,,,,,,,,,,,,,,,altitude_hold,85.0,True,0,False,-10,15.0,0.0,-10.0,76.63638075827492,0.03040561221550889
1760879991.9306035,6.352464199066162,-5.156351150006583e-07,1.4643043476027547e-07,66.6620470831603,-3.839285286577692e-07,1.1164391639574108e-07,12.129679162336975,0.0035046701420336874,0.011475756349507652,-0.000109512002176825,,,,,,,,,,,1.0,0.06097593342849937,-0.07159559867264118,0.1268758025107261,-0.2779276173499169,-1.5025907704445165,66.60290035145462,-0.04394923877233383,-0.060763009128773415,12.05804752165434,-0.020577932602696487,0.020464811930150983,-0.04677646840293588,,,,,,,,,,,,,,,,,altitude_hold,85.0,True,0,False,-10,15.0,0.0,-10.0,78.12603403193647,0.05504814105660996
1760879992.0374305,6.459291219711304,-5.575544986058189e-07,1.5866174061754417e-07,67.95783185413345,-4.0080741931889415e-07,1.1734555839245552e-07,12.1298117301082,0.0036152609474013582,0.011718466539153122,-0.00011158450339361195,,,,,,,,,,,1.0,0.054419082631711746,-0.06588320087184599,0.1857798830406391,-0.28312158341850363,-1.5104246533462053,67.95114820137756,-0.053467403477234825,-0.08524024779937131,12.058229868690358,-0.018929179539453434,0.020570238833296804,-0.0936579906278838,,,,,,,,,,,,,,,,,altitude_hold,85.0,True,0,False,-10,15.0,0.0,-10.0,79.4495858634903,0.09774081937526667
1760879992.1483276,6.570188283920288,-6.029260437332164e-07,1.7199384199053788e-07,69.30299895755874,-4.1726438833797965e-07,1.2305646041676055e-07,12.129927196845355,0.0037323222627977915,0.01196807182653613,-0.00011364242532334537,,,,,,,,,,,1.0,0.05961141636277943,-0.04735561615915862,-0.044140720304141554,-0.28952866268997757,-1.521271064451687,69.11286000110282,-0.06111810222067024,-0.11013068094096866,12.055890857664508,-0.01962995942478336,0.016972963054671938,0.009330090719258874,,,,,,,,,,,,,,,,,altitude_hold,85.0,True,0,False,-10,15.0,0.0,-10.0,80.59111967166638,0.027576572932536417
1760879992.2578433,6.679703950881958,-6.493085797058316e-07,1.8572441584042058e-07,70.62529031267543,-4.3397086846397875e-07,1.2895908304900633e-07,12.130022133724989,0.0038493261189971755,0.012211797362133209,-0.00011570527056323007,,,,,,,,,,,1.0,0.05543300871900174,-0.045426818013982725,-0.14705639130639636,-1.0733507346792055,-0.4987176231078187,70.57871176175576,0.018733124125747066,-0.11509543127900494,12.103220818522486,-0.018174481887824098,0.015906111806669877,0.0748343704936609,,,,,,,,,,,,,,,,,altitude_hold,85.0,True,0,False,-10,15.0,0.0,-10.0,82.16769506498115,0.07863522869477543
1760879992.365113,6.786973714828491,-6.96745278294045e-07,1.9987569442656787e-07,71.92648503430495,-4.50024018530798e-07,1.347655901687543e-07,12.130100565754882,0.003966198853048504,0.012449989018003236,-0.00011779942232513026,,,,,,,,,,,1.0,0.028532262242971743,-0.06328113702978053,0.09477832504352954,-0.7225027884918386,-0.07040000209189434,71.87448747588289,0.011922195085517916,-0.11552917983785287,12.111885457693871,-0.012197489908920216,0.019512860067227897,-0.03974818335700106,,,,,,,,,,,,,,,,,altitude_hold,85.0,True,0,False,-10,15.0,0.0,-10.0,83.37046089313007,0.04592873336227773
1760879992.4704785,6.89233922958374,-7.451846395076398e-07,2.144380903028788e-07,73.21070821735972,-4.650089027622988e-07,1.4034040957010198e-07,12.130165756254147,0.004082906421832092,0.012683110350997399,-0.00011982620411258942,,,,,,,,,,,1.0,0.04717869404342916,-0.06321181633638673,-0.07542681950633329,-0.7216372309227074,-0.08347907234967568,73.33539144464137,0.003925532397080031,-0.13135107664560788,12.111282311457577,-0.014857133302877093,0.01981157957403266,0.025993145347590785,,,,,,,,,,,,,,,,,altitude_hold,85.0,True,0,False,-10,15.0,0.0,-10.0,84.80544978483317,0.03590092896094289
1760879992.5765972,6.998457908630371,-7.953132154251968e-07,2.296277474593606e-07,74.4979483886147,-4.79612894880268e-07,1.45909522358854e-07,12.130220816648082,0.004201386003944415,0.012914778702118244,-0.00012183297747516383,,,,,,,,,,,1.0,0.058709751323378814,-0.040220252123082355,0.041251909154692526,-0.7396499932954933,-0.5707216352545561,74.39090041520488,-0.06713993060723819,-0.09383235295129733,12.161700592067271,-0.01743497615428792,0.015004159276157525,-0.02223512935974757,,,,,,,,,,,,,,,,,altitude_hold,85.0,True,0,False,-10,15.0,0.0,-10.0,85.848042365481,0.03199225166707715
1760879992.6820853,7.103945970535278,-8.466906243102657e-07,2.4532248453164837e-07,75.77754437276145,-4.941925515282391e-07,1.5158109337869777e-07,12.130266918328351,0.00432114261259673,0.01314381847764146,-0.00012378465499116644,,,,,,,,,,,1.0,0.07468295896623328,-0.017022716390809545,0.023673373757539095,-0.3773466183827364,-1.6792945110192967,75.66612957772989,-0.05280884475622527,-0.12329673481323751,12.160550544259543,-0.02167170784218897,0.00860175610346178,-0.022897037053664984,,,,,,,,,,,,,,,,,altitude_hold,85.0,True,0,False,-10,15.0,0.0,-10.0,87.05152828012288,0.0326791590267795
1760879992.7908494,7.21271014213562,-9.009427317361244e-07,2.6203400662539555e-07,77.090467496711,-5.084039346842926e-07,1.5727648680639485e-07,12.130306749571517,0.004446565920866434,0.013377934215504282,-0.00012575715856558056,,,,,,,,,,,1.0,0.06026212999499347,-0.029725597362318085,-0.18792194361945863,-0.17285117121780058,-1.6549969217093057,76.83882820058693,-0.03270953484851267,-0.14131276772789012,12.149369094080745,-0.01979828944304501,0.010260097667113343,0.08834000331479684,,,,,,,,,,,,,,,,,altitude_hold,85.0,True,0,False,-10,15.0,0.0,-10.0,88.1699297420943,0.09111091073338916
1760879992.897247,7.3191077709198,-9.560667893877591e-07,2.791611445017081e-07,78.38752273729258,-5.224691114411225e-07,1.630335231580478e-07,12.130339798226547,0.004572804939799684,0.013608257596795213,-0.00012774362600334325,,,,,,,,,,,1.0,0.07564226010384495,-0.026175851904427033,0.04189639067252064,0.37050734301649785,-1.9344076899595184,78.26220520857566,-0.019721657368474876,-0.15386193985594832,12.133405213253196,-0.02346331952210809,0.008978929472039706,-0.016896815563291798,,,,,,,,,,,,,,,,,altitude_hold,85.0,True,0,False,-10,15.0,0.0,-10.0,89.48732232440766,0.03027624338718894
1760879993.004658,7.426518678665161,-1.012941836492939e-06,2.969880720511216e-07,79.69045508835669,-5.367330195376743e-07,1.689885893318601e-07,12.130367688682924,0.00470217199385877,0.013838724328949822,-0.00012977318921491272,,,,,,,,,,,1.0,0.07493518377648042,-0.041942341722443106,-0.0909326037668731,0.36860171599847436,-1.9525742182644568,79.37550188005866,-0.016002565243038173,-0.18269358236633318,12.135724788422477,-0.023448691678451,0.012361094164594917,0.06076360064779116,,,,,,,,,,,,,,,,,altitude_hold,85.0,True,0,False,-10,15.0,0.0,-10.0,90.58626108928044,0.06629368713581472
1760879993.1126678,7.534528493881226,-1.0717268709249643e-06,3.155826358234891e-07,81.0006551671211,-5.512179752367762e-07,1.7515399588537563e-07,12.130391227812876,0.004834526868692215,0.014069158546428102,-0.0001319527981537387,,,,,,,,,,,1.0,0.07038404782319883,-0.056498257008030774,0.043668770702306764,-0.0339378510581857,-2.029487544229991,80.83918095626305,0.0011287316553012395,-0.15712308678761633,12.079714642772485,-0.022514257222027104,0.016560096997631973,-0.00030781823436806625,,,,,,,,,,,,,,,,,altitude_hold,85.0,True,0,False,-10,15.0,0.0,-10.0,92.09720356127198,0.02795037285790636
1760879993.2209787,7.642839431762695,-1.1322098296497767e-06,3.348924231273963e-07,82.31451032200475,-5.656474551994345e-07,1.814394176566251e-07,12.130411033560891,0.004969692871670014,0.014298390918479764,-0.0001341156800393868,,,,,,,,,,,1.0,0.07877359843345419,-0.04104439000644515,0.16429867084237332,-0.0805365767632795,-0.2806640893451951,82.40449218767256,0.0027854766562219425,-0.15730264135675293,12.129240238028387,-0.024097001490063955,0.013531042854932299,-0.0759342305706851,,,,,,,,,,,,,,,,,altitude_hold,85.0,True,0,False,-10,15.0,0.0,-10.0,93.62740801835636,0.08080694260963056
1760879993.329645,7.751505613327026,-1.194418739960061e-06,3.549421649052333e-07,83.63267670452787,-5.79281694840202e-07,1.8759019799311887e-07,12.13042774703636,0.0051083072940794035,0.014526866479660087,-0.00013619876599580655,,,,,,,,,,,1.0,0.0980892818566369,-0.024573626780012382,-0.09376777870236067,-0.3931963204355391,-0.2698889521779432,83.49046594443986,0.024457439652435582,-0.1168812919880636,12.135686470128299,-0.029758411749823594,0.009567772275970325,0.03925768698947098,,,,,,,,,,,,,,,,,altitude_hold,85.0,True,0,False,-10,15.0,0.0,-10.0,94.74962034496205,0.05018238061272246
1760879993.4371545,7.859015226364136,-1.25730665496042e-06,3.7541042513280445e-07,84.93060855726333,-5.960015901279056e-07,1.9495154619852616e-07,12.130441342734294,0.005248196929599895,0.014751068600483102,-0.00013833454407043895,,,,,,,,,,,1.0,0.0914273516292915,-0.032155011054200246,0.16114860082903204,-0.19896418349084555,-0.21724294246936796,85.08733366778462,0.041637904353849425,-0.1153454368241723,12.126428622033854,-0.029045353446881014,0.010561087216937218,-0.08101550078403776,,,,,,,,,,,,,,,,,altitude_hold,85.0,True,0,False,-10,15.0,0.0,-10.0,96.29463500525716,0.08671032514842981
1760879993.5426676,7.964528322219849,-1.3211552645489446e-06,3.963948458733807e-07,86.21673610414182,-6.086012401099856e-07,2.0098143314970423e-07,12.130452912509142,0.005389750464558613,0.014972123817308653,-0.00014037131403041983,,,,,,,,,,,1.0,0.06377066756582572,-0.02470268922994306,0.24774247570432187,-0.19416798931546345,-0.2311479797604124,85.9457036812541,0.049622700952830646,-0.14652932402128152,12.12512042818969,-0.02265818413183219,0.008334185269973104,-0.13342015103937793,,,,,,,,,,,,,,,,,altitude_hold,85.0,True,0,False,-10,15.0,0.0,-10.0,97.14161942837428,0.13558683068659974
1760879993.650199,8.072059631347656,-1.3869474239054039e-06,4.1822821534676644e-07,87.51500593076716,-6.208294043356902e-07,2.0703184579313443e-07,12.13046276721553,0.00553474250039053,0.01519456432256852,-0.00014237680922861778,,,,,,,,,,,1.0,0.04889326946825497,-0.018573653049880207,0.12666369231171143,1.2578947895689216,-0.14144978700835106,87.31580632496609,0.055632642168265696,-0.14606090100757332,12.141409448653514,-0.017887385168219826,0.006270715528157746,-0.07471509767123397,,,,,,,,,,,,,,,,,altitude_hold,85.0,True,0,False,-10,15.0,0.0,-10.0,98.28139002036505,0.077081944976845
1760879993.7572334,8.179094076156616,-1.4540772673394275e-06,4.4072704017988043e-07,88.81337505642978,-6.337773082906969e-07,2.1348533264780145e-07,12.130471004799283,0.005681665169965139,0.015416372165377371,-0.00014439875240864945,,,,,,,,,,,1.0,0.06001079834388604,-0.018799830710027426,0.20686077157768684,0.9189040733998073,-0.18573732332235643,88.54282792682206,0.07194091061231318,-0.11335415654107964,12.140725981948831,-0.019689527880308123,0.00640784788515767,-0.09832201327816686,,,,,,,,,,,,,,,,,altitude_hold,85.0,True,0,False,-10,15.0,0.0,-10.0,99.54396363749362,0.1004786361259983
1760879993.8662126,8.288073301315308,-1.5241805355245224e-06,4.6446437807011036e-07,90.14148766970709,-6.463937436447336e-07,2.1999804735310828e-07,12.1304781091427,0.005834203303301614,0.015642197150671437,-0.00014644137433428794,,,,,,,,,,,1.0,0.07379672073199331,-0.04324620651989033,-0.004205745982761807,0.927102420586449,-0.19974381559989798,90.11517028531544,0.07723028055252973,-0.14190455559415233,12.140243156645454,-0.02231590376679979,0.012130995387743426,-0.005925571577679532,,,,,,,,,,,,,,,,,altitude_hold,85.0,True,0,False,-10,15.0,0.0,-10.0,101.09962247768408,0.026082043795468267
1760879993.9749224,8.396783113479614,-1.5951827835039985e-06,4.887578594666434e-07,91.46018999366488,-6.595082888465684e-07,2.2682982689265515e-07,12.130483979633675,0.0059883987314985135,0.01586511577723551,-0.00014851036429074161,,,,,,,,,,,1.0,0.09329181091486784,-0.03626002062996905,0.06795021726864893,0.7910777237367579,0.18815392999863018,91.5445305633005,0.07969285836417564,-0.12715353615714559,12.120929595314092,-0.02766178029254751,0.011281778380560631,-0.024237738021190135,,,,,,,,,,,,,,,,,altitude_hold,85.0,True,0,False,-10,15.0,0.0,-10.0,102.5339971008413,0.038469735595206535
1760879994.0833845,8.505245208740234,-1.6674897756874617e-06,5.137617898113905e-07,92.77588797237684,-6.742035722988744e-07,2.3441000833804518e-07,12.130488786073576,0.00614551782134023,0.016086110325541095,-0.00015049879047000572,,,,,,,,,,,1.0,0.08447004439934816,-0.024351509642231668,-0.14676085966535374,0.2594791833409601,-0.38817397107363694,92.67568270234209,0.025209188998939574,-0.10866066370380406,12.17584344015153,-0.026622764172951313,0.0087199113546243,0.05086705322016893,,,,,,,,,,,,,,,,,altitude_hold,85.0,True,0,False,-10,15.0,0.0,-10.0,103.72911573598904,0.05807121084965065
1760879994.1902916,8.612152338027954,-1.7401879690807144e-06,5.391695226783997e-07,94.07272393278826,-6.86190428853535e-07,2.4108049908763784e-07,12.130492898588455,0.006303561283101936,0.016302720627834996,-0.0001523787454616367,,,,,,,,,,,1.0,0.10879574211651694,-0.05061173699014003,-0.22959493496320488,0.4506969393962655,-1.5363757261991444,93.91062229782702,0.02034400805073492,-0.08495280658528474,12.13688010324641,-0.032272180816830615,0.014130258999152458,0.096218614921933,,,,,,,,,,,,,,,,,altitude_hold,85.0,True,0,False,-10,15.0,0.0,-10.0,104.93550445984911,0.10246550508123485
1760879994.299916,8.721776723861694,-1.8160885733627622e-06,5.659812575760083e-07,95.40252196600116,-6.9843065819603e-07,2.480571449105467e-07,12.130496437090372,0.00646920054449524,0.016523051381028765,-0.0001543173940846384,,,,,,,,,,,1.0,0.10711465976709095,-0.06258817334744603,0.045072000937141005,0.4529989599841784,-1.5478258322104055,95.15858443285987,0.02038577084778853,-0.12462016449754239,12.135588053222222,-0.03276433090455155,0.01813007592902996,-0.02366173453206079,,,,,,,,,,,,,,,,,altitude_hold,85.0,True,0,False,-10,15.0,0.0,-10.0,106.17127146261363,0.04429535770124293
1760879994.4071012,8.828961849212646,-1.891611104715117e-06,5.92949830275799e-07,96.70273090583923,-7.109919010702583e-07,2.5527367492755806e-07,12.130499299965082,0.006634891240609777,0.016736550836613722,-0.00015625021436617968,,,,,,,,,,,1.0,0.14731621191867705,-0.044659240154436224,0.13384577130952874,0.15526146032286556,-0.7898195273223686,96.27157383559482,0.023322070604542874,-0.10633764483156984,12.125943644299074,-0.04246233599942746,0.014903374214358592,-0.06707690249822641,,,,,,,,,,,,,,,,,altitude_hold,85.0,True,0,False,-10,15.0,0.0,-10.0,107.30627885958677,0.08077420002858621
1760879994.5150013,8.936861991882324,-1.9690030174957755e-06,6.208909572846238e-07,98.01161364543698,-7.24311986259307e-07,2.629815090118663e-07,12.130501674174383,0.006806539967180834,0.016949766951821873,-0.00015814361513901307,,,,,,,,,,,1.0,0.15288780082092007,-0.04602480374745388,0.29273817884124365,-0.5914247975627707,-0.8396629850368605,97.81306194152864,0.03989727910510379,-0.0930585301783761,12.136930402123548,-0.04587225463488514,0.014672218128793404,-0.1601047209808732,,,,,,,,,,,,,,,,,altitude_hold,85.0,True,0,False,-10,15.0,0.0,-10.0,108.93784414221896,0.16719168463314765
1760879994.6230257,9.044886350631714,-2.0479103000422487e-06,6.497017660804577e-07,99.322003423854,-7.365048373828815e-07,2.7042289151471144e-07,12.130503725259032,0.006983681574073832,0.01716125511101451,-0.00015992691083844271,,,,,,,,,,,1.0,0.14050746499760372,-0.034859149647352455,-0.022342802023296374,-0.5872348846681615,-0.852696876056505,99.3279809632518,0.04031826797253293,-0.14873197532749627,12.137929784372085,-0.04466266714133152,0.012374825747171848,0.0023802716613703784,,,,,,,,,,,,,,,,,altitude_hold,85.0,True,0,False,-10,15.0,0.0,-10.0,110.4368435116352,0.04640642026306451
1760879994.7289839,9.15084457397461,-2.1266442100905107e-06,6.787754565971396e-07,100.60733013527614,-7.494864441435741e-07,2.783298378709625e-07,12.130505354096774,0.007162545534725727,0.0173670782943528,-0.00016163131790933476,,,,,,,,,,,1.0,0.15120189307201884,-0.053021417307108014,0.158979897054717,-1.634509757987367,0.4279395059602716,100.67334894436527,0.03154904079197673,-0.14362601142726789,12.157861706956103,-0.04797346406477211,0.01618131659921967,-0.09960142604693516,,,,,,,,,,,,,,,,,altitude_hold,85.0,True,0,False,-10,15.0,0.0,-10.0,111.91729184389058,0.1117306239660428
1760879994.8376913,9.259552001953125,-2.208426917705899e-06,7.093250012196843e-07,101.91987781136694,-7.621687960921414e-07,2.863773961156784e-07,12.130506773226728,0.007350767008533816,0.017575082107812112,-0.00016332075137275384,,,,,,,,,,,1.0,0.15534952261891455,-0.04649517598894152,0.09465115347045547,-0.5502964230716708,-0.027388156642300647,101.77534372292752,0.034821326431458535,-0.10122437577322585,12.191959471129444,-0.0496069283212131,0.015777368225502377,-0.05407439289255024,,,,,,,,,,,,,,,,,altitude_hold,85.0,True,0,False,-10,15.0,0.0,-10.0,112.85184949009525,0.07505872802204255
1760879994.94505,9.366910696029663,-2.2908849304392837e-06,7.404910633219445e-07,103.221958980269,-7.740098717285495e-07,2.942673688658716e-07,12.130507987371015,0.007542571403280759,0.0177797210313362,-0.0001649863520235214,,,,,,,,,,,1.0,0.14441748116459355,-0.02327807598603572,0.08865684019729143,-1.5831891831585119,0.265742099613533,103.03719576932669,0.02631660220675825,-0.16979636808507684,12.134348617279278,-0.04624113676977023,0.010054917660433033,-0.04770495182146343,,,,,,,,,,,,,,,,,altitude_hold,85.0,True,0,False,-10,15.0,0.0,-10.0,114.24745253064079,0.06719454239152783
1760879995.05225,9.47411060333252,-2.3744929822622063e-06,7.724682574208527e-07,104.52257973985014,-7.856618592163316e-07,3.022943383058951e-07,12.130509009547362,0.007739032450084608,0.01798300976843175,-0.00016666848774205264,,,,,,,,,,,1.0,0.15780475702561075,-0.05607661384794386,-0.08822791262459548,-1.5801058363255849,0.24444601341766473,104.23548702516719,0.031039114739204166,-0.22751084655237622,12.134161391688568,-0.04938870697710449,0.016270867211757058,0.04796161953497527,,,,,,,,,,,,,,,,,altitude_hold,85.0,True,0,False,-10,15.0,0.0,-10.0,115.43269103366852,0.07074109445796439
1760879995.1585307,9.58039140701294,-2.4590262422422897e-06,8.051927571338793e-07,105.81795136646711,-7.975460443826621e-07,3.106343075088475e-07,12.130509845552671,0.007939934249090548,0.018184124503474123,-0.0001684045241999029,,,,,,,,,,,1.0,0.16170492661055727,-0.04922300049554926,-0.08787006392771776,-1.0189617971504716,0.6592782779177114,105.67880729883025,0.03322577015768252,-0.13479862608147525,12.130853207376159,-0.05067860371453956,0.015213324930049942,0.049594815606344496,,,,,,,,,,,,,,,,,altitude_hold,85.0,True,0,False,-10,15.0,0.0,-10.0,116.78453768794138,0.07252180268657098
1760879995.2681558,9.690016508102417,-2.547099748261231e-06,8.397148991319578e-07,107.14775977627527,-8.092457848128959e-07,3.192196973387862e-07,12.130510585076328,0.008151913705011003,0.01838875886029317,-0.0001701466062521436,,,,,,,,,,,1.0,0.1631171837956532,-0.0537660401269592,0.03747900046720398,-1.0151586522787577,0.6410142393348878,107.37498322769666,0.036051873247280264,-0.19830445088183668,12.13108067366648,-0.051502292136139376,0.016370112652746804,-0.01655979737878788,,,,,,,,,,,,,,,,,altitude_hold,85.0,True,0,False,-10,15.0,0.0,-10.0,118.46426842560909,0.05652162040110293
1760879995.3760421,9.797902822494507,-2.635036520478399e-06,8.746253343228684e-07,108.45647588813226,-8.211725849358506e-07,3.28101971415816e-07,12.130511168044755,0.008366272020729064,0.018588141986915285,-0.00017183779360081675,,,,,,,,,,,1.0,0.1581841861190999,-0.06468973008295187,0.05581359597589226,-1.0111449286252903,0.6162089914090978,108.72026826019457,0.038752642884017585,-0.26121095869243655,12.131330908679022,-0.05079224857731713,0.01927726244600922,-0.0207680441886242,,,,,,,,,,,,,,,,,altitude_hold,85.0,True,0,False,-10,15.0,0.0,-10.0,119.79665509194778,0.05816164562985592
1760879995.4827225,9.904583215713501,-2.7233298686275567e-06,9.101349670006879e-07,109.75056361254289,-8.349877368534217e-07,3.3805774904055306e-07,12.130511540525985,0.008583487947662028,0.018783309321129763,-0.00017353962260911897,,,,,,,,,,,1.0,0.15904729453058122,-0.04006594424725907,-0.13510449061239754,-1.3856236948696967,-0.3199427104026493,109.60489246314667,0.09776455708478977,-0.1596751710382728,12.106504229353375,-0.05029256137898293,0.014560075076823917,0.07584441077006264,,,,,,,,,,,,,,,,,altitude_hold,85.0,True,0,False,-10,15.0,0.0,-10.0,120.72249719223295,0.09216133767127899
1760879995.5874944,10.009355068206787,-2.8114486470186655e-06,9.460429791488353e-07,111.02149979826972,-8.470849384189694e-07,3.474204184315539e-07,12.130511910788151,0.00880169543604182,0.018973594952867618,-0.0001752609636492149,,,,,,,,,,,1.0,0.13405148305383144,-0.05808046439572953,0.1755292993719717,-1.3750183997712664,-0.3396615057015735,110.87670845711304,0.10198615972880469,-0.21594192172981225,12.108721805955984,-0.04456379297597975,0.017710678256067123,-0.08301905651834857,,,,,,,,,,,,,,,,,altitude_hold,85.0,True,0,False,-10,15.0,0.0,-10.0,121.98129055292539,0.0958736852003336
1760879995.6949615,10.116822242736816,-2.903060476906391e-06,9.838659413935461e-07,112.32513166069694,-8.578466302571995e-07,3.5652229129498824e-07,12.130512303963341,0.009030236371016902,0.019166570024399796,-0.00017693028260107693,,,,,,,,,,,1.0,0.1254627169179743,-0.0511832086561308,-0.011396769210669786,-0.8255189153777905,0.5660418751835783,112.2404891239042,0.06792065703222978,-0.20830605581880024,12.108144975748305,-0.04145938352882859,0.016702938085777237,-0.001881949110059778,,,,,,,,,,,,,,,,,altitude_hold,85.0,True,0,False,-10,15.0,0.0,-10.0,123.26193505538026,0.04473712502766204
1760879995.8010402,10.222900867462158,-2.9946381461538265e-06,1.02218031970047e-06,113.61191974001805,-8.682661098917993e-07,3.6566642387139564e-07,12.130512637687813,0.009260078229435934,0.019355372786899964,-0.0001785628533671391,,,,,,,,,,,1.0,0.12840249118590596,-0.047426908823513476,-0.07565216788576179,0.39004737630556335,0.6545418987770802,113.39646918250224,0.09350712134485314,-0.19219580692782606,12.107591261824057,-0.04100506864626484,0.015184313662109506,0.028878337189226104,,,,,,,,,,,,,,,,,altitude_hold,85.0,True,0,False,-10,15.0,0.0,-10.0,124.2600810697952,0.052401692671982046
1760879995.9078138,10.329674482345581,-3.0879100862631495e-06,1.0617286963709592e-06,114.9071384398794,-8.784767787160106e-07,3.749956141185412e-07,12.1305129305799,0.00949571436076172,0.019543727889403593,-0.0001802262499626384,,,,,,,,,,,1.0,0.13146462189646085,-0.07407273826484317,-0.08355129596045191,0.4003005774529201,0.6311697279293115,114.75513237138206,0.09739939750476495,-0.24556547001671566,12.108434971877907,-0.04141868333532569,0.021275100072956375,0.04652567445713909,,,,,,,,,,,,,,,,,altitude_hold,85.0,True,0,False,-10,15.0,0.0,-10.0,125.60809150470855,0.06582382240525067
1760879996.0170553,10.438915967941284,-3.1840456159310695e-06,1.1030571968889365e-06,116.22594834975506,-8.896688187478579e-07,3.8515054366186915e-07,12.130513139608166,0.009740091572953602,0.01973322330597156,-0.00018194291614611195,,,,,,,,,,,1.0,0.1154051794226569,-0.07417631062012969,0.17793769633805548,0.15475175664868068,-0.20008440714278752,116.17851414882651,0.06188811559991995,-0.1463219654846243,12.158007471600891,-0.03757617313455209,0.02210256779878978,-0.08180758059548553,,,,,,,,,,,,,,,,,altitude_hold,85.0,True,0,False,-10,15.0,0.0,-10.0,127.04896245929093,0.09269828765206395
1760879996.1237159,10.545576572418213,-3.280026078378266e-06,1.144903078263153e-06,117.52614157610319,-9.003176493184508e-07,3.952400954045961e-07,12.130513326335096,0.00998529690223433,0.019917443674687074,-0.0001835055557533866,,,,,,,,,,,1.0,0.1297497741840234,-0.05737389176088767,-0.07200551971430649,0.03632785141586501,-0.014472453036441074,117.55176366153954,0.04317325176441732,-0.14322510230542043,12.178798810031768,-0.03995184891711151,0.01855633292320874,0.01835533770878526,,,,,,,,,,,,,,,,,altitude_hold,85.0,True,0,False,-10,15.0,0.0,-10.0,128.42649300978147,0.04772217666720808
1760879996.2320447,10.653905391693115,-3.3781028819177615e-06,1.1882654913013589e-06,118.840225772225,-9.10474469006163e-07,4.05409446814787e-07,12.130513507021728,0.010237733297083444,0.020101566967065543,-0.00018503119861390822,,,,,,,,,,,1.0,0.13968046498099637,-0.05935203842862378,-0.034691791368112554,-0.05760559553164111,0.14120970688117415,118.71360783245228,0.008834682773112345,-0.1801262525651015,12.217129425559552,-0.042648891965951764,0.01848241038382984,0.003938764345554791,,,,,,,,,,,,,,,,,altitude_hold,85.0,True,0,False,-10,15.0,0.0,-10.0,129.59145136812933,0.0466480583099612
