timestamp,simulation_time,position_x,position_y,position_z,velocity_x,velocity_y,velocity_z,attitude_roll,attitude_pitch,attitude_yaw,control_throttle,control_roll,control_pitch,control_yaw,estimated_position_x,estimated_position_y,estimated_position_z,flight_mode,battery_level,setpoint_altitude,setpoint_position_x,setpoint_position_y,setpoint_position_z,position_error,attitude_error,waypoint_index,mission_complete
1761142459.4344106,0.10375046730041504,0.0,0.0,-0.0,0.0,0.0,-0.0,0.0,0.0,0.0,0.0,0.0,0.0,0.0,0.0,0.0,-0.0,manual,85.0,0.0,0.0,0.0,0.0,0.0,0.0,0,0
1761142459.536898,0.20623779296875,0.0,0.0,-0.0,0.0,0.0,-0.0,0.0,0.0,0.0,0.0,0.0,0.0,0.0,0.0,0.0,-0.0,manual,85.0,0.0,0.0,0.0,0.0,0.0,0.0,0,0
1761142459.6435854,0.3129253387451172,0.0,0.0,-0.0,0.0,0.0,-0.0,0.0,0.0,0.0,0.0,0.0,0.0,0.0,0.0,0.0,-0.0,manual,85.0,0.0,0.0,0.0,0.0,0.0,0.0,0,0
1761142459.7484014,0.4177412986755371,0.0,0.0,-0.0,0.0,0.0,-0.0,0.0,0.0,0.0,0.0,0.0,0.0,0.0,0.0,0.0,-0.0,manual,85.0,0.0,0.0,0.0,0.0,0.0,0.0,0,0
1761142459.8525171,0.5218570232391357,0.0,0.0,-0.0,0.0,0.0,-0.0,0.0,0.0,0.0,0.0,0.0,0.0,0.0,0.0,0.0,-0.0,manual,85.0,0.0,0.0,0.0,0.0,0.0,0.0,0,0
1761142459.9565165,0.6258563995361328,0.0,0.0,-0.0,0.0,0.0,-0.0,0.0,0.0,0.0,0.0,0.0,0.0,0.0,0.0,0.0,-0.0,manual,85.0,0.0,0.0,0.0,0.0,0.0,0.0,0,0
1761142460.0596023,0.7289421558380127,0.0,0.0,-0.0,0.0,0.0,-0.0,0.0,0.0,0.0,0.0,0.0,0.0,0.0,0.0,0.0,-0.0,manual,85.0,0.0,0.0,0.0,0.0,0.0,0.0,0,0
1761142460.2184322,0.8877720832824707,0.0,0.0,-0.0,0.0,0.0,-0.0,0.0,0.0,0.0,0.0,0.0,0.0,0.0,0.0,0.0,-0.0,manual,85.0,0.0,0.0,0.0,0.0,0.0,0.0,0,0
1761142460.32119,0.9905300140380859,0.0,0.0,-0.0,0.0,0.0,-0.0,0.0,0.0,0.0,0.0,0.0,0.0,0.0,0.0,0.0,-0.0,manual,85.0,0.0,0.0,0.0,0.0,0.0,0.0,0,0
1761142460.428898,1.0982379913330078,0.0,0.0,-0.0,0.0,0.0,-0.0,0.0,0.0,0.0,0.0,0.0,0.0,0.0,0.0,0.0,-0.0,manual,85.0,0.0,0.0,0.0,0.0,0.0,0.0,0,0
1761142460.5342858,1.2036256790161133,0.0,0.0,-0.0,0.0,0.0,-0.0,0.0,0.0,0.0,0.0,0.0,0.0,0.0,0.0,0.0,-0.0,manual,85.0,0.0,0.0,0.0,0.0,0.0,0.0,0,0
1761142460.6377344,1.3070743083953857,0.0,0.0,-0.0,0.0,0.0,-0.0,0.0,0.0,0.0,0.0,0.0,0.0,0.0,0.0,0.0,-0.0,manual,85.0,0.0,0.0,0.0,0.0,0.0,0.0,0,0
1761142460.7404504,1.409790277481079,0.0,0.0,-0.0,0.0,0.0,-0.0,0.0,0.0,0.0,0.0,0.0,0.0,0.0,0.0,0.0,-0.0,manual,85.0,0.0,0.0,0.0,0.0,0.0,0.0,0,0
1761142460.8446574,1.5139973163604736,0.0,0.0,-0.0,0.0,0.0,-0.0,0.0,0.0,0.0,0.0,0.0,0.0,0.0,0.0,0.0,-0.0,manual,85.0,0.0,0.0,0.0,0.0,0.0,0.0,0,0
1761142460.9475248,1.6168646812438965,0.0,0.0,-0.0,0.0,0.0,-0.0,0.0,0.0,0.0,0.0,0.0,0.0,0.0,0.0,0.0,-0.0,manual,85.0,0.0,0.0,0.0,0.0,0.0,0.0,0,0
1761142461.0567753,1.7261152267456055,0.0,0.0,-0.0,0.0,0.0,-0.0,0.0,0.0,0.0,0.0,0.0,0.0,0.0,0.0,0.0,-0.0,manual,85.0,0.0,0.0,0.0,0.0,0.0,0.0,0,0
1761142461.1623328,1.8316726684570312,0.0,0.0,-0.0,0.0,0.0,-0.0,0.0,0.0,0.0,0.0,0.0,0.0,0.0,0.0,0.0,-0.0,manual,85.0,0.0,0.0,0.0,0.0,0.0,0.0,0,0
1761142461.2649734,1.9343132972717285,0.0,0.0,-0.0,0.0,0.0,-0.0,0.0,0.0,0.0,0.0,0.0,0.0,0.0,0.0,0.0,-0.0,manual,85.0,0.0,0.0,0.0,0.0,0.0,0.0,0,0
1761142461.3678055,2.0371453762054443,0.0,0.0,-0.0,0.0,0.0,-0.0,0.0,0.0,0.0,0.0,0.0,0.0,0.0,0.0,0.0,-0.0,manual,85.0,0.0,0.0,0.0,0.0,0.0,0.0,0,0
1761142461.4701009,2.1394407749176025,0.0,0.0,-0.0,0.0,0.0,-0.0,0.0,0.0,0.0,0.0,0.0,0.0,0.0,0.0,0.0,-0.0,manual,85.0,0.0,0.0,0.0,0.0,0.0,0.0,0,0
1761142461.5742028,2.2435426712036133,0.0,0.0,-0.0,0.0,0.0,-0.0,0.0,0.0,0.0,0.0,0.0,0.0,0.0,0.0,0.0,-0.0,manual,85.0,0.0,0.0,0.0,0.0,0.0,0.0,0,0
1761142461.6779215,2.347261428833008,0.0,0.0,-0.0,0.0,0.0,-0.0,0.0,0.0,0.0,0.0,0.0,0.0,0.0,0.0,0.0,-0.0,manual,85.0,0.0,0.0,0.0,0.0,0.0,0.0,0,0
1761142461.7819288,2.4512686729431152,0.0,0.0,-0.0,0.0,0.0,-0.0,0.0,0.0,0.0,0.0,0.0,0.0,0.0,0.0,0.0,-0.0,manual,85.0,0.0,0.0,0.0,0.0,0.0,0.0,0,0
1761142461.8872557,2.55659556388855,0.0,0.0,0.00021771541494914164,0.0,0.0,0.04048421639432102,0.0,0.0,0.0,0.75,0.0,0.0,0.0,0.0,0.0,0.00021771541494914164,stabilize,85.0,2.0,0.0,0.0,-2.0,1.9997822845850508,0.0,0,0
1761142461.9898934,2.659233331680298,0.0,0.0,0.023818939495397665,0.0,0.0,0.35283201877093695,0.0,0.0,0.0,0.35,0.0,0.0,0.0,0.0,0.0,0.023818939495397665,stabilize,85.0,2.0,0.0,0.0,-2.0,1.9761810605046024,0.0,0,0
1761142462.097606,2.7669458389282227,0.0,0.0,0.06549555772738122,0.0,0.0,0.3877626355412155,0.0,0.0,0.0,0.35,0.0,0.0,0.0,0.0,0.0,0.06549555772738122,stabilize,85.0,2.0,0.0,0.0,-2.0,1.9345044422726188,0.0,0,0
1761142462.2033796,2.8727195262908936,0.0,0.0,0.10929903328359117,0.0,0.0,0.4022047553132886,0.0,0.0,0.0,0.35,0.0,0.0,0.0,0.0,0.0,0.10929903328359117,stabilize,85.0,2.0,0.0,0.0,-2.0,1.8907009667164087,0.0,0,0
1761142462.3065088,2.97584867477417,0.0,0.0,0.15391381799171427,0.0,0.0,0.4253742318221925,0.0,0.0,0.0,0.35,0.0,0.0,0.0,0.0,0.0,0.15391381799171427,stabilize,85.0,2.0,0.0,0.0,-2.0,1.8460861820082857,0.0,0,0
1761142462.4139097,3.083249568939209,0.0,0.0,0.20307707110162415,0.0,0.0,0.4531143689056217,0.0,0.0,0.0,0.35,0.0,0.0,0.0,0.0,0.0,0.20307707110162415,stabilize,85.0,2.0,0.0,0.0,-2.0,1.796922928898376,0.0,0,0
1761142462.5166357,3.1859755516052246,0.0,0.0,0.2522997663991535,0.0,0.0,0.46598394002791105,0.0,0.0,0.0,0.35,0.0,0.0,0.0,0.0,0.0,0.2522997663991535,stabilize,85.0,2.0,0.0,0.0,-2.0,1.7477002336008465,0.0,0,0
1761142462.6185925,3.2879323959350586,0.0,0.0,0.3022651193414114,0.0,0.0,0.47661123532393396,0.0,0.0,0.0,0.35,0.0,0.0,0.0,0.0,0.0,0.3022651193414114,stabilize,85.0,2.0,0.0,0.0,-2.0,1.6977348806585886,0.0,0,0
1761142462.7236605,3.393000364303589,0.0,0.0,0.35498548635171495,0.0,0.0,0.4912776766007439,0.0,0.0,0.0,0.35,0.0,0.0,0.0,0.0,0.0,0.35498548635171495,stabilize,85.0,2.0,0.0,0.0,-2.0,1.645014513648285,0.0,0,0
1761142462.827872,3.4972119331359863,0.0,0.0,0.40842126536060963,0.0,0.0,0.4945180301532765,0.0,0.0,0.0,0.35,0.0,0.0,0.0,0.0,0.0,0.40842126536060963,stabilize,85.0,2.0,0.0,0.0,-2.0,1.5915787346393904,0.0,0,0
1761142462.9314983,3.6008381843566895,0.0,0.0,0.46224505529431326,0.0,0.0,0.5041465058404179,0.0,0.0,0.0,0.35,0.0,0.0,0.0,0.0,0.0,0.46224505529431326,stabilize,85.0,2.0,0.0,0.0,-2.0,1.5377549447056866,0.0,0,0
1761142463.0348728,3.7042126655578613,0.0,0.0,0.5169529787493233,0.0,0.0,0.5165775868246506,0.0,0.0,0.0,0.35,0.0,0.0,0.0,0.0,0.0,0.5169529787493233,stabilize,85.0,2.0,0.0,0.0,-2.0,1.4830470212506768,0.0,0,0
1761142463.1439302,3.813270092010498,0.0,0.0,0.5752250348536647,0.0,0.0,0.494574835312781,0.0,0.0,0.0,0.35,0.0,0.0,0.0,0.0,0.0,0.5752250348536647,stabilize,85.0,2.0,0.0,0.0,-2.0,1.4247749651463353,0.0,0,0
1761142463.249361,3.918700933456421,0.0,0.0,0.6304127590069155,0.0,0.0,0.5124857179188995,0.0,0.0,0.0,0.35,0.0,0.0,0.0,0.0,0.0,0.6304127590069155,stabilize,85.0,2.0,0.0,0.0,-2.0,1.3695872409930845,0.0,0,0
1761142463.3509698,4.020309686660767,0.0,0.0,0.6838792229523288,0.0,0.0,0.5063478652027342,0.0,0.0,0.0,0.35,0.0,0.0,0.0,0.0,0.0,0.6838792229523288,stabilize,85.0,2.0,0.0,0.0,-2.0,1.3161207770476713,0.0,0,0
1761142463.4550538,4.124393701553345,0.0,0.0,0.7380016845701738,0.0,0.0,0.4970998686435812,0.0,0.0,0.0,0.35,0.0,0.0,0.0,0.0,0.0,0.7380016845701738,stabilize,85.0,2.0,0.0,0.0,-2.0,1.2619983154298262,0.0,0,0
1761142463.5642633,4.233603239059448,0.0,0.0,0.7933405921445134,0.0,0.0,0.5182098170587374,0.0,0.0,0.0,0.75,0.0,0.0,0.0,0.0,0.0,0.7933405921445134,stabilize,85.0,2.0,0.0,0.0,-2.0,1.2066594078554866,0.0,0,0
1761142463.6672938,4.336633682250977,0.0,0.0,0.8445682144346511,0.0,0.0,0.49443131851184674,0.0,0.0,0.0,0.6326636409781238,0.0,0.0,0.0,0.0,0.0,0.8445682144346511,stabilize,85.0,2.0,0.0,0.0,-2.0,1.1554317855653489,0.0,0,0
1761142463.7710373,4.440377235412598,0.0,0.0,0.8942894642965934,0.0,0.0,0.49487905468794746,0.0,0.0,0.0,0.75,0.0,0.0,0.0,0.0,0.0,0.8942894642965934,stabilize,85.0,2.0,0.0,0.0,-2.0,1.1057105357034067,0.0,0,0
1761142463.8818107,4.551150560379028,0.0,0.0,0.9460428363557484,0.0,0.0,0.4823122058276306,0.0,0.0,0.0,0.75,0.0,0.0,0.0,0.0,0.0,0.9460428363557484,stabilize,85.0,2.0,0.0,0.0,-2.0,1.0539571636442515,0.0,0,0
1761142463.9873633,4.656703233718872,0.0,0.0,0.9940330946406261,0.0,0.0,0.4303223583464666,0.0,0.0,0.0,0.35,0.0,0.0,0.0,0.0,0.0,0.9940330946406261,stabilize,85.0,2.0,0.0,0.0,-2.0,1.005966905359374,0.0,0,0
1761142464.0909078,4.760247707366943,0.0,0.0,1.040027971608693,0.0,0.0,0.4202652814095014,0.0,0.0,0.0,0.35,0.0,0.0,0.0,0.0,0.0,1.040027971608693,stabilize,85.0,2.0,0.0,0.0,-2.0,0.9599720283913069,0.0,0,0
1761142464.1949701,4.864310026168823,0.0,0.0,1.0849773698296998,0.0,0.0,0.4097930440565978,0.0,0.0,0.0,0.35,0.0,0.0,0.0,0.0,0.0,1.0849773698296998,stabilize,85.0,2.0,0.0,0.0,-2.0,0.9150226301703002,0.0,0,0
1761142464.2969677,4.966307640075684,0.0,0.0,1.1279528248980897,0.0,0.0,0.39826850392800767,0.0,0.0,0.0,0.35,0.0,0.0,0.0,0.0,0.0,1.1279528248980897,stabilize,85.0,2.0,0.0,0.0,-2.0,0.8720471751019103,0.0,0,0
1761142464.4007928,5.070132732391357,0.0,0.0,1.1710930851053252,0.0,0.0,0.39549471400035047,0.0,0.0,0.0,0.35,0.0,0.0,0.0,0.0,0.0,1.1710930851053252,stabilize,85.0,2.0,0.0,0.0,-2.0,0.8289069148946748,0.0,0,0
1761142464.5056937,5.1750335693359375,0.0,0.0,1.2129857012018552,0.0,0.0,0.3819850718438314,0.0,0.0,0.0,0.35,0.0,0.0,0.0,0.0,0.0,1.2129857012018552,stabilize,85.0,2.0,0.0,0.0,-2.0,0.7870142987981448,0.0,0,0
1761142464.608018,5.277357816696167,0.0,0.0,1.2517346983697262,0.0,0.0,0.36429381351340584,0.0,0.0,0.0,0.35,0.0,0.0,0.0,0.0,0.0,1.2517346983697262,stabilize,85.0,2.0,0.0,0.0,-2.0,0.7482653016302738,0.0,0,0
1761142464.7092075,5.378547430038452,0.0,0.0,1.2884185230968952,0.0,0.0,0.3347262767413985,0.0,0.0,0.0,0.35,0.0,0.0,0.0,0.0,0.0,1.2884185230968952,stabilize,85.0,2.0,0.0,0.0,-2.0,0.7115814769031048,0.0,0,0
1761142464.8140147,5.483354568481445,0.0,0.0,1.3242271914713155,0.0,0.0,0.3131402101835155,0.0,0.0,0.0,0.35,0.0,0.0,0.0,0.0,0.0,1.3242271914713155,stabilize,85.0,2.0,0.0,0.0,-2.0,0.6757728085286845,0.0,0,0
1761142464.9177573,5.58709716796875,0.0,0.0,1.3588514716587583,0.0,0.0,0.31822236874929816,0.0,0.0,0.0,0.35,0.0,0.0,0.0,0.0,0.0,1.3588514716587583,stabilize,85.0,2.0,0.0,0.0,-2.0,0.6411485283412417,0.0,0,0
1761142465.0196497,5.688989639282227,0.0,0.0,1.3917791268682262,0.0,0.0,0.34223069150143204,0.0,0.0,0.0,0.7444531924568949,0.0,0.0,0.0,0.0,0.0,1.3917791268682262,stabilize,85.0,2.0,0.0,0.0,-2.0,0.6082208731317738,0.0,0,0
1761142465.1241198,5.79345965385437,0.0,0.0,1.4249616953434747,0.0,0.0,0.30038244486080906,0.0,0.0,0.0,0.5448958069210144,0.0,0.0,0.0,0.0,0.0,1.4249616953434747,stabilize,85.0,2.0,0.0,0.0,-2.0,0.5750383046565253,0.0,0,0
1761142465.2263577,5.895697593688965,0.0,0.0,1.455583101866078,0.0,0.0,0.28553320127650267,0.0,0.0,0.0,0.35,0.0,0.0,0.0,0.0,0.0,1.455583101866078,stabilize,85.0,2.0,0.0,0.0,-2.0,0.5444168981339219,0.0,0,0
1761142465.3298209,5.9991607666015625,0.0,0.0,1.4860505097570025,0.0,0.0,0.26914555115787653,0.0,0.0,0.0,0.35,0.0,0.0,0.0,0.0,0.0,1.4860505097570025,stabilize,85.0,2.0,0.0,0.0,-2.0,0.5139494902429975,0.0,0,0
1761142465.4336097,6.102949619293213,0.0,0.0,1.5161773433571983,0.0,0.0,0.2682710542352194,0.0,0.0,0.0,0.35,0.0,0.0,0.0,0.0,0.0,1.5161773433571983,stabilize,85.0,2.0,0.0,0.0,-2.0,0.48382265664280166,0.0,0,0
1761142465.5353699,6.204709768295288,0.0,0.0,1.5451118289442727,0.0,0.0,0.2644407727497842,0.0,0.0,0.0,0.35,0.0,0.0,0.0,0.0,0.0,1.5451118289442727,stabilize,85.0,2.0,0.0,0.0,-2.0,0.4548881710557273,0.0,0,0
1761142465.6369345,6.3062744140625,0.0,0.0,1.5730295883427319,0.0,0.0,0.25081433221556854,0.0,0.0,0.0,0.35,0.0,0.0,0.0,0.0,0.0,1.5730295883427319,stabilize,85.0,2.0,0.0,0.0,-2.0,0.4269704116572681,0.0,0,0
1761142465.7387223,6.408062219619751,0.0,0.0,1.6000601600176396,0.0,0.0,0.23952502097271688,0.0,0.0,0.0,0.35,0.0,0.0,0.0,0.0,0.0,1.6000601600176396,stabilize,85.0,2.0,0.0,0.0,-2.0,0.3999398399823604,0.0,0,0
1761142465.841085,6.510424852371216,0.0,0.0,1.626204930338528,0.0,0.0,0.2320588176546772,0.0,0.0,0.0,0.35,0.0,0.0,0.0,0.0,0.0,1.626204930338528,stabilize,85.0,2.0,0.0,0.0,-2.0,0.373795069661472,0.0,0,0
1761142465.9453726,6.614712476730347,0.0,0.0,1.6522935271533925,0.0,0.0,0.23109248746155675,0.0,0.0,0.0,0.35,0.0,0.0,0.0,0.0,0.0,1.6522935271533925,stabilize,85.0,2.0,0.0,0.0,-2.0,0.3477064728466075,0.0,0,0
1761142466.0475974,6.716937303543091,0.0,0.0,1.6764752008167403,0.0,0.0,0.20921004343937777,0.0,0.0,0.0,0.35,0.0,0.0,0.0,0.0,0.0,1.6764752008167403,stabilize,85.0,2.0,0.0,0.0,-2.0,0.3235247991832597,0.0,0,0
1761142466.150125,6.819464921951294,0.0,0.0,1.6991128300511495,0.0,0.0,0.15089582455012812,0.0,0.0,0.0,0.35,0.0,0.0,0.0,0.0,0.0,1.6991128300511495,stabilize,85.0,2.0,0.0,0.0,-2.0,0.30088716994885045,0.0,0,0
1761142466.2544932,6.923833131790161,0.0,0.0,1.719574797300406,0.0,0.0,0.2056152224725416,0.0,0.0,0.0,0.6718010207759132,0.0,0.0,0.0,0.0,0.0,1.719574797300406,stabilize,85.0,2.0,0.0,0.0,-2.0,0.2804252026995939,0.0,0,0
1761142466.3564405,7.025780439376831,0.0,0.0,1.7390039271017943,0.0,0.0,0.20744340860595942,0.0,0.0,0.0,0.75,0.0,0.0,0.0,0.0,0.0,1.7390039271017943,stabilize,85.0,2.0,0.0,0.0,-2.0,0.2609960728982057,0.0,0,0
1761142466.4653826,7.134722471237183,0.0,0.0,1.7586631471906142,0.0,0.0,0.20102661809615452,0.0,0.0,0.0,0.75,0.0,0.0,0.0,0.0,0.0,1.7586631471906142,stabilize,85.0,2.0,0.0,0.0,-2.0,0.24133685280938577,0.0,0,0
1761142466.5685766,7.237916469573975,0.0,0.0,1.777134661663184,0.0,0.0,0.16799522837945222,0.0,0.0,0.0,0.5824895155233011,0.0,0.0,0.0,0.0,0.0,1.777134661663184,stabilize,85.0,2.0,0.0,0.0,-2.0,0.222865338336816,0.0,0,0
1761142466.6707156,7.340055465698242,0.0,0.0,1.793756432583848,0.0,0.0,0.18610942277107784,0.0,0.0,0.0,0.75,0.0,0.0,0.0,0.0,0.0,1.793756432583848,stabilize,85.0,2.0,0.0,0.0,-2.0,0.20624356741615202,0.0,0,0
1761142466.7749515,7.444291353225708,0.0,0.0,1.8109150965255931,0.0,0.0,0.18128057570308304,0.0,0.0,0.0,0.7333121491380947,0.0,0.0,0.0,0.0,0.0,1.8109150965255931,stabilize,85.0,2.0,0.0,0.0,-2.0,0.18908490347440687,0.0,0,0
1761142466.8805506,7.549890518188477,0.0,0.0,1.8277684599023676,0.0,0.0,0.16679728338108438,0.0,0.0,0.0,0.75,0.0,0.0,0.0,0.0,0.0,1.8277684599023676,stabilize,85.0,2.0,0.0,0.0,-2.0,0.17223154009763242,0.0,0,0
1761142466.9864955,7.655835390090942,0.0,0.0,1.843322936978218,0.0,0.0,0.16033628845826112,0.0,0.0,0.0,0.75,0.0,0.0,0.0,0.0,0.0,1.843322936978218,stabilize,85.0,2.0,0.0,0.0,-2.0,0.15667706302178197,0.0,0,0
1761142467.0909698,7.76030969619751,0.0,0.0,1.8582679606123937,0.0,0.0,0.16373136083256506,0.0,0.0,0.0,0.75,0.0,0.0,0.0,0.0,0.0,1.8582679606123937,stabilize,85.0,2.0,0.0,0.0,-2.0,0.14173203938760626,0.0,0,0
1761142467.1936715,7.863011360168457,0.0,0.0,1.8728430955691346,0.0,0.0,0.15387590327906978,0.0,0.0,0.0,0.6999170641939926,0.0,0.0,0.0,0.0,0.0,1.8728430955691346,stabilize,85.0,2.0,0.0,0.0,-2.0,0.12715690443086536,0.0,0,0
1761142467.2970285,7.9663684368133545,0.0,0.0,1.8870350786874597,0.0,0.0,0.15834797946563467,0.0,0.0,0.0,0.75,0.0,0.0,0.0,0.0,0.0,1.8870350786874597,stabilize,85.0,2.0,0.0,0.0,-2.0,0.11296492131254032,0.0,0,0
1761142467.4006064,8.0699462890625,0.0,0.0,1.9011848607652915,0.0,0.0,0.15351834571585807,0.0,0.0,0.0,0.75,0.0,0.0,0.0,0.0,0.0,1.9011848607652915,stabilize,85.0,2.0,0.0,0.0,-2.0,0.09881513923470853,0.0,0,0
1761142467.5065322,8.175872087478638,0.0,0.0,1.9150884179994803,0.0,0.0,0.13754139200119955,0.0,0.0,0.0,0.75,0.0,0.0,0.0,0.0,0.0,1.9150884179994803,stabilize,85.0,2.0,0.0,0.0,-2.0,0.08491158200051974,0.0,0,0
1761142467.6096885,8.279028415679932,0.0,0.0,1.9277132414364277,0.0,0.0,0.1329186825104308,0.0,0.0,0.0,0.6918151022332268,0.0,0.0,0.0,0.0,0.0,1.9277132414364277,stabilize,85.0,2.0,0.0,0.0,-2.0,0.07228675856357225,0.0,0,0
1761142467.7189097,8.388249635696411,0.0,0.0,1.9398714920315334,0.0,0.0,0.13756162330219857,0.0,0.0,0.0,0.75,0.0,0.0,0.0,0.0,0.0,1.9398714920315334,stabilize,85.0,2.0,0.0,0.0,-2.0,0.06012850796846658,0.0,0,0
1761142467.8231294,8.492469310760498,0.0,0.0,1.9518698126371297,0.0,0.0,0.127080758319472,0.0,0.0,0.0,0.75,0.0,0.0,0.0,0.0,0.0,1.9518698126371297,stabilize,85.0,2.0,0.0,0.0,-2.0,0.048130187362870336,0.0,0,0
1761142467.9268692,8.596209049224854,0.0,0.0,1.9632634499705757,0.0,0.0,0.13037641524137494,0.0,0.0,0.0,0.75,0.0,0.0,0.0,0.0,0.0,1.9632634499705757,stabilize,85.0,2.0,0.0,0.0,-2.0,0.03673655002942433,0.0,0,0
1761142468.0299053,8.69924521446228,0.0,0.0,1.9743696788152532,0.0,0.0,0.1206445403792903,0.0,0.0,0.0,0.75,0.0,0.0,0.0,0.0,0.0,1.9743696788152532,stabilize,85.0,2.0,0.0,0.0,-2.0,0.02563032118474684,0.0,0,0
1761142468.1343925,8.80373239517212,0.0,0.0,1.984771113138984,0.0,0.0,0.11570965271317407,0.0,0.0,0.0,0.75,0.0,0.0,0.0,0.0,0.0,1.984771113138984,stabilize,85.0,2.0,0.0,0.0,-2.0,0.015228886861015978,0.0,0,0
1761142468.2384348,8.907774686813354,0.0,0.0,1.9950679363897001,0.0,0.0,0.11923414018218514,0.0,0.0,0.0,0.75,0.0,0.0,0.0,0.0,0.0,1.9950679363897001,stabilize,85.0,2.0,0.0,0.0,-2.0,0.004932063610299853,0.0,0,0
1761142468.341039,9.01037883758545,0.0,0.0,2.0046224164049207,0.0,0.0,0.10203519087490731,0.0,0.0,0.0,0.7330310011661924,0.0,0.0,0.0,0.0,0.0,2.0046224164049207,stabilize,85.0,2.0,0.0,0.0,-2.0,0.004622416404920671,0.0,0,0
1761142468.4452074,9.11454725265503,0.0,0.0,2.013312826183094,0.0,0.0,0.10277734524049245,0.0,0.0,0.0,0.75,0.0,0.0,0.0,0.0,0.0,2.013312826183094,stabilize,85.0,2.0,0.0,0.0,-2.0,0.013312826183093929,0.0,0,0
1761142468.5480688,9.217408657073975,0.0,0.0,2.021387445447088,0.0,0.0,0.09367604803997964,0.0,0.0,0.0,0.75,0.0,0.0,0.0,0.0,0.0,2.021387445447088,stabilize,85.0,2.0,0.0,0.0,-2.0,0.021387445447087927,0.0,0,0
1761142468.6519098,9.321249723434448,0.0,0.0,2.0278926989917787,0.0,0.0,0.07615239604663052,0.0,0.0,0.0,0.75,0.0,0.0,0.0,0.0,0.0,2.0278926989917787,stabilize,85.0,2.0,0.0,0.0,-2.0,0.027892698991778708,0.0,0,0
1761142468.756741,9.42608094215393,0.0,0.0,2.0341675992506034,0.0,0.0,0.07960256891841078,0.0,0.0,0.0,0.75,0.0,0.0,0.0,0.0,0.0,2.0341675992506034,stabilize,85.0,2.0,0.0,0.0,-2.0,0.03416759925060342,0.0,0,0
1761142468.8602483,9.529588222503662,0.0,0.0,2.039636417708684,0.0,0.0,0.06338148474828978,0.0,0.0,0.0,0.75,0.0,0.0,0.0,0.0,0.0,2.039636417708684,stabilize,85.0,2.0,0.0,0.0,-2.0,0.03963641770868387,0.0,0,0
1761142468.9644797,9.633819580078125,0.0,0.0,2.0447292951438167,0.0,0.0,0.07292751173883764,0.0,0.0,0.0,0.75,0.0,0.0,0.0,0.0,0.0,2.0447292951438167,stabilize,85.0,2.0,0.0,0.0,-2.0,0.04472929514381674,0.0,0,0
1761142469.0666044,9.735944271087646,0.0,0.0,2.0499533168368766,0.0,0.0,0.07377203566011936,0.0,0.0,0.0,0.75,0.0,0.0,0.0,0.0,0.0,2.0499533168368766,stabilize,85.0,2.0,0.0,0.0,-2.0,0.04995331683687665,0.0,0,0
1761142469.1702173,9.83955717086792,0.0,0.0,2.0557345593171616,0.0,0.0,0.07402424683826535,0.0,0.0,0.0,0.727966834743317,0.0,0.0,0.0,0.0,0.0,2.0557345593171616,stabilize,85.0,2.0,0.0,0.0,-2.0,0.05573455931716165,0.0,0,0
1761142469.2756114,9.944951295852661,0.0,0.0,2.061819572315314,0.0,0.0,0.08045023038316318,0.0,0.0,0.0,0.7452454183481384,0.0,0.0,0.0,0.0,0.0,2.061819572315314,stabilize,85.0,2.0,0.0,0.0,-2.0,0.0618195723153141,0.0,0,0
1761142469.3789463,10.048286199569702,0.0,0.0,2.0675300275136608,0.0,0.0,0.07536300881289329,0.0,0.0,0.0,0.75,0.0,0.0,0.0,0.0,0.0,2.0675300275136608,stabilize,85.0,2.0,0.0,0.0,-2.0,0.06753002751366077,0.0,0,0
1761142469.4885373,10.157877206802368,0.0,0.0,2.0725856604515656,0.0,0.0,0.07216695470541801,0.0,0.0,0.0,0.75,0.0,0.0,0.0,0.0,0.0,2.0725856604515656,stabilize,85.0,2.0,0.0,0.0,-2.0,0.07258566045156556,0.0,0,0
1761142469.5924554,10.261795282363892,0.0,0.0,2.076593414920901,0.0,0.0,0.059168719453573854,0.0,0.0,0.0,0.75,0.0,0.0,0.0,0.0,0.0,2.076593414920901,stabilize,85.0,2.0,0.0,0.0,-2.0,0.0765934149209011,0.0,0,0
1761142469.6982234,10.367563247680664,0.0,0.0,2.0803233292182375,0.0,0.0,0.03979589669284171,0.0,0.0,0.0,0.6617736177600453,0.0,0.0,0.0,0.0,0.0,2.0803233292182375,stabilize,85.0,2.0,0.0,0.0,-2.0,0.08032332921823748,0.0,0,0
1761142469.8006778,10.470017671585083,0.0,0.0,2.08320995918415,0.0,0.0,0.0515454453780972,0.0,0.0,0.0,0.75,0.0,0.0,0.0,0.0,0.0,2.08320995918415,stabilize,85.0,2.0,0.0,0.0,-2.0,0.08320995918414997,0.0,0,0
1761142469.9053776,10.57471752166748,0.0,0.0,2.0861736084699256,0.0,0.0,0.04652004930293325,0.0,0.0,0.0,0.75,0.0,0.0,0.0,0.0,0.0,2.0861736084699256,stabilize,85.0,2.0,0.0,0.0,-2.0,0.08617360846992561,0.0,0,0
1761142470.0084617,10.677801609039307,0.0,0.0,2.0894931997476944,0.0,0.0,0.05434336947235011,0.0,0.0,0.0,0.75,0.0,0.0,0.0,0.0,0.0,2.0894931997476944,stabilize,85.0,2.0,0.0,0.0,-2.0,0.08949319974769443,0.0,0,0
1761142470.1123025,10.781642436981201,0.0,0.0,2.0933453753032367,0.0,0.0,0.05971356507915575,0.0,0.0,0.0,0.75,0.0,0.0,0.0,0.0,0.0,2.0933453753032367,stabilize,85.0,2.0,0.0,0.0,-2.0,0.09334537530323672,0.0,0,0
1761142470.2165978,10.885937690734863,0.0,0.0,2.0965362947404067,0.0,0.0,0.0512315289731839,0.0,0.0,0.0,0.7329513781026924,0.0,0.0,0.0,0.0,0.0,2.0965362947404067,stabilize,85.0,2.0,0.0,0.0,-2.0,0.0965362947404067,0.0,0,0
1761142470.3219297,10.991269588470459,0.0,0.0,2.1000983726105,0.0,0.0,0.0537061794530409,0.0,0.0,0.0,0.75,0.0,0.0,0.0,0.0,0.0,2.1000983726105,stabilize,85.0,2.0,0.0,0.0,-2.0,0.10009837261049981,0.0,0,0
1761142470.428025,11.097364902496338,0.0,0.0,2.103865737864187,0.0,0.0,0.05691642236530584,0.0,0.0,0.0,0.75,0.0,0.0,0.0,0.0,0.0,2.103865737864187,stabilize,85.0,2.0,0.0,0.0,-2.0,0.10386573786418696,0.0,0,0
1761142470.5325198,11.201859712600708,0.0,0.0,2.107762104915154,0.0,0.0,0.040826056736139475,0.0,0.0,0.0,0.6570073027555817,0.0,0.0,0.0,0.0,0.0,2.107762104915154,stabilize,85.0,2.0,0.0,0.0,-2.0,0.10776210491515403,0.0,0,0
1761142470.637927,11.3072669506073,0.0,0.0,2.110112744419359,0.0,0.0,0.04594025559545407,0.0,0.0,0.0,0.75,0.0,0.0,0.0,0.0,0.0,2.110112744419359,stabilize,85.0,2.0,0.0,0.0,-2.0,0.11011274441935903,0.0,0,0
1761142470.7410302,11.410370111465454,0.0,0.0,2.1130274618951197,0.0,0.0,0.04731674916992956,0.0,0.0,0.0,0.75,0.0,0.0,0.0,0.0,0.0,2.1130274618951197,stabilize,85.0,2.0,0.0,0.0,-2.0,0.1130274618951197,0.0,0,0
1761142470.8447812,11.514121055603027,0.0,0.0,2.1160095854649588,0.0,0.0,0.04982193065404993,0.0,0.0,0.0,0.75,0.0,0.0,0.0,0.0,0.0,2.1160095854649588,stabilize,85.0,2.0,0.0,0.0,-2.0,0.11600958546495876,0.0,0,0
1761142470.9496717,11.619011640548706,-0.00019358971770315245,0.0,2.118103176294757,-0.013573510246186245,0.0,-0.0058492100954055486,0.0,0.08759576363151877,0.0,0.35,0.0,-0.3,0.0,-0.00019358971770315245,0.0,2.118103176294757,auto,85.0,2.1119176745391486,2.999941510843493,0.0,0.0,3.6724884869866203,0.08759576363151877,0,0
1761142471.054426,11.723765850067139,-0.01658041866886002,0.0,2.119417918648347,-0.4451460714472184,0.0,0.0026060656310479924,0.0,0.796964729905672,0.0,0.75,0.0,-0.3,0.0,-0.01658041866886002,0.0,2.119417918648347,auto,85.0,2.1133305863151093,2.9912056458265073,0.0,0.0,3.6794985152409314,0.796964729905672,0,0
1761142471.1638596,11.833199501037598,-0.13800954613277805,0.0,2.0861368039923214,-1.7850852930651673,0.0,-0.9761305836492669,0.0,2.360027577179412,0.0,0.75,0.0,-0.3,0.0,-0.13800954613277805,0.0,2.0861368039923214,auto,85.0,2.089215298633563,2.91724359241295,0.0,0.0,3.699532200909301,2.360027577179412,0,0
1761142471.2685575,11.937897443771362,-0.3314985403592894,0.0,1.865484274118212,-1.481783606493766,0.0,-3.1255039617576754,0.0,-1.868848008903946,0.0,0.75,0.0,0.03,0.0,-0.3314985403592894,0.0,1.865484274118212,auto,85.0,1.8902017009917302,2.7788562948185564,0.0,0.0,3.6268910622868944,1.868848008903946,0,0
1761142471.370553,12.03989291191101,-0.4222438801819534,0.0,1.5197869430594724,-0.5592392249205047,0.0,-3.3352099894010694,0.0,0.09548803881138102,0.0,0.75,0.0,-0.03,0.0,-0.4222438801819534,0.0,1.5197869430594724,auto,85.0,1.5485687510831685,2.7085042838012554,0.0,0.0,3.480134540298448,0.09548803881138102,0,0
1761142471.4738803,12.14322018623352,-0.5239232471061674,0.0,1.1718490074291972,-1.5942542195058051,0.0,-3.7850187668342476,0.0,2.1504039146450626,0.0,0.75,0.0,-0.03,0.0,-0.5239232471061674,0.0,1.1718490074291972,auto,85.0,1.2032484566802595,2.644124956991388,0.0,0.0,3.3778335541732276,2.1504039146450626,0,0
1761142471.5764675,12.245807409286499,-0.7044648663704873,0.0,0.6763658653096257,-1.486781534732546,0.0,-5.833833665303263,0.0,-2.027502699135811,0.0,0.75,0.0,0.03,0.0,-0.7044648663704873,0.0,0.6763658653096257,auto,85.0,0.7287059080010789,2.5178746187268914,0.0,0.0,3.2925586617361398,2.027502699135811,0,0
1761142471.679753,12.349092960357666,-0.7940349164320838,0.0,0.04387343537936282,-0.48906017393460877,0.0,-6.05057813682356,0.0,0.04178002709812412,0.0,0.75,0.0,-0.03,0.0,-0.7940349164320838,0.0,0.04387343537936282,auto,85.0,0.1025003054103205,2.4478601408149485,0.0,0.0,3.2421919191396933,0.04178002709812412,0,0
1761142471.7844353,12.45377516746521,-0.888324507894001,0.0,-0.5870571806669429,-1.5071603738129529,0.0,-6.407421399379606,0.0,2.196380324738105,0.0,0.75,0.0,-0.03,0.0,-0.888324507894001,0.0,-0.5870571806669429,auto,85.0,-0.5283306550392584,2.3885772572248802,0.0,0.0,3.329072139742823,2.196380324738105,0,0
1761142471.8881903,12.557530164718628,-1.0564064657107324,0.0,-1.3556243980439349,-1.2796295565881302,0.0,-8.316297972585115,0.0,-1.8849990031764752,0.0,0.75,0.0,0.03,0.0,-1.0564064657107324,0.0,-1.3556243980439349,auto,85.0,-1.2780123604238243,2.270065508327596,0.0,0.0,3.592093164526003,1.8849990031764752,0,0
1761142471.991434,12.660773992538452,-1.128110169557557,0.0,-2.2269753252887763,-0.41983243766698125,0.0,-8.242447194743166,0.0,0.25483494217652813,0.0,0.75,0.0,-0.03,0.0,-1.128110169557557,0.0,-2.2269753252887763,auto,85.0,-2.1485329578716006,2.2132410349650566,0.0,0.0,4.015475933362043,0.25483494217652813,0,0
1761142472.0971956,12.766535520553589,-1.2260065760810486,0.0,-3.1018721555293016,-1.5158934072174344,0.0,-8.759946074625669,0.0,2.504887477957772,0.0,0.75,0.0,-0.03,0.0,-1.2260065760810486,0.0,-3.1018721555293016,auto,85.0,-3.016084877881558,2.1527457920415958,0.0,0.0,4.586674005675831,2.504887477957772,0,0
1761142472.1986678,12.86800765991211,-1.3714826313066926,0.0,-4.083426878013509,-0.9536637245906611,0.0,-10.361539557495263,0.0,-1.567998485869829,0.0,0.75,0.0,0.03,0.0,-1.3714826313066926,0.0,-4.083426878013509,auto,85.0,-3.979083399104505,2.047684968853032,0.0,0.0,5.325887920907195,1.567998485869829,0,0
1761142472.3051102,12.97445011138916,-1.42265761489994,0.0,-5.172605386064325,-0.447173178118188,0.0,-9.911030874358346,0.0,0.7056791484531552,0.0,0.75,0.0,-0.03,0.0,-1.42265761489994,0.0,-5.172605386064325,auto,85.0,-5,10.0,0.0,0.0,12.539256495788468,0.7056791484531552,0,0
1761142472.4066496,13.075989484786987,-1.5265707778165722,0.0,-6.200420958616574,-1.478456907652781,0.0,-10.75969683463084,0.0,2.946814641579828,0.0,0.75,0.0,-0.03,0.0,-1.5265707778165722,0.0,-6.200420958616574,auto,85.0,-6.087507624935667,1.9416661427157234,0.0,0.0,7.104497688154668,2.946814641579828,0,0
1761142472.5107348,13.180074691772461,-1.643334672684319,0.0,-7.398783088953712,-0.5025366268773149,0.0,-11.858255730938414,0.0,-1.0237178187350047,0.0,0.75,0.0,0.03,0.0,-1.643334672684319,0.0,-7.398783088953712,auto,85.0,-7.2659861873194505,1.853902584713675,0.0,0.0,8.183682522674012,1.0237178187350047,0,0
1761142472.6165082,13.285848140716553,-1.6783276144444628,0.0,-8.61480820473739,-0.6396096029777724,0.0,-11.214572906287888,0.0,1.311123290603867,0.0,0.75,0.0,-0.03,0.0,-1.6783276144444628,0.0,-8.61480820473739,auto,85.0,-8.487043152474376,1.8295008383624192,0.0,0.0,9.301600983633525,1.311123290603867,0,0
1761142472.7189493,13.388289213180542,-1.7950002043537248,0.0,-9.81640789054997,-1.2587399301188755,0.0,-12.512359667316636,0.0,-2.62827293760604,0.0,0.75,0.0,0.03,0.0,-1.7950002043537248,0.0,-9.81640789054997,auto,85.0,-9.681853596430726,1.7528351620814986,0.0,0.0,10.437863749876229,2.62827293760604,0,0
1761142472.824459,13.493798971176147,-1.863433032688767,0.0,-11.171877606446222,-0.11748970110816973,0.0,-12.69184333573798,0.0,-0.24407858360858145,0.0,0.75,0.0,-0.03,0.0,-1.863433032688767,0.0,-11.171877606446222,auto,85.0,-11.030814854686753,1.6966375006550078,0.0,0.0,11.725397709920001,0.24407858360858145,0,0
1761142472.9285443,13.597884178161621,-1.9064264561591109,0.0,-12.458316100697301,-0.9856408515584716,0.0,-12.42550862243913,0.0,2.139000637996319,0.0,0.75,0.0,-0.03,0.0,-1.9064264561591109,0.0,-12.458316100697301,auto,85.0,-12.324928661281156,1.6721693941660654,0.0,0.0,12.962098145163775,2.139000637996319,0,0
1761142473.032284,13.701623916625977,-2.0183434378752305,0.0,-13.824351553846968,-0.6925876697460099,0.0,-13.777180550535117,0.0,-1.7032825707642816,0.0,0.75,0.0,0.03,0.0,-2.0183434378752305,0.0,-13.824351553846968,auto,85.0,-13.66732788921509,1.5930368137445576,0.0,0.0,14.288273625814298,1.7032825707642816,0,0
1761142473.1360612,13.805401086807251,-2.039769789793471,0.0,-15.229002815574834,-0.15091714102042214,0.0,-13.074081793998891,0.0,0.6943353876086257,0.0,0.75,0.0,-0.03,0.0,-2.039769789793471,0.0,-15.229002815574834,auto,85.0,-15.087725921843257,1.5729615092864213,0.0,0.0,15.651656595905038,0.6943353876086257,0,0
1761142473.2397745,13.909114360809326,-2.1152916856979176,0.0,-16.595831985895828,-1.1254415406166296,0.0,-13.7351243368948,0.0,-3.127200670874473,0.0,0.75,0.0,-0.03,0.0,-2.1152916856979176,0.0,-16.595831985895828,auto,85.0,-16.45081138931322,1.5272999147349826,0.0,0.0,16.990883228120527,3.127200670874473,0,0
1761142473.3451262,14.014466047286987,-2.184435834423129,0.0,-18.095117117001514,-0.04801923606684788,0.0,-14.232398457109404,0.0,-0.6273661999072251,0.0,0.75,0.0,0.03,0.0,-2.184435834423129,0.0,-18.095117117001514,auto,85.0,-17.93266285030785,1.4716333943736255,0.0,0.0,18.460772077130354,0.6273661999072251,0,0
1761142473.4492388,14.118578672409058,-2.1997260565959427,0.0,-19.52709934974406,-0.6494348351338792,0.0,-13.572800789120768,0.0,1.84254204503838,0.0,0.75,0.0,-0.03,0.0,-2.1997260565959427,0.0,-19.52709934974406,auto,85.0,-19.38197501979805,1.4643769366466612,0.0,0.0,19.867895202055607,1.84254204503838,0,0
1761142473.554352,14.223691940307617,-2.293336822110728,0.0,-21.020202586090555,-0.6144944986906435,0.0,-14.817280095754727,0.0,-1.8718225207422585,0.0,0.75,0.0,0.03,0.0,-2.293336822110728,0.0,-21.020202586090555,auto,85.0,-20.85554332851526,1.3997868460510476,0.0,0.0,21.342166693862758,1.8718225207422585,0,0
