timestamp,simulation_time,position_x,position_y,position_z,velocity_x,velocity_y,velocity_z,attitude_roll,attitude_pitch,attitude_yaw,angular_velocity_x,angular_velocity_y,angular_velocity_z,acceleration_x,acceleration_y,acceleration_z,motor_speed_1,motor_speed_2,motor_speed_3,motor_speed_4,control_throttle,control_roll,control_pitch,control_yaw,estimated_position_x,estimated_position_y,estimated_position_z,estimated_velocity_x,estimated_velocity_y,estimated_velocity_z,estimated_attitude_roll,estimated_attitude_pitch,estimated_attitude_yaw,sensor_accel_x,sensor_accel_y,sensor_accel_z,sensor_gyro_x,sensor_gyro_y,sensor_gyro_z,sensor_gps_x,sensor_gps_y,sensor_gps_z,sensor_gps_vx,sensor_gps_vy,sensor_gps_vz,sensor_baro_altitude,sensor_mag_x,sensor_mag_y,sensor_mag_z,flight_mode,battery_level,gps_fix,waypoint_index,mission_complete,setpoint_altitude,setpoint_position_x,setpoint_position_y,setpoint_position_z,position_error,attitude_error
1760946945.8306687,0.10740542411804199,0.44037038440785603,-0.464648107504082,-0.3892166581323177,19.167259029296467,27.834323156836472,-2.8606279304587825,1.1729672775511006,3.1216554645934425,-0.01842838397783585,,,,,,,,,,,0.7,-0.3,-0.3,-0.0010748176584291546,-1.0623986678607629,0.7865039532685395,-1.8906125702696024,-18.630940143923084,35.90981876929857,-25.268903565580437,1.2580569882529682,1.3202419038955175,0.008612888250988854,,,,,,,,,,,,,,,,,auto,85.0,True,0,False,-10.0,15.0,0.0,-10.0,18.010591437242464,1.8236831556873616
1760946945.9386804,0.21541714668273926,4.451893021934225,4.41199113846937,0.4348214311372542,39.84864331768165,52.2718275822599,24.42477402201341,1.9253376449416555,-2.50879302133445,0.04257450276351211,,,,,,,,,,,0.7,-0.3,-0.3,-0.05047966870920893,-0.1366002669616368,3.2464450711685355,-0.8635544558430439,16.72162961253025,3.271590439466943,-26.555596705275768,1.6441248745273307,3.1012640589926592,0.08322232571471377,,,,,,,,,,,,,,,,,auto,85.0,True,0,False,-10.0,15.0,0.0,-10.0,17.975836849038295,3.511112547631662
1760946946.0461643,0.32290101051330566,9.59651994932295,11.415565383974494,1.8155961912926148,45.245494437535555,45.32429916640445,28.646552785002534,2.372564834963843,2.237782575982322,-0.011634121645671892,,,,,,,,,,,0.7,0.3,0.3,-0.00033604254815533204,6.315598152985041,4.449792602786419,-3.0416941290639534,90.22330833132874,1.859003566213703,-67.27505222459469,-2.9275153313914495,-2.73453673126083,0.04863873098095542,,,,,,,,,,,,,,,,,auto,85.0,True,0,False,-10.0,15.0,0.0,-10.0,11.98488674296727,4.006295405520928
1760946946.1543221,0.4310588836669922,13.200923676363015,15.824601106606845,4.571745661420282,14.386856523950996,4.201553366942804,21.74837305767904,-2.0428702676308528,0.9506210616360458,-0.009245534602450596,,,,,,,,,,,0.7,0.3,0.3,-0.05144051273367162,17.53548440209275,9.658593874816265,-5.742512254058663,93.01444062876419,10.24929976309165,-37.68378428973891,-2.211385707778071,-2.9714692307520116,0.08506761419082555,,,,,,,,,,,,,,,,,auto,85.0,True,0,False,-10.0,15.0,0.0,-10.0,10.855566254172766,3.705009127769484
1760946946.263699,0.540435791015625,13.446747813774849,14.446935695640267,8.405840042186059,-1.5185318815231348,-21.654939773775155,38.031200665267015,1.1240860741947578,-1.6242020477207075,-0.042225650345489016,,,,,,,,,,,0.7,0.3,-0.3,0.12725443903365447,23.69609745330028,12.910475488058443,-7.324570528397372,78.19673881698978,-1.313253927503374,-8.74975307393094,-2.3192108305574926,1.3674088031984797,-0.21268269113225677,,,,,,,,,,,,,,,,,auto,85.0,True,0,False,-10.0,15.0,0.0,-10.0,15.794315784565452,2.700699842401434
1760946946.3729792,0.6497159004211426,15.46402450472481,12.976938817685523,11.579719781273063,7.301937853494725,-9.583595283484103,18.598733117270314,-0.5416875933318075,-2.0096848306006563,0.11302565988160398,,,,,,,,,,,0.7,0.3,-0.3,-0.07383072065323529,27.288405509878306,12.106800947378225,-8.955310097419375,86.69630836851472,-17.77864018400099,9.14428922541242,-2.5150263030235402,2.8847800594720447,0.12283919751054675,,,,,,,,,,,,,,,,,auto,85.0,True,0,False,-10.0,15.0,0.0,-10.0,17.282098140769822,3.8291517030372177
1760946946.4811375,0.7578742504119873,16.75601237058256,12.520485365422942,14.544228312522767,-1.7742763451954104,2.384114306254782,24.762906977679236,2.538448023430245,-1.0203234732441433,0.05379181115373651,,,,,,,,,,,0.7,-0.3,-0.3,0.0512518638127301,39.45000686665655,10.799847123789668,-13.075008176521592,146.66279830918705,-4.977778527259568,-32.34711762075939,1.0283164134267186,0.07877608733484183,-0.08442003986278297,,,,,,,,,,,,,,,,,auto,85.0,True,0,False,-10.0,15.0,0.0,-10.0,26.905300759561396,1.0347787498731362
1760946946.5900414,0.8667781352996826,15.257773514984306,10.9416402323349,11.96040698105749,10.521891828666938,-29.16459055638952,-61.90746651828451,1.5292473574644807,3.13080705292579,-0.03679239631881726,,,,,,,,,,,0.7,0.3,0.3,0.04515316900718113,57.34042304963674,9.912947707273284,-16.65673982829781,190.04128921746786,-14.430099979275415,-74.31943900712787,-1.359717132439448,-0.9696753665316173,-0.0724423979862222,,,,,,,,,,,,,,,,,auto,85.0,True,0,False,-10.0,15.0,0.0,-10.0,43.99193268556169,1.6716306104320942
1760946946.6976342,0.9743709564208984,12.85693319220169,7.958454693665332,5.25978429511918,-39.98280591067939,-27.11325083870893,-61.57786037339186,-1.953754400891612,2.0020925386741384,-0.057803806864358674,,,,,,,,,,,0.7,-0.3,0.3,0.0007342260991089221,54.91473567125012,9.353391222703737,-11.07476134020197,114.36355796598477,6.807054277167656,-59.794521915104475,0.6929154431286155,-1.1223289578282867,0.04217145549095097,,,,,,,,,,,,,,,,,auto,85.0,True,0,False,-10.0,15.0,0.0,-10.0,41.01008611316381,1.3196713729426273
1760946946.8055212,1.0822579860687256,6.960569259637902,7.257903851241599,-1.6964314111379826,-27.699465752718098,7.580901341038226,-61.491609192525814,-0.29811037642428073,-1.1595598929725235,0.17679316926303773,,,,,,,,,,,0.7,-0.3,-0.3,-0.14449670482091356,47.42156680834613,10.206838707648231,-4.5374721586185345,56.813081901281954,-13.64503088862686,-64.91334327405548,3.1200714249157513,1.419843423672927,0.24148765313246795,,,,,,,,,,,,,,,,,auto,85.0,True,0,False,-10.0,15.0,0.0,-10.0,34.42639628439005,3.4364396300442253
1760946946.912979,1.1897156238555908,4.251041756320142,7.535306505779541,-8.547463236195172,-21.155372508405424,1.3718017446255706,-54.66397267949163,-2.9381040240392986,-2.489264825395032,0.015550292868646138,,,,,,,,,,,0.7,-0.3,0.3,0.0026448429099966324,27.538475562652717,8.86356684946344,0.9375455809491694,34.87018219808937,3.064953545884373,-67.10944628609461,1.1707352423187618,-2.5317136825623825,0.04995974628800842,,,,,,,,,,,,,,,,,auto,85.0,True,0,False,-10.0,15.0,0.0,-10.0,18.852217112729402,2.7897475072719238
1760946947.0220196,1.2987563610076904,0.4808238400794268,7.147636729103297,-11.745793593378398,-49.41645714904673,0.2713569538483176,-14.055278752608231,-0.739846161970503,-2.08264733989684,-0.08121297167365896,,,,,,,,,,,0.42999999999999994,0.3,0.3,0.08600961205669048,33.56715371490596,10.489018533096745,6.6091387079923685,73.923178258582,25.543619375728266,-70.4075319592237,-2.5655998916496094,-1.7929764605512615,-0.14133057525809373,,,,,,,,,,,,,,,,,auto,85.0,True,0,False,-10.0,15.0,0.0,-10.0,27.03002396376895,3.1332158756820765
1760946947.1297956,1.4065322875976562,-4.012357821548034,7.212020696533504,-12.217414842773033,-58.36995072188774,0.8010594609908672,-1.3089202690088313,1.725747995895993,-2.0293540231923535,0.12453617053699868,,,,,,,,,,,0.42999999999999994,-0.3,0.3,-0.1325404345115151,42.558148357159645,13.493837445584834,8.026782890349692,96.4521803751536,27.503742165467035,-79.43048452543528,2.420362648613061,-2.3995753631505563,0.22174024295731667,,,,,,,,,,,,,,,,,auto,85.0,True,0,False,-10.0,15.0,0.0,-10.0,35.587920580709586,3.415448141838363
1760946947.2378042,1.5145409107208252,-7.128253954270745,4.545221022079716,-11.522790804923234,-19.91666625293205,-50.33249377289837,10.510402661236284,-2.367924856774508,-1.7643957338748448,-0.0993976889480569,,,,,,,,,,,0.7,0.3,0.3,0.0027518738798349685,32.63525487971633,13.851869857737123,6.851634605814607,46.89837210085817,24.506633108782726,-115.9643162785679,-1.3977363651873156,-0.9551478069346745,-0.04011083484056438,,,,,,,,,,,,,,,,,auto,85.0,True,0,False,-10.0,15.0,0.0,-10.0,28.05091980873592,1.6933939762296233
1760946947.3449612,1.6216979026794434,-7.43250902723308,-0.15235795067798452,-8.390571177173571,1.2066850755379868,-68.6566325926668,31.626249914595974,0.6160685138770811,-2.940948781946061,-0.0681997584849902,,,,,,,,,,,0.7,0.3,0.3,0.07292146013408367,23.038798619740835,11.052399772668972,4.43086375004924,61.563798269091045,6.225941773476558,-62.49523301925596,-1.1323974228600613,-0.6028793113642253,-0.12286920416466401,,,,,,,,,,,,,,,,,auto,85.0,True,0,False,-10.0,15.0,0.0,-10.0,19.875302577725087,1.288752974275198
1760946947.4541755,1.730912208557129,-11.566840751622113,-5.364427379168063,-2.76191494814411,-62.635129988394844,-28.28127744156459,39.41869733154784,1.5541246177170254,-2.902209907922034,0.21194319616390545,,,,,,,,,,,0.7,-0.04363463939739028,0.3,-0.09244403670627309,20.462553137054293,5.094912149643913,5.602752697352129,50.18913890567404,-15.07246451826477,45.62093557634694,-0.4057935696060014,-0.6847169066092592,0.1558337576375384,,,,,,,,,,,,,,,,,auto,85.0,True,0,False,-10.0,15.0,0.0,-10.0,17.298656257711464,0.8110424300550303
1760946947.5642488,1.8409855365753174,-17.48598923985449,-6.491884571336911,1.4800905085393063,-45.11143607418087,-10.149847182361771,23.966852094176698,-1.5983347760404991,-1.3110631171742555,-0.20143492482639858,,,,,,,,,,,0.7,0.3,-0.3,0.090004525961768,2.264311692122554,-3.9834905551724185,3.6104937754619053,3.863908287968054,-45.51969826467611,78.4152494219388,-2.1630393677618667,0.8753981502576961,-0.14705076803773962,,,,,,,,,,,,,,,,,auto,85.0,True,0,False,-10.0,15.0,0.0,-10.0,19.060731740687224,2.33809434290893
1760946947.6722608,1.9489974975585938,-22.96118935882092,-6.065508941868035,3.4714965663381694,-61.053606915140065,1.3563498514827916,13.080079263163261,2.0510513547952978,-2.6102720334206055,0.08716917317352837,,,,,,,,,,,0.7,0.3,-0.3,-0.00255054069825486,-1.0396969796351156,-7.740168655910356,2.0468813872454916,27.392604793643045,-42.80399494073992,79.9500906167045,-1.9745702103342666,2.435880897076609,0.012027057941081002,,,,,,,,,,,,,,,,,auto,85.0,True,0,False,-10.0,15.0,0.0,-10.0,21.50138230855902,3.135695761773609
1760946947.7810578,2.0577945709228516,-26.502965687924124,-7.095446741252713,5.746349009068656,-39.61517682284583,-13.22511301657961,16.651786424515056,-1.1784136701505803,-2.416598708600637,0.3427880243277181,,,,,,,,,,,0.7,-0.3,-0.3,-0.2,-4.5148350918992355,-12.657299833762055,-2.081639198366656,5.02830257296916,-27.323778490005722,28.287257452927047,1.2118100551990942,1.7938923483242648,0.35802158021057223,,,,,,,,,,,,,,,,,auto,85.0,True,0,False,-10.0,15.0,0.0,-10.0,24.57104933718986,2.1942453871785745
1760946947.8896708,2.166407585144043,-30.853129244047484,-9.283745793374358,7.648095369658506,-43.58835773814459,-46.38244281877193,5.20609393306381,3.0266532056592834,1.940362941099119,-0.31806215736098176,,,,,,,,,,,0.7,0.3,0.3,0.14990282482240844,-8.664544563539119,-13.53975125207309,-4.705150710445578,3.4213118710312256,-37.78819871109292,37.21632478008091,-2.0693491632568275,-2.8813302671760597,-0.24541607675971155,,,,,,,,,,,,,,,,,auto,85.0,True,0,False,-10.0,15.0,0.0,-10.0,27.773565892172336,3.555910448640225
1760946947.9974747,2.2742114067077637,-34.819746974813064,-12.246217037177267,6.863624801289995,-35.092769361695524,-7.550758962051088,0.5980361131246413,3.082309717610143,-1.1925598360664067,-0.06433918802252894,,,,,,,,,,,0.7,-0.3,0.3,0.0736352544080503,-14.486248640750146,-19.01975905538901,-6.6224409113040466,-13.85281424578662,-64.65264509721445,-29.69000608833266,1.634609381645834,-0.8751650313647644,-0.12978512073280749,,,,,,,,,,,,,,,,,auto,85.0,True,0,False,-10.0,15.0,0.0,-10.0,35.25050352586222,1.8586839000356932
1760946948.1067321,2.3834688663482666,-38.04598693791845,-12.241807053054387,6.360787438642594,-31.641770395734817,10.905649807863098,-2.0431712084324083,-1.6692110163961125,0.005523961874286257,0.4121606211616766,,,,,,,,,,,0.7,-0.3,0.21246698261209668,-0.2,-17.654589343467,-26.872017913705324,-6.924058229092442,-17.772725626820872,-84.82712204812532,-0.87866372279346,2.6575291600000233,0.25041904181057484,0.4246076830423483,,,,,,,,,,,,,,,,,auto,85.0,True,0,False,-10.0,15.0,0.0,-10.0,42.4015208420993,2.702861930852249
1760946948.2164464,2.493183135986328,-39.88776112264754,-10.735785330213043,4.269533825952088,-18.121180190874167,17.968749978165988,-41.5976045311219,2.7095507631723486,-2.505961966071097,-0.319833352783598,,,,,,,,,,,0.7,-0.3,0.3,0.14168726543888896,-26.376274901382878,-30.19202661077537,-4.981322591270621,-30.531521231412235,-87.80476662772242,-0.06270479318981792,0.660424956810256,-1.4293044876505039,-0.22959810144130066,,,,,,,,,,,,,,,,,auto,85.0,True,0,False,-10.0,15.0,0.0,-10.0,51.46592774363895,1.5911592409878867
1760946948.3234043,2.6001410484313965,-42.05507336009924,-8.817064926958027,0.8951910044283132,-21.17702062326822,33.166952371548696,-24.701791805239218,1.606258203206178,0.6854267970643565,-0.2592846304304737,,,,,,,,,,,0.7,-0.3,-0.3,0.2,-33.87371485335013,-25.863371119719233,-3.0067903650831287,14.969816533616417,-66.41037532137719,-26.138719740016022,0.5584984648743618,0.7880597036340733,-0.3711513017373675,,,,,,,,,,,,,,,,,auto,85.0,True,0,False,-10.0,15.0,0.0,-10.0,55.73561653234669,1.0347521058399372
1760946948.4311635,2.707900285720825,-44.78492555049832,-3.913087701230291,-0.963690837463949,4.19762283533473,44.36434083577835,3.1986113197261137,-2.9878762220081527,1.9239091672149773,0.45246133563949875,,,,,,,,,,,0.7,0.3,-0.3,-0.2,-32.03528778601939,-34.35383442287042,-2.376073944531302,25.840362911001208,-84.55644476030129,-54.70610498343078,-3.0562076298998684,0.6066748077257255,0.44553173751443825,,,,,,,,,,,,,,,,,auto,85.0,True,0,False,-10.0,15.0,0.0,-10.0,58.74205039975125,3.147532037727313
1760946948.5403707,2.8171074390411377,-45.34971746716535,-1.2899795650514656,-2.065397322366621,-13.501032923086075,34.9109107388203,-9.177299861911552,-2.692029243311031,-1.6065315976328365,-0.12479226204899543,,,,,,,,,,,0.7,-0.3,-0.3,0.0038506699594828275,-31.39071086411774,-33.002846517961146,-0.6235797270395276,46.09471470354647,-80.89639831276146,-35.9725527655068,2.395606893519378,2.2794809304128534,-0.03905550297124133,,,,,,,,,,,,,,,,,auto,85.0,True,0,False,-10.0,15.0,0.0,-10.0,57.69924774120938,3.307036593795985
1760946948.6493738,2.9261105060577393,-47.81042593654954,-1.643538186722496,-1.98686116194657,-6.4478351068088315,-0.6145590259330671,9.901319260858859,-0.958259157842437,-0.9968412840495507,-0.47388307875047836,,,,,,,,,,,0.7,-0.3,-0.06831754860276784,0.2,-37.47476616220555,-20.73091639949891,-0.3345374672888951,8.982449982566393,-57.657683943563136,-37.45752898284644,2.644721688302334,-0.3293004606901374,-0.4752753800312789,,,,,,,,,,,,,,,,,auto,85.0,True,0,False,-10.0,15.0,0.0,-10.0,57.243280343743464,2.7071901094772346
1760946948.7579422,3.0346789360046387,-48.30926342468769,-0.5066866490728753,-4.760902134432911,-7.627203430693022,6.852884977267283,-48.431125616761484,-1.336281022224193,2.9812341817881616,0.5019806944672719,,,,,,,,,,,0.7,-0.3,0.15741749520855572,-0.2,-39.73777878261719,-19.914366123273,0.8112869385698712,20.229966303646137,-41.34902868177876,-42.64218625490924,1.6648689314304022,-0.5112123629094741,0.3262034678479841,,,,,,,,,,,,,,,,,auto,85.0,True,0,False,-10.0,15.0,0.0,-10.0,59.242639453476336,1.7718733987702813
1760946948.8670707,3.1438074111938477,-49.60977330527806,-2.026414278732135,-8.231361442911608,-9.168995577640207,-0.7631058080522006,-16.415400741725907,-2.571136314770947,-2.2563978503230815,0.5999048771633595,,,,,,,,,,,0.7,0.3,-0.3,-0.2,-42.28632512840234,-14.71061444381053,3.208827358946645,10.714793801875167,-11.800536415083737,-36.997747559219825,-2.445609703022577,0.5941711357427172,0.5656500523012189,,,,,,,,,,,,,,,,,auto,85.0,True,0,False,-10.0,15.0,0.0,-10.0,60.601966504643435,2.579536031874015
1760946948.975225,3.2519617080688477,-51.05949765643231,-1.767811110525347,-5.875223279645006,-27.85551925752647,22.517413061014654,25.7046457847566,-1.1685403346725807,1.4126254702409013,-0.6036573844748745,,,,,,,,,,,0.7,0.3,0.3,0.2,-43.05625228024115,-11.405438855852063,4.248656945867068,12.116101187267105,6.377665832548567,-39.32455935591884,-1.5926773676303505,-2.6806183383472435,-0.455072090981393,,,,,,,,,,,,,,,,,auto,85.0,True,0,False,-10.0,15.0,0.0,-10.0,60.857511361232895,3.1510992496644175
1760946949.0825915,3.359328269958496,-54.26179089052068,-1.1400824183688616,-3.7206133688083756,-36.09221111043767,2.685561176925779,-1.899821779338815,-3.02482806075822,0.7838695092135887,-0.8363251933778142,,,,,,,,,,,0.7,0.3,-0.3,0.2,-40.27147024015483,-14.01756415529669,0.6679824585855614,34.40995573041364,-36.12212255876248,-128.35525946614578,-2.4828759832719376,2.0138244082735897,-0.9336428668817794,,,,,,,,,,,,,,,,,auto,85.0,True,0,False,-10.0,15.0,0.0,-10.0,58.01063158674338,3.3304430483865497
1760946949.189889,3.466625690460205,-60.20084992189571,-1.8353771718719338,-3.4309095406986896,-72.32493254048738,-25.361418911193862,8.570099841431016,2.27130369237907,0.566375054850082,0.3644824420757494,,,,,,,,,,,0.7,-0.3,-0.3,-0.11274760557277061,-43.76912059622282,-11.949949621764146,-0.7667965062423662,9.553587075398603,-29.382824022256013,-64.42373778215969,0.6772107691831526,1.613471809018486,0.16238999753775651,,,,,,,,,,,,,,,,,auto,85.0,True,0,False,-10.0,15.0,0.0,-10.0,60.678355930044944,1.7573492014097072
1760946949.2991338,3.5758705139160156,-66.7874818878402,-6.056484311952712,-4.332401737183969,-74.28353112734453,-51.539844473774274,-25.829332111287876,2.7217562320439046,2.4640138731355856,0.9528210827518667,,,,,,,,,,,0.7,-0.3,-0.3,-0.2,-39.57475176046817,-16.517397783301956,1.6442925443035254,49.74551642792472,-44.45351339113871,-30.764724619581457,2.2263034447793717,0.19591333781602413,0.8808905692572859,,,,,,,,,,,,,,,,,auto,85.0,True,0,False,-10.0,15.0,0.0,-10.0,58.196370231363005,2.4022442130593507
1760946949.4071076,3.6838443279266357,-73.11525842123211,-10.006483851889554,-9.217269107877748,-52.80231816088222,-27.548695635858607,-36.08454325595683,0.6649719558075843,2.617946479530553,-0.03787732026012122,,,,,,,,,,,0.7,-0.3,-0.3,0.014059346485639461,-35.76944993030078,-24.60347713128491,4.6540850661010085,48.42500431544288,-69.62349788493397,-61.75821731560682,1.7317561948780864,1.2500633947563147,0.04931493051556063,,,,,,,,,,,,,,,,,auto,85.0,True,0,False,-10.0,15.0,0.0,-10.0,58.28902420095486,2.1363684073165063
1760946949.5150805,3.7918171882629395,-77.68809243457376,-13.655580267786561,-11.079732781087904,-43.92464461520868,-21.28882644073583,-0.002678339932357332,-2.249413570980578,2.8894281356641733,-1.121083584320819,,,,,,,,,,,0.7,0.3,-0.3,0.2,-29.373167655730324,-35.06561957881881,7.207854411210973,65.76979266274377,-128.6322004408142,-59.472137624678524,-0.7069775846791434,1.3646821667102729,-0.952017401925407,,,,,,,,,,,,,,,,,auto,85.0,True,0,False,-10.0,15.0,0.0,-10.0,59.11586874678766,1.8079026121294814
1760946949.6234624,3.9001991748809814,-82.05582621065516,-14.349510657815218,-13.172183441932754,-22.438346470301582,-6.2451197257926445,-18.45359376871377,2.9054404901176563,2.4116293622355536,-0.63980326134246,,,,,,,,,,,0.42999999999999994,-0.3,-0.3,0.2,-44.239317434576165,-35.41596639444594,10.277230744483242,9.222488420188741,-84.64243718608788,-24.77467143536341,3.000032672692776,1.1531279932711045,-0.8670013031156162,,,,,,,,,,,,,,,,,auto,85.0,True,0,False,-10.0,15.0,0.0,-10.0,71.9357594832502,3.328902441600502
1760946949.7308652,4.007601976394653,-83.96179125127642,-15.826335055794994,-15.510557127884347,-13.360803675689349,-23.71670088021014,-4.6878818207086494,3.0821115119297953,-0.006292118320586313,1.012385784520456,,,,,,,,,,,0.42999999999999994,0.3,0.3,-0.2,-55.581612689378716,-37.8683364258949,12.440849980321065,-14.578175826220079,-96.5476071564714,-34.35386825412875,-2.2185923857225434,-2.4300059382912655,0.8886185418719362,,,,,,,,,,,,,,,,,auto,85.0,True,0,False,-10.0,15.0,0.0,-10.0,83.18273078793158,3.4083315488777592
1760946949.8404808,4.117217540740967,-84.143656721931,-17.239377155506055,-16.248030374095364,13.105932160260894,-1.9440388261761559,-8.284212123514617,-2.50986887846354,-0.6109028762634446,1.497179882224967,,,,,,,,,,,0.42999999999999994,-0.3,0.3,-0.2,-70.41785108648983,-33.937701842120575,13.019252399521344,-23.863545087240873,-71.18424937175502,-41.05252003719852,1.2944609264535594,-2.4807042107437915,1.5004192883073564,,,,,,,,,,,,,,,,,auto,85.0,True,0,False,-10.0,15.0,0.0,-10.0,94.75158506110225,3.1750244899908626
1760946949.9489574,4.225694179534912,-83.6802210866782,-17.003474077775415,-16.554299929539912,5.71613001498413,-2.8452784742959443,7.1572490975940415,-3.06081945399698,1.28589178200247,0.45393756814770037,,,,,,,,,,,0.42999999999999994,-0.1839955105569126,0.3,-0.2,-72.28633865057249,-43.207516845256286,13.513323509223467,6.374968326719165,-99.8004339360689,-63.37456672989407,-0.14440754202185296,-2.4882716139897907,0.7100801605684615,,,,,,,,,,,,,,,,,auto,85.0,True,0,False,-10.0,15.0,0.0,-10.0,100.19316747865062,2.591633268348954
1760946950.0584755,4.335212230682373,-82.80970697302676,-18.720524129443795,-14.74488458550872,-7.738660713473717,-23.818789778787117,18.327768083886813,2.5624884641114933,2.441850804691284,-1.2732522304609522,,,,,,,,,,,0.42999999999999994,-0.3,0.3,0.2,-77.5305984209712,-43.430974715364144,12.254838203015545,-4.755954635862487,-105.0927872511279,-47.74741998964701,0.1931804528059729,-1.1922756420868377,-1.1636821464765192,,,,,,,,,,,,,,,,,auto,85.0,True,0,False,-10.0,15.0,0.0,-10.0,104.61089346866338,1.6771988648005045
1760946950.1631267,4.439863443374634,-84.96673900406957,-21.749522722613374,-14.306154318936233,-38.196386851671626,-40.281388951992,0.06324026716480158,1.7726949733241149,-1.2758802204472108,-1.490026980729204,,,,,,,,,,,0.42999999999999994,-0.2203038853331891,-0.3,0.2,-78.2030317038962,-45.7169353174474,12.04340490521712,8.527474792840472,-103.30380792089315,-30.922683789155435,-0.13504057268176264,1.3113790877375198,-1.4786586166574138,,,,,,,,,,,,,,,,,auto,85.0,True,0,False,-10.0,15.0,0.0,-10.0,106.12612776047422,1.9810053943997035
1760946950.267142,4.543878793716431,-90.39418715723714,-25.77761779799287,-14.460291605173813,-53.66984163530959,-41.90876574872404,-10.172171496227415,-2.628862479134525,0.15562607680142598,-0.27082022719503385,,,,,,,,,,,0.42999999999999994,-0.3,0.3,0.2,-81.68790731477596,-43.55815402073939,12.22058614155921,-14.494783845149566,-76.73858082665522,-25.149543490915292,0.844470520733048,-2.154665792394942,-0.46878904689982603,,,,,,,,,,,,,,,,,auto,85.0,True,0,False,-10.0,15.0,0.0,-10.0,108.34952076995825,2.361245075759252
1760946950.37524,4.651976823806763,-95.55393672113044,-30.31653393880629,-16.04934585205726,-46.94908400077114,-38.855163777783204,-23.48335376895708,-0.6086366726815684,0.08874378530123699,1.4568411862038912,,,,,,,,,,,0.42999999999999994,-0.3,0.3,-0.2,-84.13453275108503,-53.937588268502225,14.537334445920742,-26.175718161378313,-116.03308124018106,-11.635197947250761,1.9101923269621712,-0.28010756771702766,1.3266365173108186,,,,,,,,,,,,,,,,,auto,85.0,True,0,False,-10.0,15.0,0.0,-10.0,115.49458772474746,2.3424900052166886
1760946950.4832294,4.759966135025024,-98.37574165958662,-33.67133775823195,-16.586166477640205,-10.637906966307554,-25.710041166676177,-2.898017327129504,0.010496607734544704,-1.651321872198929,1.6504546048325799,,,,,,,,,,,0.42999999999999994,-0.3,0.3,-0.2,-88.08577481559972,-66.66815357695124,16.375519334013894,-33.17533588218812,-144.0897905634376,5.3419414550096365,0.35292198713999084,-3.061216146494677,1.658294590857569,,,,,,,,,,,,,,,,,auto,85.0,True,0,False,-10.0,15.0,0.0,-10.0,125.56666632045079,3.4993626812083987
1760946950.5891922,4.865928888320923,-99.63745367554972,-34.38427165476665,-17.966775874023906,-19.652539580171204,-6.942085503981552,-17.05653383225015,1.630494753080128,-1.7168011199646018,0.3252899124471057,,,,,,,,,,,0.42999999999999994,-0.07951812692151843,-0.3,-0.2,-96.77358578236272,-65.99805571888908,15.570279727264573,-55.9196842652253,-140.9018407433743,-31.75108174396619,-0.23475272355805618,2.6993511694148506,0.5904186956902671,,,,,,,,,,,,,,,,,auto,85.0,True,0,False,-10.0,15.0,0.0,-10.0,132.29859047870215,2.7731209517905713
1760946950.699153,4.975889682769775,-104.31311440224889,-37.35017827298976,-20.244147957575812,-74.16625678408043,-47.302408710877764,-28.998830727060824,-0.6249707561685098,-1.8176235746527767,-1.470664727286089,,,,,,,,,,,0.42999999999999994,-0.3,0.3,0.2,-101.34861744082781,-83.8238641049611,16.385666600358,-36.261714556905545,-170.76367189976406,-53.06675367004246,0.11627723531146167,-2.7466640942704594,-1.4265577290976814,,,,,,,,,,,,,,,,,auto,85.0,True,0,False,-10.0,15.0,0.0,-10.0,145.80687355479623,3.0972166531669325
1760946950.8059232,5.082659959793091,-108.41572080952618,-41.84123721366639,-18.731160009725482,-26.003140359804114,-41.26569363352592,36.57922912643508,-2.8785552179646934,-2.017843631871973,-1.70519555512158,,,,,,,,,,,0.42999999999999994,0.3,-0.3,0.2,-110.25677938858948,-64.21649253083778,15.266843803010877,-64.35710316501687,-132.18315867033115,-29.866223384678293,-0.7469078902950197,2.9710336423296275,-1.51237746259395,,,,,,,,,,,,,,,,,auto,85.0,True,0,False,-10.0,15.0,0.0,-10.0,143.00850356370657,3.416459847532461
1760946950.9143732,5.191109895706177,-109.63051812148969,-42.73773166321429,-15.019314326203808,-17.17392932878365,3.1453118375354565,39.875028917504125,2.7071090609699207,1.3405398750422257,-0.3463213575449122,,,,,,,,,,,0.42999999999999994,0.3,-0.3,0.2,-114.00109638324066,-62.57479778339007,13.954618680718768,-51.84274744204081,-93.0971574715833,17.965558069061636,-1.9563641071355626,2.1058091545025173,-0.4844240785558276,,,,,,,,,,,,,,,,,auto,85.0,True,0,False,-10.0,15.0,0.0,-10.0,145.3640668867274,2.914868676760515
1760946951.021744,5.298480749130249,-110.66323210862846,-41.49192810576145,-11.125509050865904,4.285748344064155,11.156522668234373,27.112661945384325,2.284238416719414,-0.24599104057505958,1.532467398964139,,,,,,,,,,,0.42999999999999994,-0.3,-0.3,-0.2,-114.3789657217204,-59.951058780708266,11.253277688163953,-8.70729036324161,-40.50819451831683,15.246490193979605,-0.04389315539026201,2.2495869668923825,1.3766874677729823,,,,,,,,,,,,,,,,,auto,85.0,True,0,False,-10.0,15.0,0.0,-10.0,144.1691646387682,2.637771126277898
1760946951.1303415,5.407078266143799,-108.23461764050192,-40.44331205518969,-5.566330498660143,37.5310632300952,36.483915099584664,47.25672992885532,2.6340733639400282,1.7165524314029228,1.8565894503338904,,,,,,,,,,,0.7,0.08239136194511375,0.3,-0.2,-114.27301793997805,-58.2227806488684,8.15283186191796,-15.347533881958809,-12.501596835210485,-2.335504567835564,-0.43528533865821906,-2.118019071652812,1.9151096906565914,,,,,,,,,,,,,,,,,auto,85.0,True,0,False,-10.0,15.0,0.0,-10.0,142.93680652093497,2.8884465100089054
1760946951.2398355,5.5165722370147705,-105.97266502849413,-36.917091478964124,-0.8496308343937292,15.592355892446122,18.41761317098748,42.12993536032218,-2.3478415112024003,3.07441658668304,0.5395651994444464,,,,,,,,,,,0.7,-0.090177143539341,0.3,-0.2,-113.0744728699435,-51.89771807189963,3.2983555186176576,23.392169320947154,35.92672224452957,-19.748260410831154,0.5461476533448093,-0.9523246489526322,0.6386644063932149,,,,,,,,,,,,,,,,,auto,85.0,True,0,False,-10.0,15.0,0.0,-10.0,138.82827522332698,1.2700754781706456
1760946951.3486845,5.6254212856292725,-104.75643135928473,-35.8285524740846,3.6631674625557147,-9.1454576226777,8.347028272092349,39.55200471113898,-0.2409133220619934,2.268560733842266,-1.5315856093991886,,,,,,,,,,,0.7,0.3,-0.3,0.2,-106.315757982048,-40.31907687838816,-1.1403866232187005,10.26097896556104,25.329010947344194,10.667939478438567,-1.3153682721401814,1.6219857711884058,-1.3207456126790957,,,,,,,,,,,,,,,,,auto,85.0,True,0,False,-10.0,15.0,0.0,-10.0,128.14692288256578,2.4709108657945906
1760946951.456335,5.733071804046631,-104.83931424503005,-35.62246226222235,7.363850649636447,-4.622013210653829,-7.220204626965396,42.80761474600253,-1.8519292938429763,-3.123819947886203,-2.1739225688296817,,,,,,,,,,,0.7,0.0263901885628128,-0.3,0.2,-104.18567411195558,-37.598641160199385,-3.505822326156401,11.085519319017372,31.16251985984355,49.673304647634055,0.3566107341036065,2.7088603048367275,-2.1038515232434,,,,,,,,,,,,,,,,,auto,85.0,True,0,False,-10.0,15.0,0.0,-10.0,125.14414518575835,3.448374486428586
1760946951.5643234,5.841060161590576,-105.10592383541048,-37.30654782540212,8.512484615804915,5.711854256542111,-25.37592316864191,-1.247684348254347,2.973021824435197,-0.9947278530184029,-1.235852371158784,,,,,,,,,,,0.7,-0.3,-0.3,0.2,-104.866387496947,-37.54264163870162,-3.589470772475334,-13.045551158587317,2.366817374721279,72.2973761350869,2.7409568665415827,1.2881611323598283,-1.5299810921954713,,,,,,,,,,,,,,,,,auto,85.0,True,0,False,-10.0,15.0,0.0,-10.0,125.771601237152,3.393087943104283
1760946951.6723297,5.949066400527954,-108.18210149234564,-43.11863799421467,7.54068126477625,-26.512763301079495,-63.17276245983002,-16.830259893879887,-2.9744804097889177,-1.433309148530833,1.0173351660031944,,,,,,,,,,,0.7,0.3,0.3,-0.2,-107.64985309337959,-39.05058610564992,-4.0739855717972375,-20.35002490967761,-34.0145018279571,56.90692745722982,-0.6760500225456656,-1.51950513719119,0.7923279755820691,,,,,,,,,,,,,,,,,auto,85.0,True,0,False,-10.0,15.0,0.0,-10.0,128.85283227785737,1.8422060459743346
1760946951.7795653,6.056302070617676,-113.09982904685957,-49.47085646036037,5.575576313754201,-47.13741983280459,-79.32891840277655,-11.066276029990796,-0.3843043340935464,-2.2230854807222626,2.284962846784253,,,,,,,,,,,0.7,-0.3,0.3,-0.2,-107.54592752057151,-41.38074965105244,-4.006935506792674,-7.799637767011626,-12.913215923485723,57.60875761088609,1.345785912234669,-0.1590956623244499,2.116438590838825,,,,,,,,,,,,,,,,,auto,85.0,True,0,False,-10.0,15.0,0.0,-10.0,129.48276957024044,2.513118274202706
1760946951.886602,6.163338661193848,-110.49875570159595,-50.58191569811126,5.026852920203186,63.87479021530355,19.78211093632728,-5.487943925481391,0.12259297318117518,2.452099102194403,1.9749325857075237,,,,,,,,,,,0.7,-0.3,0.3,-0.2,-116.06718830180463,-44.877735965930135,-4.666173940520911,-113.83868830802695,18.865800223759557,-15.627461623750754,1.4269438141864437,-1.055456311947874,2.150116409692414,,,,,,,,,,,,,,,,,auto,85.0,True,0,False,-10.0,15.0,0.0,-10.0,138.64006901037388,2.7880382440892304
1760946951.9961276,6.27286434173584,-103.84711751132085,-47.02252187167791,3.8295770752494374,48.03265897243512,33.06779865374902,-19.12919069209751,-2.548333622094064,-2.5805629563934627,0.03289103998560694,,,,,,,,,,,0.7,0.3,-0.3,-0.18517009529372613,-118.0301509789224,-43.283982855042424,-6.372563745863762,-43.2760362556227,31.90725371300841,-58.889482496956646,-1.9790388689934593,0.8260256219392912,0.40202938891720275,,,,,,,,,,,,,,,,,auto,85.0,True,0,False,-10.0,15.0,0.0,-10.0,139.94171120523114,2.181866357648938
1760946952.1038268,6.380563497543335,-99.8427030554901,-49.16469214321428,2.5488876865438304,5.3600132495748944,-23.00908680875719,-15.371101263763395,-0.9463181729395821,0.5306602055895814,-2.0557287939124675,,,,,,,,,,,0.7,-0.2825008206544395,-0.3,0.2,-116.52161630325818,-43.488512067797316,-4.347845573521412,-11.495015442419865,-41.250153502875115,-2.8073966501110306,-0.16863136819479735,0.9512599216428969,-1.9503256742409825,,,,,,,,,,,,,,,,,auto,85.0,True,0,False,-10.0,15.0,0.0,-10.0,138.64030109081983,2.176488505016014
1760946952.2138975,6.490634202957153,-97.8826300204922,-54.76362828894982,1.0123178523632919,28.7324523768002,-41.1164962861564,-13.322224107949909,-3.0150891639410937,2.611614050871843,-2.561327619809817,,,,,,,,,,,0.7,0.3,-0.3,0.2,-108.09354985780348,-52.61654010484321,-2.0290141961044412,29.66488983390979,-111.16534216085228,-5.776600900729261,-2.32226019349057,3.0535611475460747,-2.5768694365817946,,,,,,,,,,,,,,,,,auto,85.0,True,0,False,-10.0,15.0,0.0,-10.0,134.104656607763,4.62140500078311
1760946952.3222141,6.5989508628845215,-98.1974255865894,-56.55907385408899,-0.11306703788974301,-9.43119965193381,-24.931487144132564,-5.66964897211547,2.017167572493262,1.8895511123008661,-1.4237361420866979,,,,,,,,,,,0.7,0.3,0.3,0.2,-101.22619516512196,-63.35131284329277,-0.7881104619098205,41.39297555671898,-109.50687475942838,-22.24639957076437,-1.4194948885454242,-1.0285417282372367,-1.5860842082670599,,,,,,,,,,,,,,,,,auto,85.0,True,0,False,-10.0,15.0,0.0,-10.0,132.69052788496904,2.3640065442054032
1760946952.428999,6.705735683441162,-98.13650188457099,-59.860766837313015,-0.659853310479193,15.50898477311781,-50.73517200438396,-11.099466760627102,-1.8687515081911783,2.8008833481171007,0.9570705629690394,,,,,,,,,,,0.7,0.3,0.3,-0.2,-96.34477355980624,-69.02041471413955,-0.6707919474732638,37.3214831611073,-107.32041100615892,-6.936216705788805,-1.5541355019559278,-1.498756677130953,0.724151839027876,,,,,,,,,,,,,,,,,auto,85.0,True,0,False,-10.0,15.0,0.0,-10.0,131.33358431598396,2.2772800929292547
1760946952.5379734,6.8147101402282715,-97.1899433965996,-63.85368684703514,-1.9876331686563766,-3.423640648757323,-16.67377560274562,-14.158289231871251,0.6352338314968362,-1.0139826447827363,2.4230975539507753,,,,,,,,,,,0.7,-0.3,0.3,-0.2,-95.42590442774814,-77.49693220355516,1.4218081842789556,-8.382803403418423,-100.03230372335216,2.262133370997427,0.06622321855709742,-2.4087549404698576,2.2401211062929924,,,,,,,,,,,,,,,,,auto,85.0,True,0,False,-10.0,15.0,0.0,-10.0,135.388746104863,3.2900803103835248
1760946952.645879,6.9226157665252686,-95.99907063853223,-68.34332450671334,-1.2821330091579695,8.587978509529947,-54.95798498134482,11.702475702723758,2.0216363476993826,1.9290706131467907,2.334893202560271,,,,,,,,,,,0.7,-0.3,-0.3,-0.2,-100.48629760934777,-90.52821177560584,1.8003032404270873,-61.50947027474624,-129.29542632720313,-16.73918328046626,2.614277532251248,1.700199683466433,2.2895570818782804,,,,,,,,,,,,,,,,,auto,85.0,True,0,False,-10.0,15.0,0.0,-10.0,147.2130742134333,3.8687462582175147
1760946952.7540264,7.030763149261475,-97.51938551531626,-72.24829096652749,-0.16214864390946776,13.969528000710719,-43.68277898840254,-9.533683932170476,-0.5521920654954992,-0.5322331768352644,0.6938689262914604,,,,,,,,,,,0.7,0.014232244566061897,0.3,-0.2,-105.85826520646991,-96.23321393465287,-0.12183380102068578,-66.50862228772368,-130.75391946195055,-38.65956233830688,-0.33989161302893134,-2.6628211741600962,0.8612239357130822,,,,,,,,,,,,,,,,,auto,85.0,True,0,False,-10.0,15.0,0.0,-10.0,154.8067501770021,2.819193072779495
1760946952.8616588,7.138395547866821,-96.95368603120964,-73.44653628453912,-1.0648911455171657,10.507731623769892,-22.147545711475573,-3.1115533957843384,-2.2090518967651054,-0.36593397372276426,-1.6783618695224294,,,,,,,,,,,0.7,-0.3,0.3,0.2,-106.94857576765163,-102.92364377080735,0.09177885927498819,-27.613036862097093,-122.58962669003867,-14.265766481623437,0.38898917704856517,-3.123074620670823,-1.5114581930773017,,,,,,,,,,,,,,,,,auto,85.0,True,0,False,-10.0,15.0,0.0,-10.0,159.89551456924372,3.4913340624408353
1760946952.9721148,7.248851537704468,-96.33202781384595,-77.22277336485324,-0.9304851746036579,21.04886617134133,-69.84880269983788,5.0783037749207,0.37617185021618527,-2.562728393938831,-2.6285403317100777,,,,,,,,,,,0.7,-0.3,0.3,0.2,-109.01489728636328,-120.07101722238716,0.31793447068844816,-7.268500316247891,-197.15982709537724,-10.913275093184051,2.140550070806767,-1.1684024374770863,-2.617835354349048,,,,,,,,,,,,,,,,,auto,85.0,True,0,False,-10.0,15.0,0.0,-10.0,172.92542814030404,3.5777340320394213
1760946953.0812562,7.357992887496948,-94.20913573243641,-82.7517337790053,-1.027836737233342,32.08572564136617,-20.052603525021407,-3.291007764819563,-2.5495658758270086,2.1333930317568517,-1.9179987674157872,,,,,,,,,,,0.7,-0.3,-0.3,0.2,-100.55974649244715,-114.58190716780831,0.7640958507959487,22.67025122579803,-145.81667826094838,11.167314765125967,0.7489462504744397,0.05246823700780556,-2.0320076363086628,,,,,,,,,,,,,,,,,auto,85.0,True,0,False,-10.0,15.0,0.0,-10.0,163.09179690927442,2.166270628525242
1760946953.1894264,7.466163158416748,-89.63381755106904,-84.45520584868183,0.741553144937986,47.868288016760275,-17.21505564113808,42.37524712341598,-0.35508911096186796,2.5369213283080017,0.3149900770007329,,,,,,,,,,,0.7,0.3,-0.3,-0.06062255875567577,-97.82510522410192,-132.71932629962708,0.7303636283528282,9.532148726920328,-209.45683649280915,-18.76070891845638,-2.8513721552728666,1.8856135317730822,-0.04568403317326658,,,,,,,,,,,,,,,,,auto,85.0,True,0,False,-10.0,15.0,0.0,-10.0,174.52525503735336,3.4187641904580324
1760946953.29653,7.5732667446136475,-84.61578221492954,-85.02282650664229,1.360169964389326,44.965068056922775,27.6078653895923,0.33984750466669666,0.7061526060071507,2.5000103243208964,2.272825176318223,,,,,,,,,,,0.7,0.3,0.21098520187946979,-0.2,-90.86012481777774,-133.46152036367795,-2.6280203655058134,58.8527221647517,-147.2887881938969,-35.17810885030656,-0.8837285976785346,-0.5409042069918564,2.1469884180321017,,,,,,,,,,,,,,,,,auto,85.0,True,0,False,-10.0,15.0,0.0,-10.0,170.50715389083035,2.383928032189803
1760946953.404144,7.680880784988403,-81.63597334697708,-85.69349959928593,1.959948272193892,12.164104594045078,-16.730324034404305,24.498191993996954,0.960863632833616,0.30291080698248435,2.6810927472442194,,,,,,,,,,,0.7,-0.3,-0.3,-0.2,-85.81835798145767,-134.6124619868644,-2.7802595812718875,8.752558010947403,-165.287339480324,-13.70994125377671,1.640213201312363,0.33940807443705523,2.7597086694850668,,,,,,,,,,,,,,,,,auto,85.0,True,0,False,-10.0,15.0,0.0,-10.0,168.33591678532594,3.228233127762531
1760946953.5133948,7.790131568908691,-82.4965897739106,-87.1389730575175,3.6506364259610153,37.55974740326377,11.78431068946347,15.50174375636379,-0.9295754023223896,-1.666400529528036,1.5340360451252117,,,,,,,,,,,0.7,-0.3,0.3,-0.2,-86.01093740813492,-120.5796145672212,-4.17568323022933,-27.378954282134124,-146.71428249762144,-66.53297902501878,0.12734981115067515,-2.1700884920604575,1.7616153297602488,,,,,,,,,,,,,,,,,auto,85.0,True,0,False,-10.0,15.0,0.0,-10.0,157.40576733742765,2.797997606828793
1760946953.6206772,7.897413969039917,-75.91686310652872,-85.15560431721578,5.5951102321507316,45.27416655213203,8.403868995974106,20.693331584313395,-0.21508227195247115,-0.2780760038660719,-0.9861667449047261,,,,,,,,,,,0.7,0.3,-0.098746934235296,0.2,-85.26719891855677,-127.11884140472957,-7.635229708885096,8.014131260931228,-131.72035576740515,-73.9267707617523,-0.9879999528139678,-0.29857341996978376,-0.7474955128452179,,,,,,,,,,,,,,,,,auto,85.0,True,0,False,-10.0,15.0,0.0,-10.0,161.92066933404135,1.2743780975819503
1760946953.730188,8.006924629211426,-70.79980221562936,-84.03149102004951,6.660992953545927,44.18571363049125,8.556038605837854,13.08207427902506,-2.2253693822924308,-1.8328616335420636,-2.6088443995154655,,,,,,,,,,,0.7,0.3,0.3,0.2,-78.95338083686046,-112.36453536111839,-5.664474742536969,33.275382697076424,-86.02111696983565,16.454851698680528,-2.6014861768993867,-2.5424892520024835,-2.494374656269821,,,,,,,,,,,,,,,,,auto,85.0,True,0,False,-10.0,15.0,0.0,-10.0,146.53266993013625,4.410656056754814
1760946953.8373852,8.114121913909912,-67.66637050467237,-82.72219156357691,8.25654554767397,29.247749973733875,24.235647982035285,11.68547087714857,-0.11283874304887374,1.6783488465163174,-2.6531623780321465,,,,,,,,,,,0.7,-0.3,-0.3,0.2,-74.0119482000679,-112.42559803023552,-4.912361597098353,19.55162259672052,-77.29058658218453,42.3781556551389,-0.08424099227865754,2.6499990019150443,-2.7839828000799596,,,,,,,,,,,,,,,,,auto,85.0,True,0,False,-10.0,15.0,0.0,-10.0,143.48702408004127,3.8444962590789284
1760946953.9449387,8.221675395965576,-64.81840232568683,-80.74019421719929,10.02589182846532,54.797760340879755,9.969323054469978,14.056450101834734,3.010159646832979,2.7335787848725315,-1.1649923583210409,,,,,,,,,,,0.7,0.3,0.10148905264838695,0.2,-68.80250777752921,-114.60106107447086,-5.662081572398985,41.170854616077065,-110.4231869391755,66.96697105690635,-3.116936882890861,-0.45802735201382977,-1.4018051640931393,,,,,,,,,,,,,,,,,auto,85.0,True,0,False,-10.0,15.0,0.0,-10.0,142.03901240673974,3.448208564631262
1760946954.054232,8.330968618392944,-61.18629665397165,-82.57347997760748,11.779909118554974,22.932701025602576,-42.208887473796,5.851636678455078,-1.2939569454173645,0.9965717509608499,1.4965921421954875,,,,,,,,,,,0.7,-0.3,0.3,-0.2,-63.02422548255906,-110.36961912729488,-7.305274481848016,70.19501418016242,-101.14752210821067,46.297219090000986,1.3876535449396308,-1.0410754632975934,1.1783726960490086,,,,,,,,,,,,,,,,,auto,85.0,True,0,False,-10.0,15.0,0.0,-10.0,135.19058448751355,2.097136784250763
1760946954.1622405,8.438977241516113,-60.03081808169067,-86.86725756864422,12.88825264151104,-3.1385107522505225,-22.910122870140714,32.545812119462994,-0.004498728954256459,1.7292540518462431,2.9579393064761277,,,,,,,,,,,0.7,-0.3,-0.3,-0.2,-57.044127815567464,-114.02629415624367,-9.855821126189309,35.93737074211301,-117.69038665038559,34.93825685462571,1.2558934049818062,1.3026977888443867,2.7806925572591035,,,,,,,,,,,,,,,,,auto,85.0,True,0,False,-10.0,15.0,0.0,-10.0,134.87910475407108,3.317610717328515
1760946954.269099,8.545835733413696,-58.52810266734701,-89.16059577564293,14.46055982595758,20.529429198752105,-13.312726160640167,9.141984017461574,-2.5605190578461157,0.9279013883899186,2.840742275590736,,,,,,,,,,,0.7,-0.3,0.3,-0.2,-56.59503147650504,-110.90529005437776,-10.894594620472683,-9.992686086522355,-103.08146400520108,39.05453236108969,0.42120598157142575,-1.650104087071477,2.991943634368667,,,,,,,,,,,,,,,,,auto,85.0,True,0,False,-10.0,15.0,0.0,-10.0,132.0099700541682,3.442671155995113
1760946954.376622,8.653358697891235,-57.55962750247322,-90.55409607996444,14.250131573307943,15.524237626049361,4.972751704210922,-23.92989401253182,1.5431450587406692,2.6609448664369153,1.199106172829465,,,,,,,,,,,0.7,-0.3,0.3,-0.2,-60.54323030277546,-123.17061020436176,-12.58474295078503,-37.361423772461166,-109.6631004044532,31.50768465953574,0.6778790250288996,-1.5910833469738237,1.3204405750403834,,,,,,,,,,,,,,,,,auto,85.0,True,0,False,-10.0,15.0,0.0,-10.0,144.51456590536,2.175920380391832
1760946954.4852622,8.761998891830444,-56.64464572426716,-91.93675605501282,13.63968907876396,-15.692306141653248,-4.661584791776413,11.043597128688539,2.2068177576036,-0.9719818560545256,-1.5521862687775707,,,,,,,,,,,0.7,0.3,0.3,0.2,-61.89016764359502,-115.04204883449414,-12.345811667898232,-12.656285768069154,-73.82521074743545,29.520275626580947,-1.3462486113121193,-0.05094133684106241,-1.3176469567743307,,,,,,,,,,,,,,,,,auto,85.0,True,0,False,-10.0,15.0,0.0,-10.0,138.39174004498798,1.8844558487679193
1760946954.5935996,8.870336294174194,-58.20672280947819,-92.71739537258043,16.98392032033592,-1.0207810142155676,-32.86033372185621,34.630998702255354,1.6808508520479082,-0.1299742135605203,-3.067551766970638,,,,,,,,,,,0.7,-0.3,0.3,0.2,-61.66686953176955,-122.48231273948907,-13.34189853204148,-9.686452859979726,-77.21386021818915,57.09916786469994,2.9485080579424348,-2.4130031368506097,-2.9745709144409305,,,,,,,,,,,,,,,,,auto,85.0,True,0,False,-10.0,15.0,0.0,-10.0,144.53682611574754,4.83366900307006
1760946954.7004497,8.977186441421509,-58.234772713733946,-98.31633806850238,18.610844276264828,-13.136412725611265,-63.62878558171783,12.474896964030274,0.20934674059158961,1.5763444248634768,2.253768779467078,,,,,,,,,,,0.7,0.3,0.3,-0.2,-61.94573061027622,-121.27929924941733,-16.1417726362063,-27.459134943454266,-82.91319238603711,-11.083769401966956,-2.3684547674312886,-1.4169049510782743,2.447414283508388,,,,,,,,,,,,,,,,,auto,85.0,True,0,False,-10.0,15.0,0.0,-10.0,143.76033965142742,3.6887713809450164
1760946954.809432,9.086168766021729,-60.552512098148355,-102.39130370210637,21.427323177173708,-31.78038966237999,5.358549569963583,41.34614301177463,1.8302956193939286,-0.5626663256292791,-0.24591128110153276,,,,,,,,,,,0.7,0.3,0.3,0.0555173239506012,-60.51910439737161,-116.2586904195537,-17.683474344394202,-30.204571046846958,-83.20649066781633,-22.536143056745424,-2.6209743703774726,-0.20438251673432975,0.006141978124737518,,,,,,,,,,,,,,,,,auto,85.0,True,0,False,-10.0,15.0,0.0,-10.0,138.84615228752904,2.628938300382406
1760946954.916925,9.1936616897583,-63.54640404633221,-102.81370750068187,25.638128785815407,-37.78329053260489,19.043305166870784,33.055809615972606,-0.12876150244806292,2.128059042037238,-2.554938077602845,,,,,,,,,,,0.7,0.3,0.3,0.2,-62.97716610000051,-126.55359834444184,-24.59552126376543,-19.951553989909726,-81.79707414527276,-33.75825103244894,-1.0428541280116819,-1.519552020882761,-2.481387997392171,,,,,,,,,,,,,,,,,auto,85.0,True,0,False,-10.0,15.0,0.0,-10.0,149.3629168430853,3.090933430224892
1760946955.0272913,9.304028034210205,-66.50051165853877,-101.79616230882682,26.967631151787707,-12.352997731837618,-0.9545980565006378,22.19243938587529,-0.08224552421804814,-2.733651011981829,2.5569431879531423,,,,,,,,,,,0.7,-0.3,-0.3,-0.2,-67.90770693373065,-130.0315098652303,-26.307029014074427,-45.07413363829087,-92.94182051223771,-7.384893194166079,0.7608025514216699,1.0585888630651594,2.7969253334207056,,,,,,,,,,,,,,,,,auto,85.0,True,0,False,-10.0,15.0,0.0,-10.0,155.07353295165078,3.0858098165612597
1760946955.1361978,9.41293454170227,-67.14519506780273,-103.19455581953532,29.0300934498143,1.681854019121054,-4.1279623325559776,12.46826902717158,0.4553221384906351,-1.3879830544074934,0.2004829926500929,,,,,,,,,,,0.7,-0.3,0.3,-0.2,-69.57312520626536,-118.80066550762142,-24.53735386873186,-22.354929411030508,-29.955745568087007,21.916011576090515,2.1454988296465616,-1.2262471044164334,0.5686769561016246,,,,,,,,,,,,,,,,,auto,85.0,True,0,False,-10.0,15.0,0.0,-10.0,146.55219646840206,2.5357919215711413
1760946955.2462885,9.523025274276733,-67.62253150191034,-105.45238396300795,29.692745384385503,-9.280275091583775,-15.016105553412332,-0.5914333182491065,-0.3965485606957753,1.6473168525669684,-2.353486708311701,,,,,,,,,,,0.7,-0.3,-0.3,0.2,-70.99481581715773,-117.39123484570902,-25.611232086896695,-17.671878188465072,-41.4093403959798,27.351282525781482,2.8090928350733524,1.7249745066994948,-2.2272194957057034,,,,,,,,,,,,,,,,,auto,85.0,True,0,False,-10.0,15.0,0.0,-10.0,146.3540943509892,3.9783220441381033
1760946955.3558614,9.632598161697388,-69.22637268162906,-106.10974021862155,31.020076554801573,-26.643672516460708,-34.98845387904825,17.34451451113489,-0.15613390557175957,-2.872944930771327,2.7205577305596007,,,,,,,,,,,0.7,-0.3,0.3,-0.2,-73.1196613642225,-117.53174183822435,-25.38874127531724,-35.53273253428945,-56.6156119282151,22.52406276126156,2.260613792005736,-0.6443138349556335,2.7783834278707062,,,,,,,,,,,,,,,,,auto,85.0,True,0,False,-10.0,15.0,0.0,-10.0,147.70104406032786,3.639358392187882
1760946955.465367,9.742103815078735,-71.38677878768222,-109.40542252954344,34.58439095928234,-14.936592412181472,-30.96581606734547,40.103598592287284,1.2521764944150444,0.48026315813906906,0.5045685305480325,,,,,,,,,,,0.7,-0.08228927229417762,0.3,-0.2,-75.42342236931377,-121.54998524771345,-29.082776075912363,-32.70887205007125,-73.60402525499015,15.731259494347618,-0.2521254451506127,-2.8019232251665596,0.7391582774035248,,,,,,,,,,,,,,,,,auto,85.0,True,0,False,-10.0,15.0,0.0,-10.0,152.69232649174643,2.9087275497843237
1760946955.5746071,9.851343870162964,-72.39970050618446,-111.30391359831127,38.34128841177832,4.7921687003248525,-26.383492748872264,26.1018121916176,2.554818250577968,1.3597126654702785,-2.3098843956906387,,,,,,,,,,,0.7,0.3,-0.3,0.2,-76.78715701147839,-125.89323267021885,-33.09795214135691,-4.251743213383356,-45.57002685612815,33.88666820612976,-0.9720624782619591,2.656568298894396,-2.0951119107682614,,,,,,,,,,,,,,,,,auto,85.0,True,0,False,-10.0,15.0,0.0,-10.0,157.5039796879179,3.5201923963014408
1760946955.6822162,9.958952903747559,-71.6681836954367,-112.48268327360309,40.65390935359783,0.8709235956652852,6.038530008507455,29.131939106614436,-2.721227160914703,-0.42842407819259337,2.410586773988407,,,,,,,,,,,0.7,0.3,0.3,-0.2,-76.42808213515717,-127.44713696663236,-35.86673142962288,-8.49377485743149,-46.465070146515,30.493971007081434,-2.166672118630163,0.0662603297436047,2.6041647864565705,,,,,,,,,,,,,,,,,auto,85.0,True,0,False,-10.0,15.0,0.0,-10.0,158.96840792672245,3.3882934843321126
1760946955.7904255,10.067162275314331,-70.23908850132985,-111.90532307127513,43.29118629385728,18.636162139734523,5.523357586960135,16.2015137876053,2.023897034571127,-1.8998150661671274,-0.1969383265035295,,,,,,,,,,,0.7,0.3,-0.3,-0.13208364109613474,-79.075513073872,-131.58536854633212,-41.20137291894682,-27.047946899111746,-16.542509474316063,19.30362336607122,-0.7279454672846887,0.7686128532360869,0.2691581179337329,,,,,,,,,,,,,,,,,auto,85.0,True,0,False,-10.0,15.0,0.0,-10.0,164.73747918313396,1.0922986834880244
1760946955.9003525,10.177089214324951,-70.65226193463384,-111.3642423837995,45.26809739419697,-6.159334894860381,7.259831843158116,9.359447665270626,0.06666059352034097,-0.0607045328770125,-2.866649779450864,,,,,,,,,,,0.7,0.3,-0.3,0.2,-78.27275234841463,-124.78719101002201,-39.44603315702208,-14.004461605639062,21.2714744887298,32.48979483611583,-0.25927164282663817,1.0905643262060094,-2.687030413930752,,,,,,,,,,,,,,,,,auto,85.0,True,0,False,-10.0,15.0,0.0,-10.0,158.5519417714739,2.911474674414335
1760946956.0091379,10.285874605178833,-72.87009204382902,-111.29315466063991,45.43236978309424,-43.8354066316049,14.321458374301848,-20.273530433367725,1.6359384694136574,0.625740053112511,1.0819101900737549,,,,,,,,,,,0.7,-0.3,-0.3,-0.2,-77.61528173083038,-117.68768022991355,-40.18113309489713,-22.616134510820086,34.6621941729485,25.775402310889877,1.7508772818324712,3.0185283659496327,1.3437776106703672,,,,,,,,,,,,,,,,,auto,85.0,True,0,False,-10.0,15.0,0.0,-10.0,152.77068201350468,3.7393613116438194
1760946956.1179626,10.394699335098267,-77.81468591790563,-110.98755773190949,41.5463522937313,-35.02807944333914,-2.056796753582307,-34.73463363588254,-0.3944498726567765,-0.16480740457493478,-2.127948419294452,,,,,,,,,,,0.7,0.3,0.3,0.2,-78.39677028977259,-112.20033039526086,-42.093472184422566,-6.7824887910279505,41.413562800695544,-9.618252955356581,-1.9937045801085398,-2.6898013906888774,-1.9592073510538324,,,,,,,,,,,,,,,,,auto,85.0,True,0,False,-10.0,15.0,0.0,-10.0,149.47194318071385,3.8792245254072317
1760946956.227451,10.504187822341919,-82.44184872324013,-109.99635305284642,38.49399123909545,-25.724271139636457,24.508432416048144,-8.004501389298033,0.547390308985881,-0.6759813355864444,1.9058897913709552,,,,,,,,,,,0.7,-0.3,-0.3,-0.2,-78.45770389813354,-107.57079140995793,-36.230847924172956,-11.051971381697436,35.81774140952275,-5.95435120456431,2.1671589883400655,1.6642302310102275,2.1219355617282116,,,,,,,,,,,,,,,,,auto,85.0,True,0,False,-10.0,15.0,0.0,-10.0,144.89263254319377,3.4596027041668114
1760946956.333302,10.610038757324219,-87.16087483766,-108.59965222812075,38.05863152923483,-50.274175554865046,-10.87462185866729,-13.316646334489128,-2.614031274428689,-1.441630026467861,-1.3166999985765218,,,,,,,,,,,0.7,0.3,0.3,0.2,-80.01321290851762,-105.50519785069537,-37.4985181592702,-11.83558595098989,23.17417939241604,-14.424928519245318,-1.225960319156857,-2.157115804787983,-1.0254923145625587,,,,,,,,,,,,,,,,,auto,85.0,True,0,False,-10.0,15.0,0.0,-10.0,144.62028177841927,2.6847275069623295
1760946956.4422753,10.719012022018433,-91.31931514088498,-109.94387452296272,37.50770575102938,-28.166122651074808,-16.495501732928812,0.46455266377423676,-0.7167704247975593,1.1165351037006537,2.5777013590868276,,,,,,,,,,,0.7,0.2003513056694102,0.3,-0.2,-86.17025382417162,-105.99214553241247,-36.93617749075894,-30.17599237432263,-12.485134376503119,-7.19108710627998,-0.5951106360290488,-2.8787402220489136,2.873565241234613,,,,,,,,,,,,,,,,,auto,85.0,True,0,False,-10.0,15.0,0.0,-10.0,148.98091431866393,4.110800302956696
1760946956.5486417,10.82537841796875,-95.19403334930115,-110.19300111910542,36.42251650294459,-40.44108914915688,6.8756144954555065,-35.93436041171385,-2.2289525043654246,1.9086983969902767,-0.365822983446897,,,,,,,,,,,0.7,0.3,0.3,0.020591079500030716,-93.19776733882088,-108.76681522407407,-35.07382987516991,-42.35157422096983,2.150888902511891,-42.984457314512525,-2.3755225195855316,-0.21357209482107292,-0.047634123137043974,,,,,,,,,,,,,,,,,auto,85.0,True,0,False,-10.0,15.0,0.0,-10.0,155.45312443210156,2.3855794454243795
1760946956.6569371,10.933673858642578,-99.0091814782607,-108.74495249193305,34.06431111164615,-45.14519928530359,32.545021277754344,-6.878170486924327,-1.4928883310568097,-0.9680676667121604,3.075470577170456,,,,,,,,,,,0.7,0.3,-0.3,0.2,-98.22108327831724,-109.59389880739029,-32.39548139191552,-45.1881104750325,-16.218905199817055,-23.419577570849327,-2.774616072286227,1.4640555872042484,-3.112523054006121,,,,,,,,,,,,,,,,,auto,85.0,True,0,False,-10.0,15.0,0.0,-10.0,159.15839261972894,4.4192479985550275
1760946956.7657483,11.042484998703003,-103.39371454535558,-105.40940298053451,33.29691120957217,-50.25271870600292,13.191425625445994,-8.17265170320153,0.2988251080855858,-2.5097548007890245,0.19372019845109206,,,,,,,,,,,0.7,-0.3,0.3,-0.2,-101.31670261478186,-113.92465571891806,-34.52155774659056,-33.37741171943537,-63.08882678374358,-11.506785918583962,0.7698450998224527,-2.736527209717989,0.5703302794716522,,,,,,,,,,,,,,,,,auto,85.0,True,0,False,-10.0,15.0,0.0,-10.0,164.65026353507298,2.8993998128802065
1760946956.8717194,11.14845609664917,-106.74251644869462,-101.70602843080069,31.38953757054665,-24.36014627617793,44.672242862079074,-17.259122800839926,-0.15483264940800598,-1.638448267044351,-2.972376318797002,,,,,,,,,,,0.7,0.3,0.3,0.2,-104.86471409234102,-115.66034454332764,-31.487916628251945,-26.46933222557938,-36.566037374818436,20.23154281144883,-0.6682643914856555,-1.6920046406628488,-2.710931058144644,,,,,,,,,,,,,,,,,auto,85.0,True,0,False,-10.0,15.0,0.0,-10.0,167.9481930398259,3.2647517827494252
1760946956.9815311,11.258267879486084,-108.2983286421552,-98.62106274039088,29.95295241953087,-4.777767609338367,15.872743813511516,-9.03048056027315,-1.3588689562744438,1.3754638424974395,0.34777930881503016,,,,,,,,,,,0.7,0.3,0.3,-0.2,-105.92885448461176,-109.41501906391872,-28.134855092891506,5.1811614832574495,-5.520271336721788,16.658544962608993,-3.029421283449233,-2.718162114610509,0.7309299633788648,,,,,,,,,,,,,,,,,auto,85.0,True,0,False,-10.0,15.0,0.0,-10.0,164.08627978279682,4.135221542467114
1760946957.0889673,11.36570405960083,-108.84058980283662,-99.35763190408605,29.462853977014753,4.351011344115905,-34.02919477659978,1.5644523630138063,1.382047740092711,-0.2922010972161725,-2.826899107018255,,,,,,,,,,,0.7,-0.23422993189988875,0.3,0.2,-106.27578637802405,-105.89234436057549,-25.499600175507172,1.5709213456362594,-14.746857071497763,39.30585321129668,-0.17401781046429737,-0.4233853811294928,-2.639937395147457,,,,,,,,,,,,,,,,,auto,85.0,True,0,False,-10.0,15.0,0.0,-10.0,161.74437412592565,2.679329548527186
1760946957.1984005,11.47513723373413,-108.38783134347148,-101.48886608644949,28.86451010553998,-8.199721430040048,-28.87859764877566,9.503088087736824,-0.4096002135178929,0.9706326534293114,0.5282811395725293,,,,,,,,,,,0.7,0.19056678171300473,0.3,-0.2,-106.9005511243447,-104.75643996357032,-23.61750711704845,-2.5434099041975937,-8.405279985615437,23.717031579185132,-0.5353758282373726,-0.010876500733759651,0.8801495477083349,,,,,,,,,,,,,,,,,auto,85.0,True,0,False,-10.0,15.0,0.0,-10.0,161.30434767340572,1.030246961684552
1760946957.306006,11.582742691040039,-107.35949785433007,-105.42062269848458,30.75004375753524,20.71903794975664,-42.209865326470855,9.217856946920653,1.9070544358012589,-1.681189709874766,-2.8519475937638026,,,,,,,,,,,0.7,-0.3,0.3,0.2,-105.70051038765551,-103.84055688699755,-25.50945979728525,30.999656680536525,-20.410380841089882,38.65425835436909,0.3718476998557156,-1.8678383563350323,-2.634711116339753,,,,,,,,,,,,,,,,,auto,85.0,True,0,False,-10.0,15.0,0.0,-10.0,159.9750536978998,3.2509680871778195
1760946957.4123414,11.689078092575073,-105.9746928253133,-108.87843336441172,31.737433658149094,2.7252738105762195,-14.78408077368983,-8.715328132445839,2.2711741795855698,-3.101058214934627,0.5826472922417166,,,,,,,,,,,0.7,-0.3,-0.28297810905783133,-0.2,-104.04124646086869,-107.04354589085564,-26.67278535080432,15.812275476523602,-10.665510488428604,63.437847963222445,2.1883455276400148,-0.23856683263761738,0.9860647997211267,,,,,,,,,,,,,,,,,auto,85.0,True,0,False,-10.0,15.0,0.0,-10.0,160.95689126967815,2.4120725675704424
1760946957.5196278,11.796364545822144,-106.09615449089178,-107.9792467770448,29.530345135494407,-15.236948617444401,24.202056145620496,-31.08108690979458,1.644125578365456,-2.2395236817018445,-2.7873339727425215,,,,,,,,,,,0.7,0.3,0.3,0.2,-104.8727630546853,-108.32130789685976,-26.301783056432747,-1.895343302821332,-22.04177165992546,64.17539179655485,-1.0735179987962817,-1.24819316442887,-2.5046175100919896,,,,,,,,,,,,,,,,,auto,85.0,True,0,False,-10.0,15.0,0.0,-10.0,162.38452265431584,2.9972547341402143
1760946957.6271415,11.903878211975098,-107.73808332297313,-106.67483134241319,25.666531035434225,0.6733546557659491,11.752200987596197,-32.50207856249179,2.026879678975069,-2.076600893931612,0.6057029823730141,,,,,,,,,,,0.7,0.3,0.3,-0.2,-104.56860130201454,-112.61987947830426,-24.312480271789273,-7.0043275579631175,-54.485222995619836,49.41503023600748,-1.992572300266341,-2.6308583495507087,0.9076310753694106,,,,,,,,,,,,,,,,,auto,85.0,True,0,False,-10.0,15.0,0.0,-10.0,164.87793898080557,3.4227991755528997
1760946957.7361875,12.012924194335938,-107.5291378236924,-104.77425570507276,21.480852039040737,-10.365191590903917,25.134567342055156,-44.29608985144683,-1.9200761139438836,-0.7356817979934552,-2.851113902505739,,,,,,,,,,,0.7,-0.3,0.3,0.2,-106.14454076393758,-112.5727220639771,-20.665088909607192,-0.1690938790009362,-11.721240831441325,0.9717814194625682,1.6240277049305354,-1.874901713751215,-2.536576812095122,,,,,,,,,,,,,,,,,auto,85.0,True,0,False,-10.0,15.0,0.0,-10.0,165.71771670901273,3.547808386351754
1760946957.8445702,12.121306896209717,-109.65112924875238,-102.84686941881883,16.248228752137848,-25.679935834148065,5.749587148759659,-37.043819220446586,-2.104846490225578,1.8419180408013647,0.4476637637152178,,,,,,,,,,,0.7,0.3,-0.3,-0.2,-107.21104102493086,-112.31628121610592,-19.18815881141102,-0.19712985314926534,-11.947781128769371,-32.692886416456986,-2.023543030606947,0.630464821463161,0.8213103256985561,,,,,,,,,,,,,,,,,auto,85.0,True,0,False,-10.0,15.0,0.0,-10.0,166.23750430319998,2.273051459804549
1760946957.9515815,12.228318214416504,-112.78576178847256,-103.93537064550456,14.401319235345571,-37.331687238304035,-1.3690004019811841,-16.306391733612095,-0.12798158688757647,2.5222845014770514,-2.884388118964633,,,,,,,,,,,0.7,0.04998940434891938,0.3,0.2,-107.81284706892643,-111.22611027827182,-16.233186561988504,10.914422575673466,21.744193790099594,7.5942230159690975,0.41461282900766117,-2.6866269643316882,-2.7118983482247083,,,,,,,,,,,,,,,,,auto,85.0,True,0,False,-10.0,15.0,0.0,-10.0,165.8104207446756,3.8398256333531267
1760946958.059101,12.335837841033936,-116.35670541064864,-104.80047240914631,11.98929285223536,-48.40975774903944,-10.549183920905985,-16.081344477075255,2.215847393144569,-2.3115850923443757,0.39018473017415284,,,,,,,,,,,0.7,0.3,-0.3,-0.2,-110.54960319639473,-106.83405841405383,-12.963924915182568,-14.536739229363821,30.214042636490397,-12.81683055607672,-1.3407471840299463,1.4371593969546133,0.7857599785896545,,,,,,,,,,,,,,,,,auto,85.0,True,0,False,-10.0,15.0,0.0,-10.0,164.87875469839184,2.1167070859456185
