timestamp,simulation_time,position_x,position_y,position_z,velocity_x,velocity_y,velocity_z,attitude_roll,attitude_pitch,attitude_yaw,control_throttle,control_roll,control_pitch,control_yaw,estimated_position_x,estimated_position_y,estimated_position_z,flight_mode,battery_level,setpoint_altitude,setpoint_position_x,setpoint_position_y,setpoint_position_z,position_error,attitude_error
1761050095.3101146,0.16706275939941406,0.0,0.0,-0.0,0.0,0.0,-0.0,0.0,0.0,0.0,0.0,0.0,0.0,0.0,0.04435995439186971,-0.1114872769697964,0.16931139538699191,manual,85.0,0.0,0.0,0.0,0.0,0.207517630787553,0.06288135262891965
1761050095.4184434,0.2753915786743164,0.0,0.0,-0.0,0.0,0.0,-0.0,0.0,0.0,0.0,0.0,0.0,0.0,0.0,0.20074397974672703,-0.08772944054582238,0.18227776823860398,manual,85.0,0.0,0.0,0.0,0.0,0.28499085061995155,0.007879832980642596
1761050095.520996,0.3779442310333252,0.0,0.0,-0.0,0.0,0.0,-0.0,0.0,0.0,0.0,0.0,0.0,0.0,0.0,0.005415349541602014,-0.031778983465051786,0.18573893972158148,manual,85.0,0.0,0.0,0.0,0.0,0.18851573814837594,0.01995234341903535
1761050095.6292768,0.486224889755249,0.0,0.0,-0.0,0.0,0.0,-0.0,0.0,0.0,0.0,0.0,0.0,0.0,0.0,0.00424630726151613,-0.033009233892426076,0.38236992880847753,manual,85.0,0.0,0.0,0.0,0.0,0.3838155847598222,0.0938665224137283
1761050095.7308156,0.587763786315918,0.0,0.0,-0.0,0.0,0.0,-0.0,0.0,0.0,0.0,0.0,0.0,0.0,0.0,0.003018993223370098,-0.03421807067401056,0.6292148056033894,manual,85.0,0.0,0.0,0.0,0.0,0.630151777170584,0.020160675015189318
1761050095.8404002,0.6973483562469482,0.0,0.0,-0.0,0.0,0.0,-0.0,0.0,0.0,0.0,0.0,0.0,0.0,0.0,-0.2547338439810375,-0.13544809624181714,0.6806148217512934,manual,85.0,0.0,0.0,0.0,0.0,0.7392374812145506,0.017138456213002327
1761050095.9479058,0.8048539161682129,0.0,0.0,-0.0,0.0,0.0,-0.0,0.0,0.0,0.0,0.0,0.0,0.0,0.0,-0.2565453545500837,-0.13967888043929458,0.735717395626526,manual,85.0,0.0,0.0,0.0,0.0,0.7915843573552229,0.029112501702072528
1761050096.0575373,0.9144854545593262,0.0,0.0,-0.0,0.0,0.0,-0.0,0.0,0.0,0.0,0.0,0.0,0.0,0.0,-0.38400544182648644,0.2965256261929813,0.8767675508623032,manual,85.0,0.0,0.0,0.0,0.0,1.0020523761693179,0.040943316686199535
1761050096.1661792,1.0231273174285889,0.0,0.0,-0.0,0.0,0.0,-0.0,0.0,0.0,0.0,0.0,0.0,0.0,0.0,-0.4456967656913261,-0.07539461587311636,0.9626095170661702,manual,85.0,0.0,0.0,0.0,0.0,1.0634599369025282,0.04471538060081749
1761050096.268023,1.1249711513519287,0.0,0.0,-0.0,0.0,0.0,-0.0,0.0,0.0,0.0,0.0,0.0,0.0,0.0,-0.4432467318317051,-0.08252193701833917,1.003057175748871,manual,85.0,0.0,0.0,0.0,0.0,1.0997277995895385,0.0363060516080436
1761050096.3770797,1.2340278625488281,0.0,0.0,-0.0,0.0,0.0,-0.0,0.0,0.0,0.0,0.0,0.0,0.0,0.0,-0.5603118830473628,0.18130353870897206,1.0064724111398355,manual,85.0,0.0,0.0,0.0,0.0,1.1661076681928266,0.028002721094065593
1761050096.482442,1.3393900394439697,0.0,0.0,-0.0,0.0,0.0,-0.0,0.0,0.0,0.0,0.0,0.0,0.0,0.0,-0.5592472929150446,0.17569144887577282,1.1708214724419108,manual,85.0,0.0,0.0,0.0,0.0,1.3093692909839905,0.023708820099323274
1761050096.591308,1.448256254196167,0.0,0.0,-0.0,0.0,0.0,-0.0,0.0,0.0,0.0,0.0,0.0,0.0,0.0,-0.5580807342499551,0.16974523094177066,1.2511586895341207,manual,85.0,0.0,0.0,0.0,0.0,1.3804584802757316,0.03030783704849676
1761050096.6991425,1.5560905933380127,0.0,0.0,-0.0,0.0,0.0,-0.0,0.0,0.0,0.0,0.0,0.0,0.0,0.0,-0.5568068609114143,0.16410676838441807,1.3430120610381782,manual,85.0,0.0,0.0,0.0,0.0,1.4630947706425634,0.025807558837764862
1761050096.8068714,1.6638195514678955,0.0,0.0,-0.0,0.0,0.0,-0.0,0.0,0.0,0.0,0.0,0.0,0.0,0.0,-0.6906545888629292,0.04263578199683479,1.1509904143713865,manual,85.0,0.0,0.0,0.0,0.0,1.3429819451499412,0.03228691124849539
1761050096.9176476,1.7745957374572754,0.0,0.0,-0.0,0.0,0.0,-0.0,0.0,0.0,0.0,0.0,0.0,0.0,0.0,-1.0651511813151975,0.2879310777683512,1.1519695886522145,manual,85.0,0.0,0.0,0.0,0.0,1.5951442811800935,0.05928424175966329
1761050097.0279922,1.8849403858184814,0.0,0.0,-0.0,0.0,0.0,-0.0,0.0,0.0,0.0,0.0,0.0,0.0,0.0,-1.2561673160900604,0.18079942369089713,1.12630290345324,manual,85.0,0.0,0.0,0.0,0.0,1.696821436671244,0.048829534927915606
1761050097.1383197,1.9952678680419922,0.0,0.0,-0.0,0.0,0.0,-0.0,0.0,0.0,0.0,0.0,0.0,0.0,0.0,-1.2552235809950878,0.1792944187463417,0.9672298330238012,manual,85.0,0.0,0.0,0.0,0.0,1.5947621379914219,0.0272287106584064
1761050097.2480452,2.1049933433532715,0.0,0.0,-0.0,0.0,0.0,-0.0,0.0,0.0,0.0,0.0,0.0,0.0,0.0,-0.9375871542192777,-0.16478099421531667,1.1443271585208787,manual,85.0,0.0,0.0,0.0,0.0,1.4885251403789121,0.041483170227771454
1761050097.357269,2.214217185974121,0.0,0.0,-0.0,0.0,0.0,-0.0,0.0,0.0,0.0,0.0,0.0,0.0,0.0,-0.9283481158020962,-0.16096632429944657,1.1530466333462872,manual,85.0,0.0,0.0,0.0,0.0,1.4890456407857295,0.05107760966731125
1761050097.4655528,2.3225009441375732,0.0,0.0,-0.0,0.0,0.0,-0.0,0.0,0.0,0.0,0.0,0.0,0.0,0.0,-0.9314303141305336,-0.15849455612672106,1.189116206488629,manual,85.0,0.0,0.0,0.0,0.0,1.5187759238732415,0.09140251277406333
1761050097.5732505,2.4301986694335938,0.0,0.0,-0.0,0.0,0.0,-0.0,0.0,0.0,0.0,0.0,0.0,0.0,0.0,-0.6326497244939635,-0.3027127257306031,1.1610030772837905,manual,85.0,0.0,0.0,0.0,0.0,1.3563955225832804,0.03208853804782083
1761050097.6820183,2.538966417312622,0.0,0.0,-0.0,0.0,0.0,-0.0,0.0,0.0,0.0,0.0,0.0,0.0,0.0,-0.7705155457438112,-0.48364304033463845,1.1600907964476403,manual,85.0,0.0,0.0,0.0,0.0,1.4742508106491026,0.03907418230472242
1761050097.790761,2.6477091312408447,0.0,0.0,-0.0,0.0,0.0,-0.0,0.0,0.0,0.0,0.0,0.0,0.0,0.0,-0.770526385592386,-0.4829175373791055,1.185909344142893,manual,85.0,0.0,0.0,0.0,0.0,1.4944233775365643,0.027170611552914833
1761050097.8980682,2.755016326904297,0.0,0.0,-0.0,0.0,0.0,-0.0,0.0,0.0,0.0,0.0,0.0,0.0,0.0,-0.6470552239749342,-0.6862171939825408,1.0259672494629233,manual,85.0,0.0,0.0,0.0,0.0,1.3936223653346844,0.02349660148084412
1761050098.0064335,2.8633816242218018,0.0,0.0,-0.0,0.0,0.0,-0.0,0.0,0.0,0.0,0.0,0.0,0.0,0.0,-0.6587987096774376,-0.6074095503022536,0.9495206682519438,manual,85.0,0.0,0.0,0.0,0.0,1.305584773620105,0.0352073476503952
1761050098.115179,2.9721271991729736,0.0,0.0,-0.0,0.0,0.0,-0.0,0.0,0.0,0.0,0.0,0.0,0.0,0.0,-0.5324606249201908,-0.8005071822370784,0.9514594403689859,manual,85.0,0.0,0.0,0.0,0.0,1.3526274921687829,0.023216382625376526
1761050098.2352977,3.0922458171844482,0.0,0.0,-0.0,0.0,0.0,-0.0,0.0,0.0,0.0,0.0,0.0,0.0,0.0,-0.40324852381749543,-0.6083681995649216,0.8179349010439069,manual,85.0,0.0,0.0,0.0,0.0,1.096238450588447,0.043600835538762574
1761050098.3452551,3.2022032737731934,0.0,0.0,-0.0,0.0,0.0,-0.0,0.0,0.0,0.0,0.0,0.0,0.0,0.0,-0.45999022337681117,-0.2475013213745142,0.8284931769544064,manual,85.0,0.0,0.0,0.0,0.0,0.9794125044864317,0.03274781413047757
1761050098.4546309,3.3115789890289307,0.0,0.0,-0.0,0.0,0.0,-0.0,0.0,0.0,0.0,0.0,0.0,0.0,0.0,-0.4395459418065374,-0.2867765781034979,0.9925136628349047,manual,85.0,0.0,0.0,0.0,0.0,1.1227309613711143,0.03770192567750961
1761050098.5623724,3.419320583343506,0.0,0.0,-0.0,0.0,0.0,-0.0,0.0,0.0,0.0,0.0,0.0,0.0,0.0,-0.4401082360814544,-0.28474120781615764,1.120270729450487,manual,85.0,0.0,0.0,0.0,0.0,1.236842480738295,0.039789772148929314
1761050098.6699986,3.526946783065796,0.0,0.0,-0.0,0.0,0.0,-0.0,0.0,0.0,0.0,0.0,0.0,0.0,0.0,-0.440628218817499,-0.2825514512247578,1.155140869758299,manual,85.0,0.0,0.0,0.0,0.0,1.2682030510897921,0.04159162287598124
1761050098.7794592,3.6364073753356934,0.0,0.0,-0.0,0.0,0.0,-0.0,0.0,0.0,0.0,0.0,0.0,0.0,0.0,-0.4885433025894894,-0.19914673286802997,1.068302923161585,manual,85.0,0.0,0.0,0.0,0.0,1.1914718273432416,0.08926514919029696
1761050098.8883083,3.7452564239501953,0.0,0.0,-0.0,0.0,0.0,-0.0,0.0,0.0,0.0,0.0,0.0,0.0,0.0,-0.2745375411828107,0.295141405312978,1.2085486951179374,manual,85.0,0.0,0.0,0.0,0.0,1.2739973544399894,0.07605999164485779
1761050098.9964292,3.853377342224121,0.0,0.0,-0.0,0.0,0.0,-0.0,0.0,0.0,0.0,0.0,0.0,0.0,0.0,-0.27234806497488306,0.29698036278174406,1.1517352213410768,manual,85.0,0.0,0.0,0.0,0.0,1.2201904869532127,0.03381744900893505
1761050099.1049838,3.9619319438934326,0.0,0.0,-0.0,0.0,0.0,-0.0,0.0,0.0,0.0,0.0,0.0,0.0,0.0,-0.32866406764423345,-0.00815045759999737,1.0877869532946327,manual,85.0,0.0,0.0,0.0,0.0,1.1363832782461918,0.04212800213596698
1761050099.2130215,4.069969654083252,0.0,0.0,-0.0,0.0,0.0,-0.0,0.0,0.0,0.0,0.0,0.0,0.0,0.0,-0.3290595800281831,-0.002882489252147402,1.122797255410239,manual,85.0,0.0,0.0,0.0,0.0,1.17002657777906,0.037643773195477
1761050099.3151557,4.1721038818359375,0.0,0.0,-0.0,0.0,0.0,-0.0,0.0,0.0,0.0,0.0,0.0,0.0,0.0,-0.14481696156480958,0.27318765497045755,0.9043832419799238,manual,85.0,0.0,0.0,0.0,0.0,0.9557784761958383,0.03504601448198162
1761050099.4238262,4.280774354934692,0.0,0.0,-0.0,0.0,0.0,-0.0,0.0,0.0,0.0,0.0,0.0,0.0,0.0,-0.14448098343282453,0.27636253247531994,0.9514472072110622,manual,85.0,0.0,0.0,0.0,0.0,1.0012506140021182,0.04050501992795983
1761050099.5330682,4.390016317367554,0.0,0.0,-0.0,0.0,0.0,-0.0,0.0,0.0,0.0,0.0,0.0,0.0,0.0,-0.05062556049465721,0.21044487590380834,1.1152722683007568,manual,85.0,0.0,0.0,0.0,0.0,1.1360819625406797,0.05026200544369135
1761050099.6410885,4.498036623001099,0.0,0.0,-0.0,0.0,0.0,-0.0,0.0,0.0,0.0,0.0,0.0,0.0,0.0,0.04179046950572663,0.591610878045191,1.0171692133485482,manual,85.0,0.0,0.0,0.0,0.0,1.1774476986036428,0.07168667129523938
1761050099.7510445,4.607992649078369,0.0,0.0,-0.0,0.0,0.0,-0.0,0.0,0.0,0.0,0.0,0.0,0.0,0.0,0.5443123493262881,0.3051523043327307,1.1357264576921395,manual,85.0,0.0,0.0,0.0,0.0,1.2958659070947942,0.047296700695664315
1761050099.856055,4.713003158569336,0.0,0.0,-0.0,0.0,0.0,-0.0,0.0,0.0,0.0,0.0,0.0,0.0,0.0,0.5461636145027163,0.3090757705308246,1.338686329827111,manual,85.0,0.0,0.0,0.0,0.0,1.4784801707841317,0.09027961620740561
1761050099.964952,4.821900129318237,0.0,0.0,-0.0,0.0,0.0,-0.0,0.0,0.0,0.0,0.0,0.0,0.0,0.0,0.5657732673549013,0.34707404171479933,1.1806139796364388,manual,85.0,0.0,0.0,0.0,0.0,1.3544036139196751,0.05162102505041598
1761050100.0738513,4.93079948425293,0.0,0.0,-0.0,0.0,0.0,-0.0,0.0,0.0,0.0,0.0,0.0,0.0,0.0,0.47823777938519896,0.4349328145967239,1.0675869700225493,manual,85.0,0.0,0.0,0.0,0.0,1.2480464195719012,0.04762960712811981
1761050100.183283,5.040231227874756,0.0,0.0,-0.0,0.0,0.0,-0.0,0.0,0.0,0.0,0.0,0.0,0.0,0.0,0.17595079129542512,0.3284830456571808,1.1703199834695097,manual,85.0,0.0,0.0,0.0,0.0,1.2282136035518323,0.02144044221454038
1761050100.2927945,5.149742603302002,0.0,0.0,-0.0,0.0,0.0,-0.0,0.0,0.0,0.0,0.0,0.0,0.0,0.0,0.17288387472254338,0.3253293542691506,1.2736560689059744,manual,85.0,0.0,0.0,0.0,0.0,1.3258686981557724,0.03295924090144131
1761050100.4014537,5.258401870727539,0.0,0.0,-0.0,0.0,0.0,-0.0,0.0,0.0,0.0,0.0,0.0,0.0,0.0,0.16988391443661097,0.3222981497317353,1.3699379782464893,manual,85.0,0.0,0.0,0.0,0.0,1.4175565970877089,0.04331532379214245
1761050100.508961,5.365909099578857,0.0,0.0,-0.0,0.0,0.0,-0.0,0.0,0.0,0.0,0.0,0.0,0.0,0.0,0.5398618944084996,0.671364434413822,1.2923052416686203,manual,85.0,0.0,0.0,0.0,0.0,1.5531367958020685,0.02145027645838205
1761050100.6184962,5.475444316864014,0.0,0.0,-0.0,0.0,0.0,-0.0,0.0,0.0,0.0,0.0,0.0,0.0,0.0,0.5324261331707739,0.6671654913079699,1.3528507122170395,manual,85.0,0.0,0.0,0.0,0.0,1.5996225897446992,0.06851785693009603
1761050100.725888,5.582836151123047,0.0,0.0,-0.0,0.0,0.0,-0.0,0.0,0.0,0.0,0.0,0.0,0.0,0.0,0.3006885066859266,0.14806259011384607,1.2902310242878001,manual,85.0,0.0,0.0,0.0,0.0,1.3330537141011907,0.03524980397495605
1761050100.8264966,5.6834447383880615,0.0,0.0,-0.0,0.0,0.0,-0.0,0.0,0.0,0.0,0.0,0.0,0.0,0.0,0.29502217389238744,0.14628888847389795,1.2156491094321682,manual,85.0,0.0,0.0,0.0,0.0,1.259460709685833,0.031094409618476586
1761050100.9269376,5.783885717391968,0.0,0.0,-0.0,0.0,0.0,-0.0,0.0,0.0,0.0,0.0,0.0,0.0,0.0,0.36488583850051665,0.4758751902862686,1.0448101344549707,manual,85.0,0.0,0.0,0.0,0.0,1.2046688710712299,0.03467509441103871
1761050101.0350645,5.892012596130371,0.0,0.0,-0.0,0.0,0.0,-0.0,0.0,0.0,0.0,0.0,0.0,0.0,0.0,-0.05484573246254373,0.8141592337639789,0.940852444429635,manual,85.0,0.0,0.0,0.0,0.0,1.2454182568445515,0.03789033739586683
1761050101.142766,5.999714136123657,0.0,0.0,-0.0,0.0,0.0,-0.0,0.0,0.0,0.0,0.0,0.0,0.0,0.0,-0.06052502488412671,0.812011653898279,0.9641344195075415,manual,85.0,0.0,0.0,0.0,0.0,1.2619751913500465,0.031684896391069625
1761050101.2504244,6.107372522354126,0.0,0.0,-0.0,0.0,0.0,-0.0,0.0,0.0,0.0,0.0,0.0,0.0,0.0,-0.12492719746560318,1.040519126913936,1.057554553536271,manual,85.0,0.0,0.0,0.0,0.0,1.4888614750357574,0.04579993545003743
1761050101.3526075,6.209555625915527,0.0,0.0,-0.0,0.0,0.0,-0.0,0.0,0.0,0.0,0.0,0.0,0.0,0.0,0.09664135567677783,1.175750446783336,1.041724814297602,manual,85.0,0.0,0.0,0.0,0.0,1.5738231328397845,0.0370942947603502
1761050101.460941,6.317889213562012,0.0,0.0,-0.0,0.0,0.0,-0.0,0.0,0.0,0.0,0.0,0.0,0.0,0.0,0.09466507679304485,1.1794806682927983,0.8259058716367154,manual,85.0,0.0,0.0,0.0,0.0,1.4430026446422963,0.03654870217037824
1761050101.567962,6.424910068511963,0.0,0.0,-0.0,0.0,0.0,-0.0,0.0,0.0,0.0,0.0,0.0,0.0,0.0,0.09274980102507524,1.1832555993223184,0.9627530695814234,manual,85.0,0.0,0.0,0.0,0.0,1.5282636591590677,0.04616678525137147
1761050101.6750312,6.531979322433472,0.0,0.0,-0.0,0.0,0.0,-0.0,0.0,0.0,0.0,0.0,0.0,0.0,0.0,0.09075096062390588,1.1871660450215409,0.9689621814778852,manual,85.0,0.0,0.0,0.0,0.0,1.5350852303506248,0.05784127329750776
1761050101.7827513,6.639699459075928,0.0,0.0,-0.0,0.0,0.0,-0.0,0.0,0.0,0.0,0.0,0.0,0.0,0.0,0.22048047546774305,1.7402805380025657,1.0514582635745922,manual,85.0,0.0,0.0,0.0,0.0,2.0451778580486044,0.03154029503866007
1761050101.8885446,6.745492696762085,0.0,0.0,-0.0,0.0,0.0,-0.0,0.0,0.0,0.0,0.0,0.0,0.0,0.0,0.21782051465411145,1.7450997538079576,1.200695502949281,manual,85.0,0.0,0.0,0.0,0.0,2.1294338726871525,0.10477536558311136
1761050101.9984303,6.8553783893585205,0.0,0.0,-0.0,0.0,0.0,-0.0,0.0,0.0,0.0,0.0,0.0,0.0,0.0,-0.21625678566199905,1.328240086906689,1.357964733514401,manual,85.0,0.0,0.0,0.0,0.0,1.9118203219130157,0.05895104448841104
1761050102.1067793,6.9637274742126465,0.0,0.0,-0.0,0.0,0.0,-0.0,0.0,0.0,0.0,0.0,0.0,0.0,0.0,-0.2197933109792871,1.3333099586368644,1.3603389712614775,manual,85.0,0.0,0.0,0.0,0.0,1.9174323096485597,0.03868913392849533
1761050102.215353,7.072301149368286,0.0,0.0,-0.0,0.0,0.0,-0.0,0.0,0.0,0.0,0.0,0.0,0.0,0.0,-0.22340170701629317,1.3384376897808796,1.4633038478436597,manual,85.0,0.0,0.0,0.0,0.0,1.9956407300007264,0.04667699021023661
1761050102.323048,7.1799962520599365,0.0,0.0,-0.0,0.0,0.0,-0.0,0.0,0.0,0.0,0.0,0.0,0.0,0.0,-0.6692191478412596,1.2316878843995809,1.463743630628759,manual,85.0,0.0,0.0,0.0,0.0,2.026685651160623,0.038718216609607926
1761050102.4247296,7.281677722930908,0.0,0.0,-0.0,0.0,0.0,-0.0,0.0,0.0,0.0,0.0,0.0,0.0,0.0,-0.6721998550798038,1.2370424717794553,1.61267294236503,manual,85.0,0.0,0.0,0.0,0.0,2.1407570486143017,0.04827194732516432
1761050102.533909,7.390857219696045,0.0,0.0,-0.0,0.0,0.0,-0.0,0.0,0.0,0.0,0.0,0.0,0.0,0.0,-0.1964492459805428,0.5008080596032903,1.2492342647611054,manual,85.0,0.0,0.0,0.0,0.0,1.3601423701448156,0.062059101152399126
1761050102.642327,7.499275207519531,0.0,0.0,-0.0,0.0,0.0,-0.0,0.0,0.0,0.0,0.0,0.0,0.0,0.0,0.14771329597378566,0.5641744342080004,1.2245947851385963,manual,85.0,0.0,0.0,0.0,0.0,1.3563717771356059,0.05103368893825791
1761050102.7500176,7.606965780258179,0.0,0.0,-0.0,0.0,0.0,-0.0,0.0,0.0,0.0,0.0,0.0,0.0,0.0,0.14614821547693607,0.5680753474910167,1.1544146368089458,manual,85.0,0.0,0.0,0.0,0.0,1.294890750215192,0.06218750258999948
1761050102.8515182,7.708466291427612,0.0,0.0,-0.0,0.0,0.0,-0.0,0.0,0.0,0.0,0.0,0.0,0.0,0.0,0.4850225103426353,0.5738754502937096,1.0977627357323811,manual,85.0,0.0,0.0,0.0,0.0,1.3302867705692338,0.04085731219152713
1761050102.961337,7.818285226821899,0.0,0.0,-0.0,0.0,0.0,-0.0,0.0,0.0,0.0,0.0,0.0,0.0,0.0,0.48136935100364364,0.5608007346009889,0.9810154122632999,manual,85.0,0.0,0.0,0.0,0.0,1.2282528872804697,0.037326999498190794
1761050103.0707693,7.927717447280884,0.0,0.0,-0.0,0.0,0.0,-0.0,0.0,0.0,0.0,0.0,0.0,0.0,0.0,0.7464039732598765,0.45070672613325413,0.8120856733245869,manual,85.0,0.0,0.0,0.0,0.0,1.1915278364767372,0.03790398011621818
1761050103.179919,8.036867141723633,0.0,0.0,-0.0,0.0,0.0,-0.0,0.0,0.0,0.0,0.0,0.0,0.0,0.0,0.7439638376574147,0.453815367928368,0.9182304685604598,manual,85.0,0.0,0.0,0.0,0.0,1.2659296083521665,0.04706521766491735
1761050103.2881444,8.145092487335205,0.0,0.0,-0.0,0.0,0.0,-0.0,0.0,0.0,0.0,0.0,0.0,0.0,0.0,0.694328749540122,0.4813232132091825,0.9737204049309365,manual,85.0,0.0,0.0,0.0,0.0,1.2891454049062225,0.03712255655532105
1761050103.398216,8.25516414642334,0.0,0.0,-0.0,0.0,0.0,-0.0,0.0,0.0,0.0,0.0,0.0,0.0,0.0,0.3519196222653064,0.22635854228668728,1.1679022445533478,manual,85.0,0.0,0.0,0.0,0.0,1.2405971397009818,0.11728171488629291
1761050103.505834,8.36278223991394,0.0,0.0,-0.0,0.0,0.0,-0.0,0.0,0.0,0.0,0.0,0.0,0.0,0.0,0.35046778177470145,0.22874058787875368,1.0919534956819206,manual,85.0,0.0,0.0,0.0,0.0,1.1694068408116842,0.04329583789432446
1761050103.6139843,8.470932483673096,0.0,0.0,-0.0,0.0,0.0,-0.0,0.0,0.0,0.0,0.0,0.0,0.0,0.0,-0.07032694647431814,0.024809599760979396,0.9935638976595118,manual,85.0,0.0,0.0,0.0,0.0,0.9963586775720189,0.06056777984442366
1761050103.7222393,8.579187393188477,0.0,0.0,-0.0,0.0,0.0,-0.0,0.0,0.0,0.0,0.0,0.0,0.0,0.0,-0.0709683414952127,0.02560480272890939,1.1068202419094009,manual,85.0,0.0,0.0,0.0,0.0,1.1093886421438397,0.05206343102235717
1761050103.83082,8.68776822090149,0.0,0.0,-0.0,0.0,0.0,-0.0,0.0,0.0,0.0,0.0,0.0,0.0,0.0,-0.08890131194420324,0.28972978259142707,1.1993077042351543,manual,85.0,0.0,0.0,0.0,0.0,1.2370067742836628,0.06896305263957349
1761050103.9311721,8.78812026977539,0.0,0.0,-0.0,0.0,0.0,-0.0,0.0,0.0,0.0,0.0,0.0,0.0,0.0,0.1313426856373535,0.18635374326616203,1.2324812912283438,manual,85.0,0.0,0.0,0.0,0.0,1.2533909014858968,0.1027398428116416
1761050104.0400033,8.89695143699646,0.0,0.0,-0.0,0.0,0.0,-0.0,0.0,0.0,0.0,0.0,0.0,0.0,0.0,0.13270579889526085,0.1881793724417678,1.3385380852667372,manual,85.0,0.0,0.0,0.0,0.0,1.3581997316236483,0.06556417172326852
1761050104.146363,9.003311157226562,0.0,0.0,-0.0,0.0,0.0,-0.0,0.0,0.0,0.0,0.0,0.0,0.0,0.0,-0.005353496969037545,0.62601702312254,1.2583099072233428,manual,85.0,0.0,0.0,0.0,0.0,1.405442918010341,0.06055234752090192
1761050104.256421,9.113369226455688,0.0,0.0,-0.0,0.0,0.0,-0.0,0.0,0.0,0.0,0.0,0.0,0.0,0.0,0.37181975488007124,0.6425853429876567,1.0831881930921017,manual,85.0,0.0,0.0,0.0,0.0,1.3131879205946775,0.03998203975281293
1761050104.3646796,9.221627712249756,0.0,0.0,-0.0,0.0,0.0,-0.0,0.0,0.0,0.0,0.0,0.0,0.0,0.0,0.19008545426087395,0.6952641246161423,1.0862268553405379,manual,85.0,0.0,0.0,0.0,0.0,1.3036155354101941,0.053057468331247
1761050104.474806,9.331754207611084,0.0,0.0,-0.0,0.0,0.0,-0.0,0.0,0.0,0.0,0.0,0.0,0.0,0.0,0.1892945690848885,0.6929237814701843,1.0850776883687467,manual,85.0,0.0,0.0,0.0,0.0,1.301295274181704,0.1026767195881571
1761050104.5828629,9.439810991287231,0.0,0.0,-0.0,0.0,0.0,-0.0,0.0,0.0,0.0,0.0,0.0,0.0,0.0,-0.0785843757935315,0.6824806125842087,1.0215077166184603,manual,85.0,0.0,0.0,0.0,0.0,1.2310293683674798,0.048235923744977025
1761050104.691093,9.548041105270386,0.0,0.0,-0.0,0.0,0.0,-0.0,0.0,0.0,0.0,0.0,0.0,0.0,0.0,-0.5261849569481553,0.6283732531396505,0.7614310326674673,manual,85.0,0.0,0.0,0.0,0.0,1.118704952920512,0.06286603979432603
1761050104.7998486,9.65679669380188,0.0,0.0,-0.0,0.0,0.0,-0.0,0.0,0.0,0.0,0.0,0.0,0.0,0.0,-0.7270395742712873,0.8610751683424926,0.8204115062409091,manual,85.0,0.0,0.0,0.0,0.0,1.393955532886578,0.05272994941156454
1761050104.9009936,9.757941722869873,0.0,0.0,-0.0,0.0,0.0,-0.0,0.0,0.0,0.0,0.0,0.0,0.0,0.0,-1.0659704491282849,0.8120763369776381,1.1080687328881258,manual,85.0,0.0,0.0,0.0,0.0,1.7388436652839359,0.051945794120602
1761050105.0106604,9.867608547210693,0.0,0.0,-0.0,0.0,0.0,-0.0,0.0,0.0,0.0,0.0,0.0,0.0,0.0,-1.0647746938066232,0.8107388412622423,1.120622527884736,manual,85.0,0.0,0.0,0.0,0.0,1.7455192543495495,0.04553662800099523
1761050105.1190321,9.975980281829834,0.0,0.0,-0.0,0.0,0.0,-0.0,0.0,0.0,0.0,0.0,0.0,0.0,0.0,-1.0636417189263931,0.8094864500438381,1.2563668350601145,manual,85.0,0.0,0.0,0.0,0.0,1.8344098896604968,0.05120546774285086
1761050105.2269058,10.083853960037231,0.0,0.0,-0.0,0.0,0.0,-0.0,0.0,0.0,0.0,0.0,0.0,0.0,0.0,-1.0625245710627058,0.8082921378244691,1.3293736750410614,manual,85.0,0.0,0.0,0.0,0.0,1.8840193767774829,0.04801584932211414
1761050105.335436,10.192384243011475,0.0,0.0,-0.0,0.0,0.0,-0.0,0.0,0.0,0.0,0.0,0.0,0.0,0.0,-0.29118655443497565,0.39593648169356854,1.2372355801031394,manual,85.0,0.0,0.0,0.0,0.0,1.3312802814181341,0.07472391349517629
1761050105.436121,10.293069124221802,0.0,0.0,-0.0,0.0,0.0,-0.0,0.0,0.0,0.0,0.0,0.0,0.0,0.0,-0.29216927083516614,0.39221409637726834,1.2629287479827653,manual,85.0,0.0,0.0,0.0,0.0,1.354320420985634,0.04613233871397812
1761050105.5443003,10.401248455047607,0.0,0.0,-0.0,0.0,0.0,-0.0,0.0,0.0,0.0,0.0,0.0,0.0,0.0,-0.2932819516875783,0.38825467131852237,1.1032826338565163,manual,85.0,0.0,0.0,0.0,0.0,1.2058144812348626,0.04848024709847917
1761050105.6521306,10.509078741073608,0.0,0.0,-0.0,0.0,0.0,-0.0,0.0,0.0,0.0,0.0,0.0,0.0,0.0,-0.0032927085861485226,0.4063902972168132,1.161414418127919,manual,85.0,0.0,0.0,0.0,0.0,1.2304663206432005,0.05624904418434893
1761050105.7603025,10.617250680923462,0.0,0.0,-0.0,0.0,0.0,-0.0,0.0,0.0,0.0,0.0,0.0,0.0,0.0,0.24834607034839476,0.7789774904269322,1.1949908381500791,manual,85.0,0.0,0.0,0.0,0.0,1.4479243089719709,0.09803276113313784
1761050105.867802,10.72475004196167,0.0,0.0,-0.0,0.0,0.0,-0.0,0.0,0.0,0.0,0.0,0.0,0.0,0.0,-0.022955837101910948,0.6865915414817002,1.3565754120408426,manual,85.0,0.0,0.0,0.0,0.0,1.5206024345124036,0.09368279873773655
1761050105.9733162,10.830264329910278,0.0,0.0,-0.0,0.0,0.0,-0.0,0.0,0.0,0.0,0.0,0.0,0.0,0.0,-0.022615547960143482,0.680910225994686,1.3895659474772089,manual,85.0,0.0,0.0,0.0,0.0,1.5475928796882936,0.06640908424328998
1761050106.081551,10.938499212265015,0.0,0.0,-0.0,0.0,0.0,-0.0,0.0,0.0,0.0,0.0,0.0,0.0,0.0,0.36779157046491434,0.02033185203280768,1.0727366202955864,manual,85.0,0.0,0.0,0.0,0.0,1.1342168575873526,0.06836320402938771
1761050106.1885064,11.045454502105713,0.0,0.0,-0.0,0.0,0.0,-0.0,0.0,0.0,0.0,0.0,0.0,0.0,0.0,0.17913760416629076,-0.11677703469140986,0.7984156569660176,manual,85.0,0.0,0.0,0.0,0.0,0.8265559378204448,0.06947473204199008
1761050106.297664,11.154612064361572,0.0,0.0,-0.0,0.0,0.0,-0.0,0.0,0.0,0.0,0.0,0.0,0.0,0.0,0.18229125219447834,-0.11678750568811462,0.8349807729148685,manual,85.0,0.0,0.0,0.0,0.0,0.8625904667042138,0.07039976453290472
1761050106.4048498,11.261797904968262,0.0,0.0,-0.0,0.0,0.0,-0.0,0.0,0.0,0.0,0.0,0.0,0.0,0.0,0.1147401513598927,-0.3684658298252731,1.0052931643624903,manual,85.0,0.0,0.0,0.0,0.0,1.076822509235792,0.06897290077016172
1761050106.506781,11.363729238510132,0.0,0.0,-0.0,0.0,0.0,-0.0,0.0,0.0,0.0,0.0,0.0,0.0,0.0,0.4204512136278314,0.0822673275333738,1.040704514714002,manual,85.0,0.0,0.0,0.0,0.0,1.1254390357397002,0.07786555082586646
1761050106.6152518,11.4721999168396,0.0,0.0,-0.0,0.0,0.0,-0.0,0.0,0.0,0.0,0.0,0.0,0.0,0.0,0.4626714907225864,-0.021666694926646184,0.9751067684808097,manual,85.0,0.0,0.0,0.0,0.0,1.079521914522161,0.0936604005653428
1761050106.72261,11.57955813407898,0.0,0.0,-0.0,0.0,0.0,-0.0,0.0,0.0,0.0,0.0,0.0,0.0,0.0,0.46635558213480105,-0.021664432293222253,0.9341800476468411,manual,85.0,0.0,0.0,0.0,0.0,1.0443415332334205,0.07171631653490103
1761050106.831468,11.688416242599487,0.0,0.0,-0.0,0.0,0.0,-0.0,0.0,0.0,0.0,0.0,0.0,0.0,0.0,0.6689706461067938,0.14827674390170714,0.9615674191627721,manual,85.0,0.0,0.0,0.0,0.0,1.180728427594588,0.08764907455881334
1761050106.9392107,11.796158790588379,0.0,0.0,-0.0,0.0,0.0,-0.0,0.0,0.0,0.0,0.0,0.0,0.0,0.0,0.5492209668426212,-0.19084533212966598,1.17097854435938,manual,85.0,0.0,0.0,0.0,0.0,1.3073853152629638,0.07526515693833448
1761050107.0477781,11.904726266860962,0.0,0.0,-0.0,0.0,0.0,-0.0,0.0,0.0,0.0,0.0,0.0,0.0,0.0,0.4336491133575154,0.3822336281787111,1.2453775160603895,manual,85.0,0.0,0.0,0.0,0.0,1.3729964521203855,0.0756320944424079
1761050107.157561,12.014509201049805,0.0,0.0,-0.0,0.0,0.0,-0.0,0.0,0.0,0.0,0.0,0.0,0.0,0.0,0.4337716665050708,0.3825099295001086,1.313407033044701,manual,85.0,0.0,0.0,0.0,0.0,1.4350992088632928,0.07259409408451427
1761050107.264862,12.1218101978302,0.0,0.0,-0.0,0.0,0.0,-0.0,0.0,0.0,0.0,0.0,0.0,0.0,0.0,0.5878742931122684,0.31711905047974365,1.3016707963308929,manual,85.0,0.0,0.0,0.0,0.0,1.4630473467048577,0.08120651835389871
1761050107.3735824,12.230530500411987,0.0,0.0,-0.0,0.0,0.0,-0.0,0.0,0.0,0.0,0.0,0.0,0.0,0.0,0.51884387548426,0.20802762102695468,1.1664011593475772,manual,85.0,0.0,0.0,0.0,0.0,1.2934319165557315,0.12763629321032607
1761050107.4780598,12.335007905960083,0.0,0.0,-0.0,0.0,0.0,-0.0,0.0,0.0,0.0,0.0,0.0,0.0,0.0,0.16526085245794192,0.31077703214312086,1.202501660760401,manual,85.0,0.0,0.0,0.0,0.0,1.2529580029651173,0.08171603019065893
1761050107.587194,12.44414210319519,0.0,0.0,-0.0,0.0,0.0,-0.0,0.0,0.0,0.0,0.0,0.0,0.0,0.0,0.16479675864568485,0.3176805896070893,1.2146585151088156,manual,85.0,0.0,0.0,0.0,0.0,1.2662836321296997,0.072141471165148
1761050107.6957724,12.552720546722412,0.0,0.0,-0.0,0.0,0.0,-0.0,0.0,0.0,0.0,0.0,0.0,0.0,0.0,-0.02729486986069386,0.14039615904560646,1.3051866139900554,manual,85.0,0.0,0.0,0.0,0.0,1.3129996910640525,0.0680313898520502
1761050107.8036451,12.660593271255493,0.0,0.0,-0.0,0.0,0.0,-0.0,0.0,0.0,0.0,0.0,0.0,0.0,0.0,-0.405390662856557,0.10250142299744328,1.2439241153963685,manual,85.0,0.0,0.0,0.0,0.0,1.3123244020105767,0.06295223293652329
1761050107.911628,12.76857614517212,0.0,0.0,-0.0,0.0,0.0,-0.0,0.0,0.0,0.0,0.0,0.0,0.0,0.0,0.11467257584610528,-0.38939325020889803,1.323102971596181,manual,85.0,0.0,0.0,0.0,0.0,1.3839719565099846,0.0914944042942045
1761050108.0130475,12.869995594024658,0.0,0.0,-0.0,0.0,0.0,-0.0,0.0,0.0,0.0,0.0,0.0,0.0,0.0,0.11350770682396369,-0.38891577233068064,1.3951558481300796,manual,85.0,0.0,0.0,0.0,0.0,1.4527901837662474,0.052572257513157084
1761050108.1221156,12.979063749313354,0.0,0.0,-0.0,0.0,0.0,-0.0,0.0,0.0,0.0,0.0,0.0,0.0,0.0,-0.17075400164277155,-0.6064413398475937,1.1310202160126661,manual,85.0,0.0,0.0,0.0,0.0,1.2946562311217995,0.11142749160792784
1761050108.2290602,13.086008310317993,0.0,0.0,-0.0,0.0,0.0,-0.0,0.0,0.0,0.0,0.0,0.0,0.0,0.0,-0.41514646282055123,-0.1947492876738668,0.9978576898501508,manual,85.0,0.0,0.0,0.0,0.0,1.0981775083450642,0.06771783900194213
1761050108.3377695,13.194717645645142,0.0,0.0,-0.0,0.0,0.0,-0.0,0.0,0.0,0.0,0.0,0.0,0.0,0.0,-0.14684709367258716,0.14245705316830706,0.879491308302091,manual,85.0,0.0,0.0,0.0,0.0,0.9029745524079885,0.05957070772360762
1761050108.4462469,13.303194999694824,0.0,0.0,-0.0,0.0,0.0,-0.0,0.0,0.0,0.0,0.0,0.0,0.0,0.0,-0.14429737507009976,0.14408034543742965,0.9936305300132434,manual,85.0,0.0,0.0,0.0,0.0,1.0143384585866244,0.06440886248681639
1761050108.5564456,13.41339373588562,0.0,0.0,-0.0,0.0,0.0,-0.0,0.0,0.0,0.0,0.0,0.0,0.0,0.0,-0.1417689689947697,0.14578121964489898,1.089001888452023,manual,85.0,0.0,0.0,0.0,0.0,1.107824768464339,0.06352165873788075
1761050108.6647336,13.521681785583496,0.0,0.0,-0.0,0.0,0.0,-0.0,0.0,0.0,0.0,0.0,0.0,0.0,0.0,-0.40540836552589604,0.036076340346389686,1.1459369750649722,manual,85.0,0.0,0.0,0.0,0.0,1.2160711311400438,0.052721698554319525
1761050108.7735472,13.630495309829712,0.0,0.0,-0.0,0.0,0.0,-0.0,0.0,0.0,0.0,0.0,0.0,0.0,0.0,0.491871779658906,-0.10359313427038738,1.0745306415862308,manual,85.0,0.0,0.0,0.0,0.0,1.186290640947866,0.06540971484700821
1761050108.8812487,13.738196849822998,0.0,0.0,-0.0,0.0,0.0,-0.0,0.0,0.0,0.0,0.0,0.0,0.0,0.0,0.2547036735857165,-0.26650449471042537,0.9102535574363186,manual,85.0,0.0,0.0,0.0,0.0,0.9820693182583354,0.08422772210798969
1761050108.9922793,13.84922742843628,0.0,0.0,-0.0,0.0,0.0,-0.0,0.0,0.0,0.0,0.0,0.0,0.0,0.0,0.5158564665554479,0.3631699081700751,1.1220452785692743,manual,85.0,0.0,0.0,0.0,0.0,1.287239637148784,0.06549225249490398
1761050109.099731,13.956679105758667,0.0,0.0,-0.0,0.0,0.0,-0.0,0.0,0.0,0.0,0.0,0.0,0.0,0.0,0.5127940403395992,0.36587945737680827,1.1073496315937232,manual,85.0,0.0,0.0,0.0,0.0,1.2739892902724546,0.07384143519118883
1761050109.2087257,14.065673828125,0.0,0.0,-0.0,0.0,0.0,-0.0,0.0,0.0,0.0,0.0,0.0,0.0,0.0,1.194896405966384,0.8057593523868939,1.1209048118505085,manual,85.0,0.0,0.0,0.0,0.0,1.8257746717982348,0.05712227280073854
1761050109.317677,14.174625158309937,0.0,0.0,-0.0,0.0,0.0,-0.0,0.0,0.0,0.0,0.0,0.0,0.0,0.0,0.822288096653624,0.48631507772881966,1.1214507082557112,manual,85.0,0.0,0.0,0.0,0.0,1.4731978006268758,0.0667582672078446
1761050109.424986,14.281934022903442,0.0,0.0,-0.0,0.0,0.0,-0.0,0.0,0.0,0.0,0.0,0.0,0.0,0.0,0.5354160141999347,0.07701598147399616,1.228810805841553,manual,85.0,0.0,0.0,0.0,0.0,1.3426011195500749,0.05956969677824378
1761050109.5261343,14.383082389831543,0.0,0.0,-0.0,0.0,0.0,-0.0,0.0,0.0,0.0,0.0,0.0,0.0,0.0,0.2899471597283944,0.10654462170855888,1.2780558954117143,manual,85.0,0.0,0.0,0.0,0.0,1.3148566399597417,0.062284647987740235
1761050109.6359668,14.492914915084839,0.0,0.0,-0.0,0.0,0.0,-0.0,0.0,0.0,0.0,0.0,0.0,0.0,0.0,0.28687306290250686,0.101981911419408,1.2041483841376497,manual,85.0,0.0,0.0,0.0,0.0,1.2420425900496064,0.06692875431888011
1761050109.743517,14.600465059280396,0.0,0.0,-0.0,0.0,0.0,-0.0,0.0,0.0,0.0,0.0,0.0,0.0,0.0,-0.032838378525029535,-0.06339358100311236,1.0442367045619148,manual,85.0,0.0,0.0,0.0,0.0,1.0466744481312606,0.06644500481334298
1761050109.8525343,14.709482431411743,0.0,0.0,-0.0,0.0,0.0,-0.0,0.0,0.0,0.0,0.0,0.0,0.0,0.0,-0.10110959697939759,0.21216083831717625,1.0710312884694377,manual,85.0,0.0,0.0,0.0,0.0,1.0965142009099962,0.07645780014405217
1761050109.9597597,14.816707849502563,0.0,0.0,-0.0,0.0,0.0,-0.0,0.0,0.0,0.0,0.0,0.0,0.0,0.0,-0.2795512261762487,-0.05189938845696496,1.0303282185026266,manual,85.0,0.0,0.0,0.0,0.0,1.0688398722080157,0.06755031986085405
1761050110.0597098,14.9166579246521,0.0,0.0,-0.0,0.0,0.0,-0.0,0.0,0.0,0.0,0.0,0.0,0.0,0.0,0.371986392766026,-0.14542718578221608,0.8852673484162172,manual,85.0,0.0,0.0,0.0,0.0,0.9711957685963709,0.07415841541977532
1761050110.1677556,15.024703741073608,0.0,0.0,-0.0,0.0,0.0,-0.0,0.0,0.0,0.0,0.0,0.0,0.0,0.0,0.09613202976050879,0.13496383000478648,0.9239658624548519,manual,85.0,0.0,0.0,0.0,0.0,0.938706299934849,0.07034612202874219
1761050110.2760148,15.132962942123413,0.0,0.0,-0.0,0.0,0.0,-0.0,0.0,0.0,0.0,0.0,0.0,0.0,0.0,0.09618538622202406,0.13071396516361025,1.0338884094496283,manual,85.0,0.0,0.0,0.0,0.0,1.0465481414659126,0.11481337560189532
1761050110.3838873,15.240835428237915,0.0,0.0,-0.0,0.0,0.0,-0.0,0.0,0.0,0.0,0.0,0.0,0.0,0.0,0.09629021938067076,0.12651069124843087,1.120989109629152,manual,85.0,0.0,0.0,0.0,0.0,1.132207288996009,0.10849194558490673
1761050110.4925044,15.349452495574951,0.0,0.0,-0.0,0.0,0.0,-0.0,0.0,0.0,0.0,0.0,0.0,0.0,0.0,0.09634746885374018,0.12239447138308387,1.261252840725707,manual,85.0,0.0,0.0,0.0,0.0,1.270835146515209,0.09364416631798174
1761050110.6025002,15.459448337554932,0.0,0.0,-0.0,0.0,0.0,-0.0,0.0,0.0,0.0,0.0,0.0,0.0,0.0,1.602541225234539,0.7090083147902967,1.177534815556389,manual,85.0,0.0,0.0,0.0,0.0,2.111260147605077,0.08841581004143713
1761050110.7106826,15.567630767822266,0.0,0.0,-0.0,0.0,0.0,-0.0,0.0,0.0,0.0,0.0,0.0,0.0,0.0,1.0847207204220166,0.9425758048554849,1.0661818211686447,manual,85.0,0.0,0.0,0.0,0.0,1.7893607419976307,0.0900890717603717
1761050110.8194923,15.676440477371216,0.0,0.0,-0.0,0.0,0.0,-0.0,0.0,0.0,0.0,0.0,0.0,0.0,0.0,0.9950851403674297,0.8343078069205989,1.17646354836214,manual,85.0,0.0,0.0,0.0,0.0,1.7522358385484427,0.08811588529355453
1761050110.9295835,15.786531686782837,0.0,0.0,-0.0,0.0,0.0,-0.0,0.0,0.0,0.0,0.0,0.0,0.0,0.0,0.7660438097919521,0.8480137587890465,1.251396084212684,manual,85.0,0.0,0.0,0.0,0.0,1.6946806817801796,0.08364685818005459
1761050111.0395868,15.89653491973877,0.0,0.0,-0.0,0.0,0.0,-0.0,0.0,0.0,0.0,0.0,0.0,0.0,0.0,0.9248905573145396,0.5729674186147921,1.0599151688056005,manual,85.0,0.0,0.0,0.0,0.0,1.518925400033821,0.08998671351258467
1761050111.1499557,16.006903886795044,0.0,0.0,-0.0,0.0,0.0,-0.0,0.0,0.0,0.0,0.0,0.0,0.0,0.0,0.6617156588397963,0.35546097278310856,1.137947956287522,manual,85.0,0.0,0.0,0.0,0.0,1.3635049202495193,0.08922313183139984
1761050111.2575872,16.114535331726074,0.0,0.0,-0.0,0.0,0.0,-0.0,0.0,0.0,0.0,0.0,0.0,0.0,0.0,0.4623319085946499,0.2439892310199304,1.0493203869678434,manual,85.0,0.0,0.0,0.0,0.0,1.1723287990426632,0.10843647273832956
1761050111.3646686,16.221616744995117,0.0,0.0,-0.0,0.0,0.0,-0.0,0.0,0.0,0.0,0.0,0.0,0.0,0.0,0.6689839188263812,0.5683396977012064,0.9794537464094052,manual,85.0,0.0,0.0,0.0,0.0,1.3152486977704332,0.09312429615395823
1761050111.4727223,16.329670429229736,0.0,0.0,-0.0,0.0,0.0,-0.0,0.0,0.0,0.0,0.0,0.0,0.0,0.0,0.6731631523332644,0.08564271133697783,0.9583355765686009,manual,85.0,0.0,0.0,0.0,0.0,1.1742616322529997,0.09331480743084188
1761050111.577244,16.434192180633545,0.0,0.0,-0.0,0.0,0.0,-0.0,0.0,0.0,0.0,0.0,0.0,0.0,0.0,0.5633448507488388,-0.18916703682692043,0.9061160639587272,manual,85.0,0.0,0.0,0.0,0.0,1.0835995155273765,0.09438775762240507
1761050111.6861615,16.54310965538025,0.0,0.0,-0.0,0.0,0.0,-0.0,0.0,0.0,0.0,0.0,0.0,0.0,0.0,0.4952638323986409,-0.4914282966848583,0.9650283217918506,manual,85.0,0.0,0.0,0.0,0.0,1.1908264761606393,0.1299813102477154
1761050111.7944665,16.65141463279724,0.0,0.0,-0.0,0.0,0.0,-0.0,0.0,0.0,0.0,0.0,0.0,0.0,0.0,0.49246058224558337,-0.4885732917816993,0.9443642730357136,manual,85.0,0.0,0.0,0.0,0.0,1.1717700997611844,0.0935940699011741
1761050111.9023798,16.75932788848877,0.0,0.0,-0.0,0.0,0.0,-0.0,0.0,0.0,0.0,0.0,0.0,0.0,0.0,0.4356798398561178,-0.33402962512912426,0.967206288861083,manual,85.0,0.0,0.0,0.0,0.0,1.1121513919127126,0.11853947384912943
1761050112.0112658,16.868213891983032,0.0,0.0,-0.0,0.0,0.0,-0.0,0.0,0.0,0.0,0.0,0.0,0.0,0.0,0.4188608102114363,-0.2340899309016116,1.1400950545285715,manual,85.0,0.0,0.0,0.0,0.0,1.2369556206432826,0.10092611623713371
1761050112.1220157,16.97896385192871,0.0,0.0,-0.0,0.0,0.0,-0.0,0.0,0.0,0.0,0.0,0.0,0.0,0.0,0.14932082156182183,-0.22206474005607352,1.1090272759419078,manual,85.0,0.0,0.0,0.0,0.0,1.1408553612580332,0.09597191587229065
1761050112.2312467,17.088194847106934,0.0,0.0,-0.0,0.0,0.0,-0.0,0.0,0.0,0.0,0.0,0.0,0.0,0.0,0.14973206368754055,-0.22150676427305616,0.9909271613316134,manual,85.0,0.0,0.0,0.0,0.0,1.026363277100062,0.09144012149102036
1761050112.3409681,17.197916269302368,0.0,0.0,-0.0,0.0,0.0,-0.0,0.0,0.0,0.0,0.0,0.0,0.0,0.0,0.15017477109137845,-0.22098076603707462,0.9203944969448212,manual,85.0,0.0,0.0,0.0,0.0,0.9583897906577421,0.09651080252728943
1761050112.4507341,17.307682275772095,0.0,0.0,-0.0,0.0,0.0,-0.0,0.0,0.0,0.0,0.0,0.0,0.0,0.0,0.1507038358904532,-0.22037363800813273,1.080630328964153,manual,85.0,0.0,0.0,0.0,0.0,1.113120880389102,0.11174158963712762
1761050112.5689461,17.425894260406494,0.0,0.0,-0.0,0.0,0.0,-0.0,0.0,0.0,0.0,0.0,0.0,0.0,0.0,0.15138564880624633,-0.21964311441971743,1.3505833799625846,manual,85.0,0.0,0.0,0.0,0.0,1.376675771054187,0.08679946744824601
1761050112.6789098,17.535857915878296,0.0,0.0,-0.0,0.0,0.0,-0.0,0.0,0.0,0.0,0.0,0.0,0.0,0.0,0.548613953684426,-0.2295989139578627,1.414784338408548,manual,85.0,0.0,0.0,0.0,0.0,1.5347011616839286,0.08944585702145666
1761050112.7885733,17.64552140235901,0.0,0.0,-0.0,0.0,0.0,-0.0,0.0,0.0,0.0,0.0,0.0,0.0,0.0,0.44556332815951505,-0.08475064008860068,1.2350699204420301,manual,85.0,0.0,0.0,0.0,0.0,1.315715417093185,0.11058661526827315
1761050112.8977761,17.754724264144897,0.0,0.0,-0.0,0.0,0.0,-0.0,0.0,0.0,0.0,0.0,0.0,0.0,0.0,0.6376542599838436,-0.03493359061274746,1.2206769438099636,manual,85.0,0.0,0.0,0.0,0.0,1.3776340269381688,0.10539530003261346
1761050113.007644,17.8645920753479,0.0,0.0,-0.0,0.0,0.0,-0.0,0.0,0.0,0.0,0.0,0.0,0.0,0.0,0.5842409871437503,0.011133113021087429,1.1833997988633274,manual,85.0,0.0,0.0,0.0,0.0,1.3198092897134828,0.10548933979214253
1761050113.1075358,17.964483976364136,0.0,0.0,-0.0,0.0,0.0,-0.0,0.0,0.0,0.0,0.0,0.0,0.0,0.0,0.035645561584587405,0.20034430634973294,1.1998668507609658,manual,85.0,0.0,0.0,0.0,0.0,1.2169999616690519,0.09730332593909971
1761050113.2169142,18.073862314224243,0.0,0.0,-0.0,0.0,0.0,-0.0,0.0,0.0,0.0,0.0,0.0,0.0,0.0,-0.39817805177415,0.24915165619494437,1.0410613959276969,manual,85.0,0.0,0.0,0.0,0.0,1.1421169549526293,0.09746661890139913
1761050113.3245907,18.181538820266724,0.0,0.0,-0.0,0.0,0.0,-0.0,0.0,0.0,0.0,0.0,0.0,0.0,0.0,-0.28078206550067475,-0.02429053098247963,1.1294001593078846,manual,85.0,0.0,0.0,0.0,0.0,1.1640332117456578,0.10001787281776668
1761050113.4336343,18.290582418441772,0.0,0.0,-0.0,0.0,0.0,-0.0,0.0,0.0,0.0,0.0,0.0,0.0,0.0,-0.2785441571033484,-0.027470087771953474,1.235457064511471,manual,85.0,0.0,0.0,0.0,0.0,1.2667658076495099,0.0915031452476307
1761050113.5412922,18.398240327835083,0.0,0.0,-0.0,0.0,0.0,-0.0,0.0,0.0,0.0,0.0,0.0,0.0,0.0,-0.2763157541964906,-0.03075630359175533,1.3321007131833529,manual,85.0,0.0,0.0,0.0,0.0,1.3608044151498777,0.12230940438119174
1761050113.6519017,18.50884985923767,0.0,0.0,-0.0,0.0,0.0,-0.0,0.0,0.0,0.0,0.0,0.0,0.0,0.0,0.22325874561316775,-0.04264340037574528,1.2471655920012028,manual,85.0,0.0,0.0,0.0,0.0,1.267708539436444,0.10239776803602374
1761050113.760747,18.617695093154907,0.0,0.0,-0.0,0.0,0.0,-0.0,0.0,0.0,0.0,0.0,0.0,0.0,0.0,0.3536194677366314,0.19479090661860668,1.2186175091863087,manual,85.0,0.0,0.0,0.0,0.0,1.2837518681423916,0.09941776278766777
1761050113.868959,18.72590708732605,0.0,0.0,-0.0,0.0,0.0,-0.0,0.0,0.0,0.0,0.0,0.0,0.0,0.0,0.039644042524930256,-0.2676181475105577,1.247740156376978,manual,85.0,0.0,0.0,0.0,0.0,1.2767327914721807,0.10644653005621667
1761050113.9776347,18.834582805633545,0.0,0.0,-0.0,0.0,0.0,-0.0,0.0,0.0,0.0,0.0,0.0,0.0,0.0,0.04299955372792907,-0.27147093612077855,1.1891994694201118,manual,85.0,0.0,0.0,0.0,0.0,1.2205493881233025,0.10371840376252257
1761050114.0857098,18.942657947540283,0.0,0.0,-0.0,0.0,0.0,-0.0,0.0,0.0,0.0,0.0,0.0,0.0,0.0,0.0464799880397871,-0.2754071991162359,1.3373470365082434,manual,85.0,0.0,0.0,0.0,0.0,1.3662015263754501,0.10573231229050911
1761050114.1887243,19.04567241668701,0.0,0.0,-0.0,0.0,0.0,-0.0,0.0,0.0,0.0,0.0,0.0,0.0,0.0,-0.21035386278968313,-0.9558201477779242,1.3228078438857223,manual,85.0,0.0,0.0,0.0,0.0,1.645497339509957,0.11285206353144689
1761050114.298496,19.155444145202637,0.0,0.0,-0.0,0.0,0.0,-0.0,0.0,0.0,0.0,0.0,0.0,0.0,0.0,0.021676066513370066,-0.7558850546990353,1.305584399063536,manual,85.0,0.0,0.0,0.0,0.0,1.5087686008314696,0.11928173509191105
1761050114.4054146,19.262362718582153,0.0,0.0,-0.0,0.0,0.0,-0.0,0.0,0.0,0.0,0.0,0.0,0.0,0.0,0.4264521473676973,-0.266395320983655,1.1072899690260705,manual,85.0,0.0,0.0,0.0,0.0,1.2161081269945782,0.16801407866193652
1761050114.512394,19.36934208869934,0.0,0.0,-0.0,0.0,0.0,-0.0,0.0,0.0,0.0,0.0,0.0,0.0,0.0,0.6900397493469536,-0.14294755752420338,1.1932969532068893,manual,85.0,0.0,0.0,0.0,0.0,1.3858378254376618,0.1262161992483267
1761050114.6231031,19.480051279067993,0.0,0.0,-0.0,0.0,0.0,-0.0,0.0,0.0,0.0,0.0,0.0,0.0,0.0,0.6924380120397604,-0.14559514614864344,1.1667304975566901,manual,85.0,0.0,0.0,0.0,0.0,1.3645249726657633,0.12069153097824835
1761050114.731932,19.58888006210327,0.0,0.0,-0.0,0.0,0.0,-0.0,0.0,0.0,0.0,0.0,0.0,0.0,0.0,0.5537543437881373,-0.5943238721201478,1.0625092973690837,manual,85.0,0.0,0.0,0.0,0.0,1.3374568199504089,0.1219697301335405
1761050114.8408256,19.697773694992065,0.0,0.0,-0.0,0.0,0.0,-0.0,0.0,0.0,0.0,0.0,0.0,0.0,0.0,0.7994774462414581,-0.8956775407433174,1.0657522884919832,manual,85.0,0.0,0.0,0.0,0.0,1.60537546526246,0.12795241557311454
1761050114.949358,19.80630612373352,0.0,0.0,-0.0,0.0,0.0,-0.0,0.0,0.0,0.0,0.0,0.0,0.0,0.0,0.7985844849132574,-0.8961347898738946,1.3291182393044922,manual,85.0,0.0,0.0,0.0,0.0,1.7909076009717464,0.12985323141142674
1761050115.0581672,19.915115356445312,0.0,0.0,-0.0,0.0,0.0,-0.0,0.0,0.0,0.0,0.0,0.0,0.0,0.0,0.7976370854133319,-0.8965048315690771,1.370462818226606,manual,85.0,0.0,0.0,0.0,0.0,1.8215691502644047,0.12448614462298159
1761050115.1648428,20.021790981292725,0.0,0.0,-0.0,0.0,0.0,-0.0,0.0,0.0,0.0,0.0,0.0,0.0,0.0,0.04030553247169507,-0.22811213099382383,1.4200618629116344,manual,85.0,0.0,0.0,0.0,0.0,1.438831253048957,0.1191958791693637
1761050115.273854,20.130802154541016,0.0,0.0,-0.0,0.0,0.0,-0.0,0.0,0.0,0.0,0.0,0.0,0.0,0.0,0.037820568810815094,-0.22692586746510113,1.468759905440231,manual,85.0,0.0,0.0,0.0,0.0,1.4866678864422809,0.11905930270387771
1761050115.3823674,20.239315509796143,0.0,0.0,-0.0,0.0,0.0,-0.0,0.0,0.0,0.0,0.0,0.0,0.0,0.0,0.03518987945110619,-0.22579279106013778,1.5335140575560107,manual,85.0,0.0,0.0,0.0,0.0,1.5504470570878612,0.12079850875782112
1761050115.490562,20.34751009941101,0.0,0.0,-0.0,0.0,0.0,-0.0,0.0,0.0,0.0,0.0,0.0,0.0,0.0,0.21087161188447007,0.1370083938025477,1.4735189979878585,manual,85.0,0.0,0.0,0.0,0.0,1.4948231915856307,0.12140226985757953
1761050115.5983684,20.4553165435791,0.0,0.0,-0.0,0.0,0.0,-0.0,0.0,0.0,0.0,0.0,0.0,0.0,0.0,0.21022675023604848,0.13724070595832447,1.390673365361667,manual,85.0,0.0,0.0,0.0,0.0,1.413153461947107,0.12396058207265837
1761050115.7010977,20.558045864105225,0.0,0.0,-0.0,0.0,0.0,-0.0,0.0,0.0,0.0,0.0,0.0,0.0,0.0,-0.7047677601452412,0.20366735114971743,1.563038043173059,manual,85.0,0.0,0.0,0.0,0.0,1.7266342722391295,0.11774901903643488
1761050115.8086472,20.665595293045044,0.0,0.0,-0.0,0.0,0.0,-0.0,0.0,0.0,0.0,0.0,0.0,0.0,0.0,-0.7155719111629654,-0.11651607483521345,1.4889296300731698,manual,85.0,0.0,0.0,0.0,0.0,1.6560587547095815,0.12149342049616067
1761050115.9175885,20.774536609649658,0.0,0.0,-0.0,0.0,0.0,-0.0,0.0,0.0,0.0,0.0,0.0,0.0,0.0,-0.2407008050551194,0.369132578275265,1.303466186487744,manual,85.0,0.0,0.0,0.0,0.0,1.3759432536319327,0.12030794481470106
1761050116.024898,20.8818461894989,0.0,0.0,-0.0,0.0,0.0,-0.0,0.0,0.0,0.0,0.0,0.0,0.0,0.0,-0.24371031412972952,0.36659148410120046,1.236600035661663,manual,85.0,0.0,0.0,0.0,0.0,1.3126171115855372,0.11777479667901737
1761050116.1340804,20.991028547286987,0.0,0.0,-0.0,0.0,0.0,-0.0,0.0,0.0,0.0,0.0,0.0,0.0,0.0,-0.376888780390061,0.5670005985583464,1.0622710816839491,manual,85.0,0.0,0.0,0.0,0.0,1.26172686526499,0.11780109508663356
1761050116.2372265,21.09417462348938,0.0,0.0,-0.0,0.0,0.0,-0.0,0.0,0.0,0.0,0.0,0.0,0.0,0.0,-0.3785928914476589,0.5663084844229375,1.0229660143596695,manual,85.0,0.0,0.0,0.0,0.0,1.2290229222919364,0.11422756634045111
1761050116.344876,21.201824188232422,0.0,0.0,-0.0,0.0,0.0,-0.0,0.0,0.0,0.0,0.0,0.0,0.0,0.0,-0.9106303405947204,0.7122339954583188,1.0659434417105373,manual,85.0,0.0,0.0,0.0,0.0,1.5725012885285286,0.11650505642328857
1761050116.4542928,21.311240911483765,0.0,0.0,-0.0,0.0,0.0,-0.0,0.0,0.0,0.0,0.0,0.0,0.0,0.0,-0.3810858264597529,0.6593691916609453,1.0863267234208134,manual,85.0,0.0,0.0,0.0,0.0,1.326687562336484,0.1146819540996077
1761050116.562023,21.418971061706543,0.0,0.0,-0.0,0.0,0.0,-0.0,0.0,0.0,0.0,0.0,0.0,0.0,0.0,-0.5419021226595268,1.0768936956262471,1.2238153305717239,manual,85.0,0.0,0.0,0.0,0.0,1.7178713297464496,0.12608844935426847
1761050116.6722944,21.529242515563965,0.0,0.0,-0.0,0.0,0.0,-0.0,0.0,0.0,0.0,0.0,0.0,0.0,0.0,0.40691194903287675,0.8568777431568487,1.1717378387377935,manual,85.0,0.0,0.0,0.0,0.0,1.50757632102432,0.11950709635373483
1761050116.7823293,21.639277458190918,0.0,0.0,-0.0,0.0,0.0,-0.0,0.0,0.0,0.0,0.0,0.0,0.0,0.0,0.17201351012471822,0.6843282842173426,1.0434468747346846,manual,85.0,0.0,0.0,0.0,0.0,1.2596329737819898,0.11329091408368862
1761050116.8912714,21.74821949005127,0.0,0.0,-0.0,0.0,0.0,-0.0,0.0,0.0,0.0,0.0,0.0,0.0,0.0,0.17173646294202974,0.6325924596406954,1.0919874299146555,manual,85.0,0.0,0.0,0.0,0.0,1.27361814520276,0.11739993465350201
1761050116.9993393,21.856287479400635,0.0,0.0,-0.0,0.0,0.0,-0.0,0.0,0.0,0.0,0.0,0.0,0.0,0.0,0.04830127263695975,0.697589629206749,1.0389574913923731,manual,85.0,0.0,0.0,0.0,0.0,1.2523565676896866,0.11574969851759427
1761050117.107243,21.964191198349,0.0,0.0,-0.0,0.0,0.0,-0.0,0.0,0.0,0.0,0.0,0.0,0.0,0.0,-0.12611816220142882,0.7651774669044595,1.0901551674873962,manual,85.0,0.0,0.0,0.0,0.0,1.3378492575379572,0.10528367075935365
1761050117.217871,22.074819087982178,0.0,0.0,-0.0,0.0,0.0,-0.0,0.0,0.0,0.0,0.0,0.0,0.0,0.0,0.4500156952112839,0.6273375198813372,0.9770944087404615,manual,85.0,0.0,0.0,0.0,0.0,1.2453031652490225,0.1229263408513659
1761050117.325482,22.182430028915405,0.0,0.0,-0.0,0.0,0.0,-0.0,0.0,0.0,0.0,0.0,0.0,0.0,0.0,0.4527625660289048,0.6259335379146906,1.1921977041068632,manual,85.0,0.0,0.0,0.0,0.0,1.4206062440948075,0.10673860949647106
1761050117.433013,22.289961099624634,0.0,0.0,-0.0,0.0,0.0,-0.0,0.0,0.0,0.0,0.0,0.0,0.0,0.0,0.008543444118586357,0.49983393885075,1.0521198938665817,manual,85.0,0.0,0.0,0.0,0.0,1.1648447226709189,0.11434117093925729
1761050117.542332,22.399280071258545,0.0,0.0,-0.0,0.0,0.0,-0.0,0.0,0.0,0.0,0.0,0.0,0.0,0.0,0.011722309634400078,0.49791944258031373,1.1133095075652442,manual,85.0,0.0,0.0,0.0,0.0,1.2196389807962935,0.1197824419178512
1761050117.6504915,22.507439613342285,0.0,0.0,-0.0,0.0,0.0,-0.0,0.0,0.0,0.0,0.0,0.0,0.0,0.0,-0.5722168668736043,0.5341922584789488,1.0944159133244267,manual,85.0,0.0,0.0,0.0,0.0,1.3455629688317166,0.09733464205116119
1761050117.7523427,22.609290838241577,0.0,0.0,-0.0,0.0,0.0,-0.0,0.0,0.0,0.0,0.0,0.0,0.0,0.0,-0.9339076690716147,0.34346726812291006,1.1481111525385652,manual,85.0,0.0,0.0,0.0,0.0,1.5193131728534524,0.1095316414271362
1761050117.8603344,22.71728253364563,0.0,0.0,-0.0,0.0,0.0,-0.0,0.0,0.0,0.0,0.0,0.0,0.0,0.0,-0.93004212522638,0.3447759739738697,1.2377506805787895,manual,85.0,0.0,0.0,0.0,0.0,1.5861511826425905,0.10276434657864028
1761050117.968095,22.825043201446533,0.0,0.0,-0.0,0.0,0.0,-0.0,0.0,0.0,0.0,0.0,0.0,0.0,0.0,-0.9260272221284155,0.346140258957629,1.3662709109432298,manual,85.0,0.0,0.0,0.0,0.0,1.6864269023837848,0.09490771301189177
1761050118.0770018,22.933949947357178,0.0,0.0,-0.0,0.0,0.0,-0.0,0.0,0.0,0.0,0.0,0.0,0.0,0.0,0.11009293894659966,0.04643813584254027,1.1338672524350148,manual,85.0,0.0,0.0,0.0,0.0,1.1401455616766483,0.09359584309347775
1761050118.1857061,23.042654275894165,0.0,0.0,-0.0,0.0,0.0,-0.0,0.0,0.0,0.0,0.0,0.0,0.0,0.0,0.38608135966762513,0.2836127677686404,1.0683499819139444,manual,85.0,0.0,0.0,0.0,0.0,1.1708401693569093,0.12016154779261544
1761050118.296477,23.153425216674805,0.0,0.0,-0.0,0.0,0.0,-0.0,0.0,0.0,0.0,0.0,0.0,0.0,0.0,0.7910589151320371,-0.006872572705380249,1.0606106173075176,manual,85.0,0.0,0.0,0.0,0.0,1.323146371725706,0.09267117213713026
1761050118.4051323,23.262080430984497,0.0,0.0,-0.0,0.0,0.0,-0.0,0.0,0.0,0.0,0.0,0.0,0.0,0.0,0.4236018213924433,0.16270156997694907,0.8796518357829469,manual,85.0,0.0,0.0,0.0,0.0,0.9897967751797679,0.0928573964953182
1761050118.512646,23.36959409713745,0.0,0.0,-0.0,0.0,0.0,-0.0,0.0,0.0,0.0,0.0,0.0,0.0,0.0,0.4278669542723431,0.1610619629396558,0.8683235068388877,manual,85.0,0.0,0.0,0.0,0.0,0.9813240030658835,0.09147014955102464
1761050118.62261,23.47955822944641,0.0,0.0,-0.0,0.0,0.0,-0.0,0.0,0.0,0.0,0.0,0.0,0.0,0.0,0.05237255415353169,0.24646652324864285,0.8151049459395776,manual,85.0,0.0,0.0,0.0,0.0,0.8531615933725569,0.0915680060080463
1761050118.73304,23.589988231658936,0.0,0.0,-0.0,0.0,0.0,-0.0,0.0,0.0,0.0,0.0,0.0,0.0,0.0,0.062244643553546,0.34935010262649835,0.8959728478091609,manual,85.0,0.0,0.0,0.0,0.0,0.9636841982037013,0.09418965322239592
1761050118.8424728,23.699420928955078,0.0,0.0,-0.0,0.0,0.0,-0.0,0.0,0.0,0.0,0.0,0.0,0.0,0.0,-0.25195183732942256,0.1528653877203872,0.9734457811526587,manual,85.0,0.0,0.0,0.0,0.0,1.0170763215907084,0.09610703016357393
1761050118.9514635,23.808411598205566,0.0,0.0,-0.0,0.0,0.0,-0.0,0.0,0.0,0.0,0.0,0.0,0.0,0.0,-0.25116933782524764,0.14833322895360204,0.9649832269006942,manual,85.0,0.0,0.0,0.0,0.0,1.0081078371260943,0.11126136286745208
1761050119.0579672,23.914915323257446,0.0,0.0,-0.0,0.0,0.0,-0.0,0.0,0.0,0.0,0.0,0.0,0.0,0.0,-0.25023309809420713,0.1439121955684549,1.2702055991677732,manual,85.0,0.0,0.0,0.0,0.0,1.3025934083866386,0.10069904908819892
1761050119.1674936,24.024441719055176,0.0,0.0,-0.0,0.0,0.0,-0.0,0.0,0.0,0.0,0.0,0.0,0.0,0.0,-0.24926311729536452,0.13943679420501218,1.5077416630264397,manual,85.0,0.0,0.0,0.0,0.0,1.5345551940701605,0.11749368627462332
1761050119.2763898,24.13333797454834,0.0,0.0,-0.0,0.0,0.0,-0.0,0.0,0.0,0.0,0.0,0.0,0.0,0.0,0.2736501027274991,-0.02495387241664934,1.4156929402802652,manual,85.0,0.0,0.0,0.0,0.0,1.4421142727366438,0.1090152077790169
1761050119.3862684,24.243216514587402,0.0,0.0,-0.0,0.0,0.0,-0.0,0.0,0.0,0.0,0.0,0.0,0.0,0.0,0.10453585545373903,-0.5772770642931319,1.4681975598622288,manual,85.0,0.0,0.0,0.0,0.0,1.5810694573040567,0.10356664484575688
1761050119.4932492,24.350197315216064,0.0,0.0,-0.0,0.0,0.0,-0.0,0.0,0.0,0.0,0.0,0.0,0.0,0.0,0.10377977911924659,-0.5801531119694793,1.398714402792201,manual,85.0,0.0,0.0,0.0,0.0,1.5178108763809324,0.11149027559489888
1761050119.6026957,24.459643840789795,0.0,0.0,-0.0,0.0,0.0,-0.0,0.0,0.0,0.0,0.0,0.0,0.0,0.0,0.10300465929135974,-0.5831047366081717,1.4404023093096485,manual,85.0,0.0,0.0,0.0,0.0,1.557363126041959,0.10135178314922773
1761050119.7105238,24.567471981048584,0.0,0.0,-0.0,0.0,0.0,-0.0,0.0,0.0,0.0,0.0,0.0,0.0,0.0,0.08953553872110896,-0.24372469467647775,1.3309794704625417,manual,85.0,0.0,0.0,0.0,0.0,1.3560695742777984,0.10218321422926988
1761050119.811954,24.668902158737183,0.0,0.0,-0.0,0.0,0.0,-0.0,0.0,0.0,0.0,0.0,0.0,0.0,0.0,0.08611621942702452,-0.24868243677273502,1.469865849523241,manual,85.0,0.0,0.0,0.0,0.0,1.49323962350398,0.13197623301102027
1761050119.9190142,24.775962352752686,0.0,0.0,-0.0,0.0,0.0,-0.0,0.0,0.0,0.0,0.0,0.0,0.0,0.0,0.08243874141091574,-0.2540976165563348,1.62868283351309,manual,85.0,0.0,0.0,0.0,0.0,1.6504452481089016,0.09633405913263697
1761050120.0269108,24.883858919143677,0.0,0.0,-0.0,0.0,0.0,-0.0,0.0,0.0,0.0,0.0,0.0,0.0,0.0,0.9574740653229985,-0.3688534697353721,1.6271543607147538,manual,85.0,0.0,0.0,0.0,0.0,1.9236529784488188,0.10532174784563668
1761050120.1354048,24.992352962493896,0.0,0.0,-0.0,0.0,0.0,-0.0,0.0,0.0,0.0,0.0,0.0,0.0,0.0,0.3989405665241552,-0.046695150223655786,1.4943092710231607,manual,85.0,0.0,0.0,0.0,0.0,1.5473507068983403,0.10020753592464032
1761050120.2433274,25.10027551651001,0.0,0.0,-0.0,0.0,0.0,-0.0,0.0,0.0,0.0,0.0,0.0,0.0,0.0,-0.11074577253434859,-0.23453907864343101,1.481951956707329,manual,85.0,0.0,0.0,0.0,0.0,1.5044782509341303,0.1162152477762317
1761050120.3466194,25.203567504882812,0.0,0.0,-0.0,0.0,0.0,-0.0,0.0,0.0,0.0,0.0,0.0,0.0,0.0,-0.11148132031934503,-0.2360441483463713,1.4845374907218118,manual,85.0,0.0,0.0,0.0,0.0,1.5073143289000213,0.11078177528592816
1761050120.455418,25.312366247177124,0.0,0.0,-0.0,0.0,0.0,-0.0,0.0,0.0,0.0,0.0,0.0,0.0,0.0,0.031366438187610396,-0.08283241167006812,1.234583994352183,manual,85.0,0.0,0.0,0.0,0.0,1.2377571251979316,0.11241078688486154
1761050120.5633955,25.42034363746643,0.0,0.0,-0.0,0.0,0.0,-0.0,0.0,0.0,0.0,0.0,0.0,0.0,0.0,0.03082246555460464,-0.0804959071862965,1.2207006543053016,manual,85.0,0.0,0.0,0.0,0.0,1.223740047100691,0.11905980987030981
1761050120.6722322,25.52918028831482,0.0,0.0,-0.0,0.0,0.0,-0.0,0.0,0.0,0.0,0.0,0.0,0.0,0.0,0.4430740409579909,0.18455673534192288,1.2022726794880914,manual,85.0,0.0,0.0,0.0,0.0,1.2945406097046113,0.11709388172123024
1761050120.7810621,25.638010263442993,0.0,0.0,-0.0,0.0,0.0,-0.0,0.0,0.0,0.0,0.0,0.0,0.0,0.0,0.06480644223837731,0.03780102965833373,1.1762923799836684,manual,85.0,0.0,0.0,0.0,0.0,1.178682550989226,0.12152558315393737
1761050120.883505,25.740453243255615,0.0,0.0,-0.0,0.0,0.0,-0.0,0.0,0.0,0.0,0.0,0.0,0.0,0.0,0.06420752762135166,0.039956657251449014,1.1663704839075626,manual,85.0,0.0,0.0,0.0,0.0,1.168819595486283,0.11522733783148273
1761050120.9922128,25.84916090965271,0.0,0.0,-0.0,0.0,0.0,-0.0,0.0,0.0,0.0,0.0,0.0,0.0,0.0,0.34305541530888456,0.04506524824655097,1.20108883896067,manual,85.0,0.0,0.0,0.0,0.0,1.2499329156591423,0.12172537122927775
1761050121.1009421,25.957890272140503,0.0,0.0,-0.0,0.0,0.0,-0.0,0.0,0.0,0.0,0.0,0.0,0.0,0.0,0.33777202090142505,-0.060646517475947306,1.2047867522492763,manual,85.0,0.0,0.0,0.0,0.0,1.2527086878365425,0.10769963361505579
1761050121.2089944,26.065942525863647,0.0,0.0,-0.0,0.0,0.0,-0.0,0.0,0.0,0.0,0.0,0.0,0.0,0.0,0.33580479248488576,-0.0573801298585408,1.2404121404450628,manual,85.0,0.0,0.0,0.0,0.0,1.2863435062695743,0.1017156504151511
1761050121.3172536,26.174201726913452,0.0,0.0,-0.0,0.0,0.0,-0.0,0.0,0.0,0.0,0.0,0.0,0.0,0.0,0.3418723962220339,-0.5404357527432324,1.1702109957344131,manual,85.0,0.0,0.0,0.0,0.0,1.3335446421771813,0.09758331298890142
1761050121.426213,26.283161163330078,0.0,0.0,-0.0,0.0,0.0,-0.0,0.0,0.0,0.0,0.0,0.0,0.0,0.0,0.21234280549127973,-0.3619917470423427,1.0680231333982804,manual,85.0,0.0,0.0,0.0,0.0,1.1475194575450807,0.09685742481264717
1761050121.534421,26.391369104385376,0.0,0.0,-0.0,0.0,0.0,-0.0,0.0,0.0,0.0,0.0,0.0,0.0,0.0,-0.040586269323916284,-0.5257390493465608,1.1180573192003034,manual,85.0,0.0,0.0,0.0,0.0,1.2361638088387914,0.1042043105226517
1761050121.6426911,26.49963927268982,0.0,0.0,-0.0,0.0,0.0,-0.0,0.0,0.0,0.0,0.0,0.0,0.0,0.0,-0.17804552495135387,-0.3611191974554667,0.9332730105015551,manual,85.0,0.0,0.0,0.0,0.0,1.0164181205865623,0.12193252429535018
1761050121.7503688,26.607316970825195,0.0,0.0,-0.0,0.0,0.0,-0.0,0.0,0.0,0.0,0.0,0.0,0.0,0.0,-0.1781281699352998,-0.36298481391184917,0.9609718323450102,manual,85.0,0.0,0.0,0.0,0.0,1.0425710923556462,0.1032185981031855
1761050121.8549666,26.711914777755737,0.0,0.0,-0.0,0.0,0.0,-0.0,0.0,0.0,0.0,0.0,0.0,0.0,0.0,-0.5785488544509606,0.04555957232273106,0.958106520115677,manual,85.0,0.0,0.0,0.0,0.0,1.120161843442688,0.10711781979427151
1761050121.9653254,26.82227349281311,0.0,0.0,-0.0,0.0,0.0,-0.0,0.0,0.0,0.0,0.0,0.0,0.0,0.0,-0.190142418725302,-0.02961213460836617,1.12060661354326,manual,85.0,0.0,0.0,0.0,0.0,1.137009322842898,0.10521149850231595
1761050122.0734599,26.930408000946045,0.0,0.0,-0.0,0.0,0.0,-0.0,0.0,0.0,0.0,0.0,0.0,0.0,0.0,-0.1911962943232838,-0.03196837260577354,1.1976415385272456,manual,85.0,0.0,0.0,0.0,0.0,1.2132284428811935,0.10000547978639959
1761050122.1818862,27.0388343334198,0.0,0.0,-0.0,0.0,0.0,-0.0,0.0,0.0,0.0,0.0,0.0,0.0,0.0,-0.19219478627523184,-0.034307766689089504,1.3508147767725909,manual,85.0,0.0,0.0,0.0,0.0,1.364850328744423,0.10491645370166537
1761050122.2887142,27.145662307739258,0.0,0.0,-0.0,0.0,0.0,-0.0,0.0,0.0,0.0,0.0,0.0,0.0,0.0,0.1029223085498939,0.18919652242761217,1.375810057807673,manual,85.0,0.0,0.0,0.0,0.0,1.3925665660429645,0.104362693326843
1761050122.389535,27.246483087539673,0.0,0.0,-0.0,0.0,0.0,-0.0,0.0,0.0,0.0,0.0,0.0,0.0,0.0,0.20374567582303,-0.16726596355096904,1.3012659868559044,manual,85.0,0.0,0.0,0.0,0.0,1.3276985243372412,0.0970767278337568
1761050122.4986045,27.355552673339844,0.0,0.0,-0.0,0.0,0.0,-0.0,0.0,0.0,0.0,0.0,0.0,0.0,0.0,-0.15889270221121435,0.1816213682679507,0.9334042109057924,manual,85.0,0.0,0.0,0.0,0.0,0.9640936848481941,0.10411601838139792
1761050122.6061783,27.46312642097473,0.0,0.0,-0.0,0.0,0.0,-0.0,0.0,0.0,0.0,0.0,0.0,0.0,0.0,-0.025658826998223985,0.19398751401970912,1.0194936474620926,manual,85.0,0.0,0.0,0.0,0.0,1.0381025133453985,0.14963405064441163
1761050122.7144399,27.571388006210327,0.0,0.0,-0.0,0.0,0.0,-0.0,0.0,0.0,0.0,0.0,0.0,0.0,0.0,0.07116463695762326,0.0404432396905581,0.7670142709604004,manual,85.0,0.0,0.0,0.0,0.0,0.7713695308001819,0.11658976019492258
1761050122.822164,27.679112195968628,0.0,0.0,-0.0,0.0,0.0,-0.0,0.0,0.0,0.0,0.0,0.0,0.0,0.0,-0.2193732925419742,0.6606462870191602,0.697409879345496,manual,85.0,0.0,0.0,0.0,0.0,0.9853723650689664,0.11391429298050793
1761050122.9250398,27.78198790550232,0.0,0.0,-0.0,0.0,0.0,-0.0,0.0,0.0,0.0,0.0,0.0,0.0,0.0,-0.21977520052323604,0.6589243796338342,0.6594921391750492,manual,85.0,0.0,0.0,0.0,0.0,0.9578164534369539,0.12272173746030042
1761050123.0331724,27.89012050628662,0.0,0.0,-0.0,0.0,0.0,-0.0,0.0,0.0,0.0,0.0,0.0,0.0,0.0,-0.06079915123200276,0.5166440865488434,0.8269362656352311,manual,85.0,0.0,0.0,0.0,0.0,0.9769550841155198,0.11837543656145008
1761050123.1403375,27.99728560447693,0.0,0.0,-0.0,0.0,0.0,-0.0,0.0,0.0,0.0,0.0,0.0,0.0,0.0,0.32258541502796123,0.28023679187466644,0.8211572268724555,manual,85.0,0.0,0.0,0.0,0.0,0.9256852600932071,0.1223869013115524
1761050123.2491648,28.106112957000732,0.0,0.0,-0.0,0.0,0.0,-0.0,0.0,0.0,0.0,0.0,0.0,0.0,0.0,0.5311158284675107,0.5747389361538802,0.8412753068702066,manual,85.0,0.0,0.0,0.0,0.0,1.148979116402724,0.13533675422004926
1761050123.3570204,28.213968515396118,0.0,0.0,-0.0,0.0,0.0,-0.0,0.0,0.0,0.0,0.0,0.0,0.0,0.0,0.287683258048557,0.8255934821505129,1.006696732031864,manual,85.0,0.0,0.0,0.0,0.0,1.3333433785092557,0.1271736111350761
1761050123.4582078,28.31515598297119,0.0,0.0,-0.0,0.0,0.0,-0.0,0.0,0.0,0.0,0.0,0.0,0.0,0.0,0.4281416927722041,0.9725722858365243,0.8252374812036303,manual,85.0,0.0,0.0,0.0,0.0,1.3454438154937731,0.13409868549586668
1761050123.5663311,28.423279285430908,0.0,0.0,-0.0,0.0,0.0,-0.0,0.0,0.0,0.0,0.0,0.0,0.0,0.0,0.583957427054219,0.90800036570175,0.8036213882393413,manual,85.0,0.0,0.0,0.0,0.0,1.3458373885288004,0.12074633406894175
1761050123.6753423,28.5322904586792,0.0,0.0,-0.0,0.0,0.0,-0.0,0.0,0.0,0.0,0.0,0.0,0.0,0.0,0.5844741233949441,0.9077535343182346,0.7903236630042482,manual,85.0,0.0,0.0,0.0,0.0,1.3379977474906253,0.11945471541350138
1761050123.783697,28.640645027160645,0.0,0.0,-0.0,0.0,0.0,-0.0,0.0,0.0,0.0,0.0,0.0,0.0,0.0,0.4022249636784184,0.184539089850322,0.9355260763096424,manual,85.0,0.0,0.0,0.0,0.0,1.0349147967558514,0.11629406152538702
1761050123.8938742,28.75082230567932,0.0,0.0,-0.0,0.0,0.0,-0.0,0.0,0.0,0.0,0.0,0.0,0.0,0.0,0.44525509752350007,-0.337777826098534,0.9085158806546337,manual,85.0,0.0,0.0,0.0,0.0,1.0666522709281492,0.11683292955725218
1761050124.0021353,28.85908341407776,0.0,0.0,-0.0,0.0,0.0,-0.0,0.0,0.0,0.0,0.0,0.0,0.0,0.0,0.39676677310773595,-0.5821927250233248,0.8244305875562178,manual,85.0,0.0,0.0,0.0,0.0,1.0844620947781904,0.14951281511657938
1761050124.1100147,28.966962814331055,0.0,0.0,-0.0,0.0,0.0,-0.0,0.0,0.0,0.0,0.0,0.0,0.0,0.0,0.39681268168795797,-0.948625684278607,0.7500442293604802,manual,85.0,0.0,0.0,0.0,0.0,1.2727597334997682,0.12282556439529986
1761050124.2175083,29.074456453323364,0.0,0.0,-0.0,0.0,0.0,-0.0,0.0,0.0,0.0,0.0,0.0,0.0,0.0,0.4838596755325337,-0.7104026302976101,0.7598312711226086,manual,85.0,0.0,0.0,0.0,0.0,1.147229551273855,0.12612718997118527
1761050124.3266091,29.183557271957397,0.0,0.0,-0.0,0.0,0.0,-0.0,0.0,0.0,0.0,0.0,0.0,0.0,0.0,0.4847783067181327,-0.7097611005053243,0.7884421210961351,manual,85.0,0.0,0.0,0.0,0.0,1.166366925445677,0.13906728110838004
1761050124.4430935,29.300041675567627,0.0,0.0,-0.0,0.0,0.0,-0.0,0.0,0.0,0.0,0.0,0.0,0.0,0.0,0.5318168836401073,-0.5478732938293562,0.99472418215205,manual,85.0,0.0,0.0,0.0,0.0,1.2539818748188383,0.12621438670041749
1761050124.5516906,29.40863871574402,0.0,0.0,-0.0,0.0,0.0,-0.0,0.0,0.0,0.0,0.0,0.0,0.0,0.0,0.646771360412786,0.19426929970452275,1.1038731251422962,manual,85.0,0.0,0.0,0.0,0.0,1.2940593610299767,0.1509046599428781
1761050124.659935,29.51688313484192,0.0,0.0,-0.0,0.0,0.0,-0.0,0.0,0.0,0.0,0.0,0.0,0.0,0.0,0.223728968602667,0.144387486766012,0.8662710593602807,manual,85.0,0.0,0.0,0.0,0.0,0.9062714527181144,0.17950384424086135
1761050124.7674677,29.6244158744812,0.0,0.0,-0.0,0.0,0.0,-0.0,0.0,0.0,0.0,0.0,0.0,0.0,0.0,0.13574640794233914,0.1083576569493235,0.9568051805531932,manual,85.0,0.0,0.0,0.0,0.0,0.9724426063384017,0.12112278804481608
1761050124.876086,29.733034133911133,0.0,0.0,-0.0,0.0,0.0,-0.0,0.0,0.0,0.0,0.0,0.0,0.0,0.0,0.13501816811377204,0.10683578819337675,0.9148193529078449,manual,85.0,0.0,0.0,0.0,0.0,0.9308803574114275,0.14539695944259826
