timestamp,simulation_time,position_x,position_y,position_z,velocity_x,velocity_y,velocity_z,attitude_roll,attitude_pitch,attitude_yaw,control_throttle,control_roll,control_pitch,control_yaw,estimated_position_x,estimated_position_y,estimated_position_z,flight_mode,battery_level,setpoint_altitude,setpoint_position_x,setpoint_position_y,setpoint_position_z,position_error,attitude_error,waypoint_index,mission_complete
1761218925.3229017,0.1001441478729248,0.0,0.0,-0.0,0.0,0.0,-0.0,0.0,0.0,0.0,0.0,0.0,0.0,0.0,0.0,0.0,-0.0,manual,85.0,0.0,0.0,0.0,0.0,0.0,0.0,0,0
1761218925.4265413,0.20378375053405762,0.0,0.0,-0.0,0.0,0.0,-0.0,0.0,0.0,0.0,0.0,0.0,0.0,0.0,0.0,0.0,-0.0,manual,85.0,0.0,0.0,0.0,0.0,0.0,0.0,0,0
1761218925.5301042,0.3073465824127197,0.0,0.0,-0.0,0.0,0.0,-0.0,0.0,0.0,0.0,0.0,0.0,0.0,0.0,0.0,0.0,-0.0,manual,85.0,0.0,0.0,0.0,0.0,0.0,0.0,0,0
1761218925.6351314,0.41237378120422363,0.0,0.0,-0.0,0.0,0.0,-0.0,0.0,0.0,0.0,0.0,0.0,0.0,0.0,0.0,0.0,-0.0,manual,85.0,0.0,0.0,0.0,0.0,0.0,0.0,0,0
1761218925.7456822,0.5229246616363525,0.0,0.0,-0.0,0.0,0.0,-0.0,0.0,0.0,0.0,0.0,0.0,0.0,0.0,0.0,0.0,-0.0,manual,85.0,0.0,0.0,0.0,0.0,0.0,0.0,0,0
1761218925.850079,0.6273214817047119,0.0,0.0,-0.0,0.0,0.0,-0.0,0.0,0.0,0.0,0.0,0.0,0.0,0.0,0.0,0.0,-0.0,manual,85.0,0.0,0.0,0.0,0.0,0.0,0.0,0,0
1761218925.955064,0.7323064804077148,0.0,0.0,-0.0,0.0,0.0,-0.0,0.0,0.0,0.0,0.0,0.0,0.0,0.0,0.0,0.0,-0.0,manual,85.0,0.0,0.0,0.0,0.0,0.0,0.0,0,0
1761218926.057856,0.8350985050201416,0.0,0.0,-0.0,0.0,0.0,-0.0,0.0,0.0,0.0,0.0,0.0,0.0,0.0,0.0,0.0,-0.0,manual,85.0,0.0,0.0,0.0,0.0,0.0,0.0,0,0
1761218926.1611362,0.9383785724639893,0.0,0.0,-0.0,0.0,0.0,-0.0,0.0,0.0,0.0,0.0,0.0,0.0,0.0,0.0,0.0,-0.0,manual,85.0,0.0,0.0,0.0,0.0,0.0,0.0,0,0
1761218926.2644823,1.041724681854248,0.0,0.0,-0.0,0.0,0.0,-0.0,0.0,0.0,0.0,0.0,0.0,0.0,0.0,0.0,0.0,-0.0,manual,85.0,0.0,0.0,0.0,0.0,0.0,0.0,0,0
1761218926.3670278,1.1442701816558838,0.0,0.0,-0.0,0.0,0.0,-0.0,0.0,0.0,0.0,0.0,0.0,0.0,0.0,0.0,0.0,-0.0,manual,85.0,0.0,0.0,0.0,0.0,0.0,0.0,0,0
1761218926.4735646,1.2508070468902588,0.0,0.0,-0.0,0.0,0.0,-0.0,0.0,0.0,0.0,0.0,0.0,0.0,0.0,0.0,0.0,-0.0,manual,85.0,0.0,0.0,0.0,0.0,0.0,0.0,0,0
1761218926.57691,1.3541524410247803,0.0,0.0,-0.0,0.0,0.0,-0.0,0.0,0.0,0.0,0.0,0.0,0.0,0.0,0.0,0.0,-0.0,manual,85.0,0.0,0.0,0.0,0.0,0.0,0.0,0,0
1761218926.681515,1.4587574005126953,0.0,0.0,-0.0,0.0,0.0,-0.0,0.0,0.0,0.0,0.0,0.0,0.0,0.0,0.0,0.0,-0.0,manual,85.0,0.0,0.0,0.0,0.0,0.0,0.0,0,0
1761218926.7854285,1.5626709461212158,0.0,0.0,-0.0,0.0,0.0,-0.0,0.0,0.0,0.0,0.0,0.0,0.0,0.0,0.0,0.0,-0.0,manual,85.0,0.0,0.0,0.0,0.0,0.0,0.0,0,0
1761218926.8937585,1.6710009574890137,0.0,0.0,0.013945683596512975,0.0,0.0,0.48545308872124754,0.0,0.0,0.0,0.95,0.0,0.0,0.0,0.0,0.0,0.013945683596512975,stabilize,85.0,2.0,0.0,0.0,-2.0,1.986054316403487,0.0,0,0
1761218926.9965644,1.7738068103790283,0.0,0.0,0.09452814413385568,0.0,0.0,0.9063086158849581,0.0,0.0,0.0,0.4,0.0,0.0,0.0,0.0,0.0,0.09452814413385568,stabilize,85.0,2.0,0.0,0.0,-2.0,1.9054718558661443,0.0,0,0
1761218927.1003838,1.8776261806488037,0.0,0.0,0.19448894075666448,0.0,0.0,0.9832499858889243,0.0,0.0,0.0,0.4,0.0,0.0,0.0,0.0,0.0,0.19448894075666448,stabilize,85.0,2.0,0.0,0.0,-2.0,1.8055110592433354,0.0,0,0
1761218927.2094612,1.986703634262085,0.0,0.0,0.3124746648468279,0.0,0.0,1.1750844122475694,0.0,0.0,0.0,0.95,0.0,0.0,0.0,0.0,0.0,0.3124746648468279,stabilize,85.0,2.0,0.0,0.0,-2.0,1.687525335153172,0.0,0,0
1761218927.3153675,2.0926098823547363,0.0,0.0,0.4379579255941933,0.0,0.0,1.2300571335221715,0.0,0.0,0.0,0.4,0.0,0.0,0.0,0.0,0.0,0.4379579255941933,stabilize,85.0,2.0,0.0,0.0,-2.0,1.5620420744058068,0.0,0,0
1761218927.420194,2.1974363327026367,0.0,0.0,0.5708240650151292,0.0,0.0,1.2690033817836117,0.0,0.0,0.0,0.4,0.0,0.0,0.0,0.0,0.0,0.5708240650151292,stabilize,85.0,2.0,0.0,0.0,-2.0,1.4291759349848707,0.0,0,0
1761218927.5240402,2.3012826442718506,0.0,0.0,0.7102379887406028,0.0,0.0,1.3825395343275302,0.0,0.0,0.0,0.7701106864913214,0.0,0.0,0.0,0.0,0.0,0.7102379887406028,stabilize,85.0,2.0,0.0,0.0,-2.0,1.289762011259397,0.0,0,0
1761218927.6293185,2.4065608978271484,0.0,0.0,0.8526032197629196,0.0,0.0,1.2945955064578714,0.0,0.0,0.0,0.4,0.0,0.0,0.0,0.0,0.0,0.8526032197629196,stabilize,85.0,2.0,0.0,0.0,-2.0,1.1473967802370804,0.0,0,0
1761218927.7324173,2.509659767150879,0.0,0.0,0.9789755883189892,0.0,0.0,1.1542854790567052,0.0,0.0,0.0,0.4,0.0,0.0,0.0,0.0,0.0,0.9789755883189892,stabilize,85.0,2.0,0.0,0.0,-2.0,1.0210244116810108,0.0,0,0
1761218927.8355095,2.6127519607543945,0.0,0.0,1.0932811537844682,0.0,0.0,1.0520692597025512,0.0,0.0,0.0,0.4,0.0,0.0,0.0,0.0,0.0,1.0932811537844682,stabilize,85.0,2.0,0.0,0.0,-2.0,0.9067188462155318,0.0,0,0
1761218927.9398363,2.717078685760498,0.0,0.0,1.197722137060355,0.0,0.0,0.9461254714460322,0.0,0.0,0.0,0.4,0.0,0.0,0.0,0.0,0.0,1.197722137060355,stabilize,85.0,2.0,0.0,0.0,-2.0,0.802277862939645,0.0,0,0
1761218928.0436864,2.8209288120269775,0.0,0.0,1.2913203403595652,0.0,0.0,0.8444303562991284,0.0,0.0,0.0,0.4,0.0,0.0,0.0,0.0,0.0,1.2913203403595652,stabilize,85.0,2.0,0.0,0.0,-2.0,0.7086796596404348,0.0,0,0
1761218928.1483724,2.925614833831787,0.0,0.0,1.375700986798811,0.0,0.0,0.7590189245055804,0.0,0.0,0.0,0.534519786256394,0.0,0.0,0.0,0.0,0.0,1.375700986798811,stabilize,85.0,2.0,0.0,0.0,-2.0,0.624299013201189,0.0,0,0
1761218928.2523873,3.029629707336426,0.0,0.0,1.450906140793043,0.0,0.0,0.6740949413575582,0.0,0.0,0.0,0.4910341156868972,0.0,0.0,0.0,0.0,0.0,1.450906140793043,stabilize,85.0,2.0,0.0,0.0,-2.0,0.549093859206957,0.0,0,0
1761218928.3585575,3.1357998847961426,0.0,0.0,1.520299590349726,0.0,0.0,0.6106496981328603,0.0,0.0,0.0,0.4,0.0,0.0,0.0,0.0,0.0,1.520299590349726,stabilize,85.0,2.0,0.0,0.0,-2.0,0.47970040965027394,0.0,0,0
1761218928.4690938,3.2463362216949463,0.0,0.0,1.5845647970970764,0.0,0.0,0.5528839914324791,0.0,0.0,0.0,0.6282717242478355,0.0,0.0,0.0,0.0,0.0,1.5845647970970764,stabilize,85.0,2.0,0.0,0.0,-2.0,0.4154352029029236,0.0,0,0
1761218928.5763094,3.3535518646240234,0.0,0.0,1.6394228389898908,0.0,0.0,0.47241402059965126,0.0,0.0,0.0,0.5147501797380453,0.0,0.0,0.0,0.0,0.0,1.6394228389898908,stabilize,85.0,2.0,0.0,0.0,-2.0,0.36057716101010917,0.0,0,0
1761218928.680795,3.4580373764038086,0.0,0.0,1.6871157449950998,0.0,0.0,0.470592715567857,0.0,0.0,0.0,0.838851838539504,0.0,0.0,0.0,0.0,0.0,1.6871157449950998,stabilize,85.0,2.0,0.0,0.0,-2.0,0.31288425500490025,0.0,0,0
1761218928.7856398,3.5628821849823,0.0,0.0,1.7306808109659109,0.0,0.0,0.37792467379667044,0.0,0.0,0.0,0.4,0.0,0.0,0.0,0.0,0.0,1.7306808109659109,stabilize,85.0,2.0,0.0,0.0,-2.0,0.26931918903408913,0.0,0,0
1761218928.8952384,3.672480821609497,0.0,0.0,1.7708318806307932,0.0,0.0,0.35833317854182273,0.0,0.0,0.0,0.6933320123780644,0.0,0.0,0.0,0.0,0.0,1.7708318806307932,stabilize,85.0,2.0,0.0,0.0,-2.0,0.22916811936920678,0.0,0,0
1761218928.9984453,3.7756876945495605,0.0,0.0,1.8050693900860841,0.0,0.0,0.3272305908159625,0.0,0.0,0.0,0.4,0.0,0.0,0.0,0.0,0.0,1.8050693900860841,stabilize,85.0,2.0,0.0,0.0,-2.0,0.19493060991391586,0.0,0,0
1761218929.1015658,3.8788082599639893,0.0,0.0,1.835695546574803,0.0,0.0,0.32489649749444205,0.0,0.0,0.0,0.8795124892405498,0.0,0.0,0.0,0.0,0.0,1.835695546574803,stabilize,85.0,2.0,0.0,0.0,-2.0,0.16430445342519695,0.0,0,0
1761218929.2049124,3.9821548461914062,0.0,0.0,1.8638137675562272,0.0,0.0,0.28268698945376486,0.0,0.0,0.0,0.79386092705343,0.0,0.0,0.0,0.0,0.0,1.8638137675562272,stabilize,85.0,2.0,0.0,0.0,-2.0,0.13618623244377281,0.0,0,0
1761218929.3085208,4.085763216018677,0.0,0.0,1.8887001770021195,0.0,0.0,0.1973454733589305,0.0,0.0,0.0,0.4,0.0,0.0,0.0,0.0,0.0,1.8887001770021195,stabilize,85.0,2.0,0.0,0.0,-2.0,0.11129982299788055,0.0,0,0
1761218929.4143865,4.191628932952881,0.0,0.0,1.912329354466147,0.0,0.0,0.19929976667675936,0.0,0.0,0.0,0.4,0.0,0.0,0.0,0.0,0.0,1.912329354466147,stabilize,85.0,2.0,0.0,0.0,-2.0,0.08767064553385295,0.0,0,0
1761218929.5170999,4.294342279434204,0.0,0.0,1.93197746772363,0.0,0.0,0.1945163034194594,0.0,0.0,0.0,0.4,0.0,0.0,0.0,0.0,0.0,1.93197746772363,stabilize,85.0,2.0,0.0,0.0,-2.0,0.0680225322763699,0.0,0,0
1761218929.6206326,4.397875070571899,0.0,0.0,1.9494496825435508,0.0,0.0,0.1369570795635754,0.0,0.0,0.0,0.4,0.0,0.0,0.0,0.0,0.0,1.9494496825435508,stabilize,85.0,2.0,0.0,0.0,-2.0,0.05055031745644922,0.0,0,0
1761218929.7240937,4.501336097717285,0.0,0.0,1.9654403978729547,0.0,0.0,0.127421893127041,0.0,0.0,0.0,0.4,0.0,0.0,0.0,0.0,0.0,1.9654403978729547,stabilize,85.0,2.0,0.0,0.0,-2.0,0.03455960212704534,0.0,0,0
1761218929.8292222,4.606464624404907,0.0,0.0,1.9791669603126418,0.0,0.0,0.11071618937216143,0.0,0.0,0.0,0.5518551311856355,0.0,0.0,0.0,0.0,0.0,1.9791669603126418,stabilize,85.0,2.0,0.0,0.0,-2.0,0.020833039687358168,0.0,0,0
1761218929.929293,4.706535339355469,0.0,0.0,1.9897499372437693,0.0,0.0,0.0720198787275102,0.0,0.0,0.0,0.40144295513382133,0.0,0.0,0.0,0.0,0.0,1.9897499372437693,stabilize,85.0,2.0,0.0,0.0,-2.0,0.010250062756230749,0.0,0,0
1761218930.0338938,4.811136245727539,0.0,0.0,2.0010690634420736,0.0,0.0,0.06586331791660341,0.0,0.0,0.0,0.40143014239865227,0.0,0.0,0.0,0.0,0.0,2.0010690634420736,stabilize,85.0,2.0,0.0,0.0,-2.0,0.0010690634420735812,0.0,0,0
1761218930.1397233,4.91696572303772,0.0,0.0,2.011504026003002,0.0,0.0,0.1234598589470414,0.0,0.0,0.0,0.8223173480854563,0.0,0.0,0.0,0.0,0.0,2.011504026003002,stabilize,85.0,2.0,0.0,0.0,-2.0,0.011504026003001933,0.0,0,0
1761218930.242751,5.019993305206299,0.0,0.0,2.019684865762761,0.0,0.0,0.061025986575030076,0.0,0.0,0.0,0.5323681436599818,0.0,0.0,0.0,0.0,0.0,2.019684865762761,stabilize,85.0,2.0,0.0,0.0,-2.0,0.01968486576276085,0.0,0,0
1761218930.3449461,5.122188568115234,0.0,0.0,2.027080019150193,0.0,0.0,0.09840492501686801,0.0,0.0,0.0,0.8196473380861277,0.0,0.0,0.0,0.0,0.0,2.027080019150193,stabilize,85.0,2.0,0.0,0.0,-2.0,0.027080019150193202,0.0,0,0
1761218930.4497309,5.226973295211792,0.0,0.0,2.034246132338061,0.0,0.0,0.032685759813688424,0.0,0.0,0.0,0.4,0.0,0.0,0.0,0.0,0.0,2.034246132338061,stabilize,85.0,2.0,0.0,0.0,-2.0,0.03424613233806095,0.0,0,0
1761218930.5544178,5.331660270690918,0.0,0.0,2.040903585969013,0.0,0.0,0.0359651837330589,0.0,0.0,0.0,0.4,0.0,0.0,0.0,0.0,0.0,2.040903585969013,stabilize,85.0,2.0,0.0,0.0,-2.0,0.040903585969013,0.0,0,0
1761218930.6599255,5.4371678829193115,0.0,0.0,2.0464871536623725,0.0,0.0,0.022767676844690256,0.0,0.0,0.0,0.4,0.0,0.0,0.0,0.0,0.0,2.0464871536623725,stabilize,85.0,2.0,0.0,0.0,-2.0,0.04648715366237255,0.0,0,0
1761218930.765576,5.542818307876587,0.0,0.0,2.051544006148927,0.0,0.0,0.03076098134347614,0.0,0.0,0.0,0.5583564318536014,0.0,0.0,0.0,0.0,0.0,2.051544006148927,stabilize,85.0,2.0,0.0,0.0,-2.0,0.05154400614892696,0.0,0,0
1761218930.8698583,5.6471006870269775,0.0,0.0,2.0549207054826666,0.0,0.0,0.017287245207041044,0.0,0.0,0.0,0.5443197713282053,0.0,0.0,0.0,0.0,0.0,2.0549207054826666,stabilize,85.0,2.0,0.0,0.0,-2.0,0.05492070548266659,0.0,0,0
1761218930.974261,5.7515034675598145,0.0,0.0,2.057350130927651,0.0,0.0,0.004117481306268659,0.0,0.0,0.0,0.4,0.0,0.0,0.0,0.0,0.0,2.057350130927651,stabilize,85.0,2.0,0.0,0.0,-2.0,0.057350130927650955,0.0,0,0
1761218931.0788627,5.856105089187622,0.0,0.0,2.0591695978388938,0.0,0.0,0.06916534251860199,0.0,0.0,0.0,0.9124265720047591,0.0,0.0,0.0,0.0,0.0,2.0591695978388938,stabilize,85.0,2.0,0.0,0.0,-2.0,0.05916959783889375,0.0,0,0
1761218931.1824722,5.959714651107788,0.0,0.0,2.061282268033341,0.0,0.0,-0.009903784570943437,0.0,0.0,0.0,0.4,0.0,0.0,0.0,0.0,0.0,2.061282268033341,stabilize,85.0,2.0,0.0,0.0,-2.0,0.061282268033341136,0.0,0,0
1761218931.2872105,6.064452886581421,0.0,0.0,2.0628786030236417,0.0,0.0,0.0068850122180400194,0.0,0.0,0.0,0.4,0.0,0.0,0.0,0.0,0.0,2.0628786030236417,stabilize,85.0,2.0,0.0,0.0,-2.0,0.06287860302364168,0.0,0,0
1761218931.3938413,6.171083688735962,0.0,0.0,2.0650580558677247,0.0,0.0,0.03130881408155628,0.0,0.0,0.0,0.7469767918308292,0.0,0.0,0.0,0.0,0.0,2.0650580558677247,stabilize,85.0,2.0,0.0,0.0,-2.0,0.06505805586772473,0.0,0,0
1761218931.4980383,6.275280714035034,0.0,0.0,2.0659348688539354,0.0,0.0,-0.019983292620197483,0.0,0.0,0.0,0.4,0.0,0.0,0.0,0.0,0.0,2.0659348688539354,stabilize,85.0,2.0,0.0,0.0,-2.0,0.0659348688539354,0.0,0,0
1761218931.6031647,6.380407094955444,0.0,0.0,2.067208268012538,0.0,0.0,-0.017132739206340578,0.0,0.0,0.0,0.4,0.0,0.0,0.0,0.0,0.0,2.067208268012538,stabilize,85.0,2.0,0.0,0.0,-2.0,0.06720826801253788,0.0,0,0
1761218931.7086482,6.485890626907349,0.0,0.0,2.068227005366938,0.0,0.0,0.05986602310485685,0.0,0.0,0.0,0.9239974141471272,0.0,0.0,0.0,0.0,0.0,2.068227005366938,stabilize,85.0,2.0,0.0,0.0,-2.0,0.06822700536693782,0.0,0,0
1761218931.8129373,6.590179681777954,0.0,0.0,2.069400219044632,0.0,0.0,0.024486236231832135,0.0,0.0,0.0,0.4,0.0,0.0,0.0,0.0,0.0,2.069400219044632,stabilize,85.0,2.0,0.0,0.0,-2.0,0.06940021904463212,0.0,0,0
1761218931.917283,6.694525480270386,0.0,0.0,2.0697584098009254,0.0,0.0,0.01126529651977571,0.0,0.0,0.0,0.4,0.0,0.0,0.0,0.0,0.0,2.0697584098009254,stabilize,85.0,2.0,0.0,0.0,-2.0,0.0697584098009254,0.0,0,0
1761218932.0208037,6.798046112060547,0.0,0.0,2.0705586424376285,0.0,0.0,-0.007006579130007252,0.0,0.0,0.0,0.5473710823662732,0.0,0.0,0.0,0.0,0.0,2.0705586424376285,stabilize,85.0,2.0,0.0,0.0,-2.0,0.07055864243762855,0.0,0,0
1761218932.1265867,6.903829097747803,0.0,0.0,2.0713769384929908,0.0,0.0,0.0008610361512635216,0.0,0.0,0.0,0.4,0.0,0.0,0.0,0.0,0.0,2.0713769384929908,stabilize,85.0,2.0,0.0,0.0,-2.0,0.07137693849299076,0.0,0,0
1761218932.2303298,7.007572174072266,0.0,0.0,2.0720390333855443,0.0,0.0,-0.008014211126319557,0.0,0.0,0.0,0.5280822633854496,0.0,0.0,0.0,0.0,0.0,2.0720390333855443,stabilize,85.0,2.0,0.0,0.0,-2.0,0.0720390333855443,0.0,0,0
1761218932.3347034,7.111945867538452,0.0,0.0,2.0726253929602074,0.0,0.0,-0.020662940736300078,0.0,0.0,0.0,0.4,0.0,0.0,0.0,0.0,0.0,2.0726253929602074,stabilize,85.0,2.0,0.0,0.0,-2.0,0.07262539296020742,0.0,0,0
1761218932.438105,7.215347528457642,0.0,0.0,2.0735796663541426,0.0,0.0,0.01886427866061897,0.0,0.0,0.0,0.4,0.0,0.0,0.0,0.0,0.0,2.0735796663541426,stabilize,85.0,2.0,0.0,0.0,-2.0,0.07357966635414259,0.0,0,0
1761218932.54142,7.318662405014038,0.0,0.0,2.074511933193126,0.0,0.0,0.030533983491708012,0.0,0.0,0.0,0.4,0.0,0.0,0.0,0.0,0.0,2.074511933193126,stabilize,85.0,2.0,0.0,0.0,-2.0,0.0745119331931261,0.0,0,0
1761218932.644841,7.422083377838135,0.0,0.0,2.075171580257283,0.0,0.0,0.04149591439451637,0.0,0.0,0.0,0.8569566424693882,0.0,0.0,0.0,0.0,0.0,2.075171580257283,stabilize,85.0,2.0,0.0,0.0,-2.0,0.07517158025728321,0.0,0,0
1761218932.7474406,7.524682998657227,0.0,0.0,2.0753240207237154,0.0,0.0,0.029914444009371058,0.0,0.0,0.0,0.8257985649066635,0.0,0.0,0.0,0.0,0.0,2.0753240207237154,stabilize,85.0,2.0,0.0,0.0,-2.0,0.07532402072371536,0.0,0,0
1761218932.8525581,7.62980055809021,0.0,0.0,2.0752744105586407,0.0,0.0,-0.029929758604389987,0.0,0.0,0.0,0.4489406864686764,0.0,0.0,0.0,0.0,0.0,2.0752744105586407,stabilize,85.0,2.0,0.0,0.0,-2.0,0.0752744105586407,0.0,0,0
1761218932.9568548,7.734097242355347,0.0,0.0,2.0751320747779918,0.0,0.0,-0.024503584198438528,0.0,0.0,0.0,0.4,0.0,0.0,0.0,0.0,0.0,2.0751320747779918,stabilize,85.0,2.0,0.0,0.0,-2.0,0.07513207477799178,0.0,0,0
1761218933.059835,7.837077379226685,0.0,0.0,2.0746564295349077,0.0,0.0,0.014964819240872868,0.0,0.0,0.0,0.7581123036093457,0.0,0.0,0.0,0.0,0.0,2.0746564295349077,stabilize,85.0,2.0,0.0,0.0,-2.0,0.0746564295349077,0.0,0,0
1761218933.1673577,7.9446001052856445,0.0,0.0,2.0740834671924766,0.0,0.0,-0.03437826849159821,0.0,0.0,0.0,0.4571096718301857,0.0,0.0,0.0,0.0,0.0,2.0740834671924766,stabilize,85.0,2.0,0.0,0.0,-2.0,0.0740834671924766,0.0,0,0
1761218933.2703438,8.04758620262146,0.0,0.0,2.0734771797038736,0.0,0.0,-0.03529122250096265,0.0,0.0,0.0,0.4,0.0,0.0,0.0,0.0,0.0,2.0734771797038736,stabilize,85.0,2.0,0.0,0.0,-2.0,0.07347717970387357,0.0,0,0
1761218933.374418,8.151660442352295,0.0,0.0,2.072944604917684,0.0,0.0,-0.005430584945548694,0.0,0.0,0.0,0.4,0.0,0.0,0.0,0.0,0.0,2.072944604917684,stabilize,85.0,2.0,0.0,0.0,-2.0,0.07294460491768406,0.0,0,0
1761218933.4775214,8.254763841629028,0.0,0.0,2.0728561435856134,0.0,0.0,0.004665376464972303,0.0,0.0,0.0,0.6816382227139559,0.0,0.0,0.0,0.0,0.0,2.0728561435856134,stabilize,85.0,2.0,0.0,0.0,-2.0,0.07285614358561343,0.0,0,0
1761218933.5829458,8.360188245773315,0.0,0.0,2.0721711473128,0.0,0.0,-0.02620651211510571,0.0,0.0,0.0,0.4,0.0,0.0,0.0,0.0,0.0,2.0721711473128,stabilize,85.0,2.0,0.0,0.0,-2.0,0.07217114731280017,0.0,0,0
1761218933.688055,8.46529746055603,0.0,0.0,2.072336346507165,0.0,0.0,0.0225639113696003,0.0,0.0,0.0,0.4,0.0,0.0,0.0,0.0,0.0,2.072336346507165,stabilize,85.0,2.0,0.0,0.0,-2.0,0.07233634650716514,0.0,0,0
1761218933.794017,8.571259498596191,0.0,0.0,2.0725726910300484,0.0,0.0,-0.01104495465335554,0.0,0.0,0.0,0.5512691718255751,0.0,0.0,0.0,0.0,0.0,2.0725726910300484,stabilize,85.0,2.0,0.0,0.0,-2.0,0.07257269103004838,0.0,0,0
1761218933.898425,8.675667524337769,0.0,0.0,2.0718765916650983,0.0,0.0,-0.0342277788674257,0.0,0.0,0.0,0.4,0.0,0.0,0.0,0.0,0.0,2.0718765916650983,stabilize,85.0,2.0,0.0,0.0,-2.0,0.0718765916650983,0.0,0,0
1761218934.0016549,8.778897285461426,0.0,0.0,2.071936085094744,0.0,0.0,0.023216713554963794,0.0,0.0,0.0,0.7991526758973783,0.0,0.0,0.0,0.0,0.0,2.071936085094744,stabilize,85.0,2.0,0.0,0.0,-2.0,0.07193608509474414,0.0,0,0
1761218934.1076515,8.884893894195557,0.0,0.0,2.072035395255213,0.0,0.0,-0.0041586154654973985,0.0,0.0,0.0,0.4,0.0,0.0,0.0,0.0,0.0,2.072035395255213,stabilize,85.0,2.0,0.0,0.0,-2.0,0.07203539525521307,0.0,0,0
1761218934.2103562,8.987598657608032,0.0,0.0,2.0722149666821243,0.0,0.0,-0.02037580167537767,0.0,0.0,0.0,0.4,0.0,0.0,0.0,0.0,0.0,2.0722149666821243,stabilize,85.0,2.0,0.0,0.0,-2.0,0.07221496668212435,0.0,0,0
1761218934.315753,9.092995405197144,0.0026470661301447847,0.0,2.073269184789328,0.09180987870484618,0.0,0.013009503144207773,0.0,-0.21900127007743764,0.0,0.4,0.0,-0.3,0.0,0.0026470661301447847,0.0,2.073269184789328,auto,85.0,2.0699370516472246,10.0,0.0,0.0,10.210069088745346,0.21900127007743764,0,0
1761218934.421574,9.198816537857056,0.03014536867308333,0.0,2.0750356016009945,0.47383216461451216,0.0,0.004436386138769375,0.0,-0.4947841749867637,0.0,0.4,0.0,-0.3,0.0,0.03014536867308333,0.0,2.0750356016009945,auto,85.0,2.071751977531509,10.0,0.0,0.0,10.183505001604425,0.4947841749867637,0,0
1761218934.5259922,9.303234577178955,0.11564054201251525,0.0,2.077680869526551,1.1835290599330395,0.0,0.011708435233750876,0.0,-0.6618103117568304,0.0,0.4,0.0,-0.03577725061922954,0.0,0.11564054201251525,0.0,2.077680869526551,auto,85.0,2.074203327183295,10.0,0.0,0.0,10.100362354406066,0.6618103117568304,0,0
1761218934.6279163,9.405158758163452,0.27499658322393206,0.0,2.079993328682137,1.931421786998083,0.0,0.011027993543311753,0.0,-0.5628649726969903,0.0,0.4794183554804522,0.0,0.3,0.0,0.27499658322393206,0.0,2.079993328682137,auto,85.0,2.0766680523174164,10.0,0.0,0.0,9.944951669247489,0.5628649726969903,0,0
1761218934.7314591,9.50870156288147,0.5050754693968137,0.0,2.0835182567552377,2.3966929556444594,0.0,0.02708954693272331,0.0,-0.29189751961705707,0.0,0.4,0.0,0.3,0.0,0.5050754693968137,0.0,2.0835182567552377,auto,85.0,2.0800618459285865,10.0,0.0,0.0,9.720835363695988,0.29189751961705707,0,0
1761218934.8347037,9.611946105957031,0.7623508044623977,0.0,2.087664787052495,2.537918206321932,0.0,0.045240130851246604,0.0,-0.024040660597052888,0.0,0.4,0.0,0.3,0.0,0.7623508044623977,0.0,2.087664787052495,auto,85.0,2.0840480198820974,10.0,0.0,0.0,9.470612806092088,0.02404066059705289,0,0
1761218934.9367182,9.713960647583008,1.0172121414837352,0.0,2.0922803387001787,2.4437404471542217,0.0,0.027372546100508086,0.0,0.045178848328290735,0.0,0.4,0.0,-0.3,0.0,1.0172121414837352,0.0,2.0922803387001787,auto,85.0,2.0888338409603224,10.0,0.0,0.0,9.223237757253065,0.045178848328290735,0,0
1761218935.0410168,9.818259239196777,1.271651996961864,0.0,2.0978500114187857,2.4356987751326056,0.0,0.0721041095703577,0.0,0.04798571501626083,0.0,0.6871399541151332,0.0,0.29652110473068954,0.0,1.271651996961864,0.0,2.0978500114187857,auto,85.0,2.0940666934124645,10.0,0.0,0.0,8.976916705225108,0.04798571501626083,0,0
1761218935.1445146,9.921756982803345,1.5189612665145964,0.0,2.103857555336471,2.3647053156874214,0.0,0.05874856861898697,0.0,-0.01391115923483179,0.0,0.4,0.0,0.3,0.0,1.5189612665145964,0.0,2.103857555336471,auto,85.0,2.100011200500351,10.0,0.0,0.0,8.738091016464983,0.013911159234831789,0,0
1761218935.2474132,10.02465558052063,1.7588154804967548,0.0,2.110238240162943,2.2949912722244696,0.0,0.09741412690394166,0.0,0.0047833289824232355,0.0,0.8269049137997073,0.0,0.12037921828935019,0.0,1.7588154804967548,0.0,2.110238240162943,auto,85.0,2.106484533658451,10.0,0.0,0.0,8.507069278826048,0.004783328982423235,0,0
1761218935.3526294,10.129871845245361,1.9976811445444418,0.0,2.117458824101194,2.2230215198336403,0.0,0.08678311693019639,0.0,0.06368861217902264,0.0,0.7404530168208973,0.0,-0.16760082200595786,0.0,1.9976811445444418,0.0,2.117458824101194,auto,85.0,2.1137256650609824,10.0,0.0,0.0,8.277725468759131,0.06368861217902264,0,0
1761218935.4575953,10.234837770462036,2.2295060236654587,0.0,2.1244654851781437,2.187227458397735,0.0,0.038712337146902046,0.0,0.09403884722837408,0.0,0.4,0.0,0.08606475058473176,0.0,2.2295060236654587,0.0,2.1244654851781437,auto,85.0,2.120887729631008,10.0,0.0,0.0,8.05567689483414,0.09403884722837408,0,0
1761218935.5615115,10.338753938674927,2.4519586519001,0.0,2.1317215898250406,2.1262868262643,0.0,0.06474883700968867,0.0,0.0018698475914172737,0.0,0.5348665754483872,0.0,0.3,0.0,2.4519586519001,0.0,2.1317215898250406,auto,85.0,2.1279912323436148,10.0,0.0,0.0,7.843287902987622,0.0018698475914172737,0,0
1761218935.6652348,10.442477226257324,2.668156205282365,0.0,2.138604214330568,2.0406033740749563,0.0,0.10093150783944713,0.0,0.010372941832172185,0.0,0.8026657080956422,0.0,-0.13044729170220204,0.0,2.668156205282365,0.0,2.138604214330568,auto,85.0,2.1347082681445047,10.0,0.0,0.0,7.637379224294938,0.010372941832172185,0,0
1761218935.7694468,10.54668927192688,2.879060620069201,0.0,2.146607783853806,1.9876059129556611,0.0,0.07204682049022403,0.0,0.0561190605309761,0.0,0.4,0.0,-0.3,0.0,2.879060620069201,0.0,2.146607783853806,auto,85.0,2.1426404438172155,10.0,0.0,0.0,7.437452697688301,0.056119060530976095,0,0
1761218935.875692,10.652934312820435,3.0874465886685507,0.0,2.1540576855153786,1.9367361279787862,0.0,0.09995942925433157,0.0,0.08631776497345248,0.0,0.7965447553228122,0.0,-0.2242576373361909,0.0,3.0874465886685507,0.0,2.1540576855153786,auto,85.0,2.150171237311529,10.0,0.0,0.0,7.24039772229661,0.08631776497345248,0,0
1761218935.979697,10.75693941116333,3.287726360790896,0.0,2.161600507436854,1.8948251399955036,0.0,0.11561725296989875,0.0,0.06962919805096605,0.0,0.8785473775595585,0.0,-0.013458142961295896,0.0,3.287726360790896,0.0,2.161600507436854,auto,85.0,2.1575027290474633,10.0,0.0,0.0,7.051746887216861,0.06962919805096605,0,0
1761218936.0809093,10.85815167427063,3.4764513530266044,0.0,2.1692911966291435,1.8406654872685473,0.0,0.10979503217657455,0.0,0.026019867738030507,0.0,0.95,0.0,0.3,0.0,3.4764513530266044,0.0,2.1692911966291435,auto,85.0,2.165271889494895,10.0,0.0,0.0,6.874773541375826,0.026019867738030507,0,0
1761218936.185258,10.96250033378601,3.6644087659734983,0.0,2.177717700285876,1.7677894081197048,0.0,0.056928857066731106,0.0,-0.019137076624475488,0.0,0.4,0.0,-0.3,0.0,3.6644087659734983,0.0,2.177717700285876,auto,85.0,2.173771285625568,10.0,0.0,0.0,6.699415695925419,0.019137076624475488,0,0
1761218936.2893188,11.066561222076416,3.8480437653860355,0.0,2.185838837159255,1.7314521482436973,0.0,0.10606626296072591,0.0,0.07151100676813417,0.0,0.8983671826058658,0.0,-0.28856257998560186,0.0,3.8480437653860355,0.0,2.185838837159255,auto,85.0,2.1819602075730606,10.0,0.0,0.0,6.528740838372998,0.07151100676813416,0,0
1761218936.394351,11.171593427658081,4.028145330279442,0.0,2.194211008081615,1.6890871973631385,0.0,0.068774950396914,0.0,0.09634522625418629,0.0,0.4,0.0,-0.3,0.0,4.028145330279442,0.0,2.194211008081615,auto,85.0,2.190145950641676,10.0,0.0,0.0,6.362201674283028,0.09634522625418629,0,0
1761218936.4970968,11.274339199066162,4.198625140510781,0.0,2.2011875638777116,1.6383827710117884,0.0,0.08844759561970147,0.0,0.06585249034465156,0.0,0.7487170631901974,0.0,-0.020594849425320267,0.0,4.198625140510781,0.0,2.2011875638777116,auto,85.0,2.1973966672850205,10.0,0.0,0.0,6.204931663740017,0.06585249034465156,0,0
1761218936.6004546,11.377696990966797,4.3654949232383125,0.0,2.2083777255280697,1.597528358455774,0.0,0.05401864805734451,0.0,0.06710773228776723,0.0,0.4,0.0,0.044027691685684614,0.0,4.3654949232383125,0.0,2.2083777255280697,auto,85.0,2.2046152402421186,10.0,0.0,0.0,6.051824488421798,0.06710773228776723,0,0
1761218936.7069569,11.484199285507202,4.532444047334136,0.0,2.2152626148543453,1.5523170203447096,0.0,0.07211942291924293,0.0,0.049806734430215174,0.0,0.665592717381418,0.0,0.12707017524975073,0.0,4.532444047334136,0.0,2.2152626148543453,auto,85.0,2.211275081892426,10.0,0.0,0.0,5.899284409850337,0.049806734430215174,0,0
1761218936.8104315,11.587673902511597,4.689144271344881,0.0,2.2214545720167562,1.499990847856624,0.0,0.08959776257606933,0.0,-0.027277773067323794,0.0,0.95,0.0,0.3,0.0,4.689144271344881,0.0,2.2214545720167562,auto,85.0,2.217838144244056,10.0,0.0,0.0,5.75673944052734,0.027277773067323798,0,0
1761218936.9183028,11.695545196533203,4.84852398688512,0.0,2.228045360921731,1.4326577065446517,0.0,0.034110747312364076,0.0,0.10451502262052567,0.0,0.40960451488988214,0.0,-0.19684440249636748,0.0,4.84852398688512,0.0,2.228045360921731,auto,85.0,2.2245302387373918,10.0,0.0,0.0,5.61265456304081,0.10451502262052567,0,0
1761218937.0239394,11.80118179321289,4.996966373826482,0.0,2.2352190316920786,1.4091197435596692,0.0,0.04637371517167444,0.0,-0.014541787930007126,0.0,0.4,0.0,0.3,0.0,4.996966373826482,0.0,2.2352190316920786,auto,85.0,2.2313417011709125,10.0,0.0,0.0,5.47964867343349,0.014541787930007127,0,0
1761218937.1277838,11.905026197433472,5.140684465939026,0.0,2.242530408977173,1.3629395974683727,0.0,0.09833365650987017,0.0,-0.006192189608203884,0.0,0.9023545137517752,0.0,0.29468927596487365,0.0,5.140684465939026,0.0,2.242530408977173,auto,85.0,2.2387517365533935,10.0,0.0,0.0,5.351811851583874,0.006192189608203884,0,0
1761218937.2332652,12.010507583618164,5.2822137839016845,0.0,2.250437516678032,1.3152338370832246,0.0,0.09276609994824622,0.0,-0.0036833195571296107,0.0,0.7346921552419741,0.0,-0.19158762722562683,0.0,5.2822137839016845,0.0,2.250437516678032,auto,85.0,2.2464459353244384,10.0,0.0,0.0,5.227042739186207,0.0036833195571296107,0,0
1761218937.3385897,12.115832090377808,5.419513830308524,0.0,2.2575175877658147,1.275629178143792,0.0,0.05984455220163507,0.0,0.019375300163255383,0.0,0.5205135348806418,0.0,-0.3,0.0,5.419513830308524,0.0,2.2575175877658147,auto,85.0,2.253659569528683,10.0,0.0,0.0,5.106587824546531,0.019375300163255383,0,0
1761218937.4429848,12.220227241516113,5.551536899927486,0.0,2.2647292804183365,1.241989333270651,0.0,0.05589685389557078,0.0,0.019900035663352723,0.0,0.4,0.0,-0.11169328584814864,0.0,5.551536899927486,0.0,2.2647292804183365,auto,85.0,2.2609005940563804,10.0,0.0,0.0,4.991775502393003,0.019900035663352723,0,0
1761218937.5469735,12.32421588897705,5.679567318810569,0.0,2.2725111154772484,1.2062676566505495,0.0,0.05678745477643479,0.0,0.03464859443250278,0.0,0.416564565491662,0.0,-0.3,0.0,5.679567318810569,0.0,2.2725111154772484,auto,85.0,2.268766300946307,10.0,0.0,0.0,4.8816437111548145,0.03464859443250278,0,0
1761218937.6471212,12.424363613128662,5.800487560799448,0.0,2.2812704074678307,1.1943629304455894,0.0,0.11596925274575251,0.0,0.08587454144461823,0.0,0.7920316721114201,0.0,0.0925869933350489,0.0,5.800487560799448,0.0,2.2812704074678307,auto,85.0,2.2770927960888074,10.0,0.0,0.0,4.779131657423617,0.08587454144461823,0,0
1761218937.751403,12.528645515441895,5.922057075504153,0.0,2.2903740043754603,1.1621892387398636,0.0,0.07397409598694017,0.0,-0.0048240239140619375,0.0,0.4,0.0,0.3,0.0,5.922057075504153,0.0,2.2903740043754603,auto,85.0,2.2864355922700095,10.0,0.0,0.0,4.677117870587038,0.0048240239140619375,0,0
1761218937.8575127,12.63475513458252,6.043054073701541,0.0,2.2996995077317353,1.1261775802739578,0.0,0.06054635852810017,0.0,0.015909215662050617,0.0,0.4,0.0,0.22225242586911062,0.0,6.043054073701541,0.0,2.2996995077317353,auto,85.0,2.295688874905231,10.0,0.0,0.0,4.5766842680604,0.015909215662050617,0,0
1761218937.96161,12.738852500915527,6.157771401939029,0.0,2.309078458222859,1.091648878938455,0.0,0.08975532005638737,0.0,-0.007718957405319584,0.0,0.4,0.0,0.25874862062349857,0.0,6.157771401939029,0.0,2.309078458222859,auto,85.0,2.3047687354649598,10.0,0.0,0.0,4.482696055499015,0.007718957405319584,0,0
1761218938.0674782,12.844720602035522,6.271345582559673,0.0,2.317476511213429,1.0607780914064657,0.0,0.08467855391903985,0.0,0.002432519926251469,0.0,0.6097091834252011,0.0,0.3,0.0,6.271345582559673,0.0,2.317476511213429,auto,85.0,2.3136479150939677,10.0,0.0,0.0,4.390166414240266,0.002432519926251469,0,0
1761218938.1711423,12.948384761810303,6.378827214642985,0.0,2.3249289900380385,1.0234254912863754,0.0,0.07109896756971305,0.0,-0.01958881378157115,0.0,0.571337104432662,0.0,0.3,0.0,6.378827214642985,0.0,2.3249289900380385,auto,85.0,2.3211859559674473,10.0,0.0,0.0,4.303276327419559,0.01958881378157115,0,0
1761218938.2750828,13.052325248718262,6.483648986258998,0.0,2.3317511889909177,0.993420504535483,0.0,0.042585148280421856,0.0,-0.001891026957367347,0.0,0.4,0.0,0.21664076979614627,0.0,6.483648986258998,0.0,2.3317511889909177,auto,85.0,2.3281237633596183,10.0,0.0,0.0,4.219216521962097,0.001891026957367347,0,0
1761218938.3837934,13.161035776138306,6.589803643268746,0.0,2.33915081252562,0.9730591523288278,0.0,0.08921694243429515,0.0,-0.05211797942974014,0.0,0.95,0.0,0.3,0.0,6.589803643268746,0.0,2.33915081252562,auto,85.0,2.3354834361356254,10.0,0.0,0.0,4.135343482130884,0.05211797942974014,0,0
1761218938.4886062,13.265848636627197,6.691117459044372,0.0,2.34612638336544,0.932962637641904,0.0,0.045910926077781564,0.0,0.06728121346837894,0.0,0.4,0.0,-0.3,0.0,6.691117459044372,0.0,2.34612638336544,auto,85.0,2.3422983520893115,10.0,0.0,0.0,4.056231339132961,0.06728121346837893,0,0
1761218938.5922685,13.369510889053345,6.78694747221336,0.0,2.353340641880952,0.9138570178153612,0.0,0.06585920116955894,0.0,0.06081845398992887,0.0,0.5766773330923772,0.0,-0.2851977949755498,0.0,6.78694747221336,0.0,2.353340641880952,auto,85.0,2.3494838376199967,10.0,0.0,0.0,3.9827024396814745,0.06081845398992887,0,0
1761218938.6987135,13.475955963134766,6.883171864987711,0.0,2.3598766163981426,0.8935529679739586,0.0,0.05914349307232497,0.0,0.06907397694032341,0.0,0.6062350992662623,0.0,-0.11129979993143779,0.0,6.883171864987711,0.0,2.3598766163981426,auto,85.0,2.356086258269329,10.0,0.0,0.0,3.9094290206917597,0.06907397694032341,0,0
1761218938.8045647,13.581807136535645,6.975896677629556,0.0,2.3661707315799134,0.8748177582660223,0.0,0.051709445638925364,0.0,0.036242557758473216,0.0,0.4,0.0,0.3,0.0,6.975896677629556,0.0,2.3661707315799134,auto,85.0,2.3624921919062674,10.0,0.0,0.0,3.8397870820342868,0.03624255775847322,0,0
1761218938.9078584,13.685100793838501,7.0636894822702345,0.0,2.371395502337,0.8444546247734394,0.0,0.04320781669286877,0.0,-0.000338691762280071,0.0,0.4,0.0,0.3,0.0,7.0636894822702345,0.0,2.371395502337,auto,85.0,2.3675769872932064,10.0,0.0,0.0,3.7743126639210214,0.000338691762280071,0,0
1761218939.012401,13.78964352607727,7.149770588339447,0.0,2.3774033282837648,0.8149766626468625,0.0,0.06170825887058551,0.0,-0.0071723503975668484,0.0,0.4,0.0,0.2865053490674868,0.0,7.149770588339447,0.0,2.3774033282837648,auto,85.0,2.373401408708447,10.0,0.0,0.0,3.711583797306695,0.0071723503975668484,0,0
1761218939.1137128,13.890955209732056,7.2303475537271416,0.0,2.383638473513091,0.7673260094505836,0.0,0.11209475954829572,0.0,0.06713295166273087,0.0,0.9022366868390254,0.0,-0.0538787252468571,0.0,7.2303475537271416,0.0,2.383638473513091,auto,85.0,2.379878413814107,10.0,0.0,0.0,3.6541356085341232,0.06713295166273087,0,0
1761218939.2186437,13.995886087417603,7.309770630994151,0.0,2.391264797741806,0.758185589859061,0.0,0.09116894789821084,0.0,0.032137802865026106,0.0,0.7489530928790823,0.0,0.16729582765652645,0.0,7.309770630994151,0.0,2.391264797741806,auto,85.0,2.3872953889380866,10.0,0.0,0.0,3.5993723606735624,0.032137802865026106,0,0
1761218939.3222795,14.09952187538147,7.386704690855409,0.0,2.3979933998890774,0.7379915945304157,0.0,0.051687412471244865,0.0,0.029056346879485218,0.0,0.5366877550374802,0.0,0.11765543662428951,0.0,7.386704690855409,0.0,2.3979933998890774,auto,85.0,2.394204373845116,10.0,0.0,0.0,3.546785124406143,0.029056346879485218,0,0
1761218939.4254897,14.20273208618164,7.4612777622445545,0.0,2.4040481628830266,0.718313861488466,0.0,0.051847717151241715,0.0,0.03463642011519933,0.0,0.4,0.0,0.12268650139456053,0.0,7.4612777622445545,0.0,2.4040481628830266,auto,85.0,2.400268921842252,10.0,0.0,0.0,3.496363563752384,0.03463642011519933,0,0
1761218939.5309947,14.308237075805664,7.535569627966665,0.0,2.4095512307474993,0.6926427235903122,0.0,0.09911916029448667,0.0,0.05195486564874269,0.0,0.8922496617272554,0.0,-0.12674014975526807,0.0,7.535569627966665,0.0,2.4095512307474993,auto,85.0,2.4056762015964246,10.0,0.0,0.0,3.4466439027258318,0.05195486564874269,0,0
1761218939.6340408,14.411283254623413,7.606062077244233,0.0,2.4158559325435225,0.674464945242356,0.0,0.10015762717697572,0.0,0.054530362562876716,0.0,0.8983947809628994,0.0,-0.15431911061670728,0.0,7.606062077244233,0.0,2.4158559325435225,auto,85.0,2.411969404220672,10.0,0.0,0.0,3.401073163696119,0.054530362562876716,0,0
1761218939.737615,14.514857530593872,7.675042294590777,0.0,2.422557991717813,0.6562861197293943,0.0,0.11468860084692435,0.0,0.057557674443305853,0.0,0.95,0.0,0.00216179616382018,0.0,7.675042294590777,0.0,2.422557991717813,auto,85.0,2.41878873426479,10.0,0.0,0.0,3.357709867629656,0.057557674443305853,0,0
1761218939.841332,14.618574380874634,7.741863053700606,0.0,2.4299922896677653,0.6420381691131604,0.0,0.05527453247085248,0.0,0.04243702997970973,0.0,0.4,0.0,0.09409884999380694,0.0,7.741863053700606,0.0,2.4299922896677653,auto,85.0,2.426210908302856,10.0,0.0,0.0,3.317234540409698,0.04243702997970973,0,0
1761218939.9506364,14.72787880897522,7.8098281825540825,0.0,2.436170162339806,0.6073741818113031,0.0,0.0729979326533872,0.0,0.0222344290246253,0.0,0.4,0.0,-0.26719739777897056,0.0,7.8098281825540825,0.0,2.436170162339806,auto,85.0,2.4320131551036503,10.0,0.0,0.0,3.2759392011771387,0.022234429024625302,0,0
1761218940.0538611,14.831103563308716,7.872174302787968,0.0,2.4418928114727905,0.5892663327455849,0.0,0.07830415321664368,0.0,0.03625290023823231,0.0,0.7842143334496973,0.0,-0.3,0.0,7.872174302787968,0.0,2.4418928114727905,auto,85.0,2.4382602778724665,10.0,0.0,0.0,3.23890146507089,0.03625290023823231,0,0
1761218940.1580982,14.935340642929077,7.933778096474972,0.0,2.447571792172146,0.578841187728189,0.0,0.0759673402455931,0.0,0.05478799797868451,0.0,0.7522631422416266,0.0,-0.2384940105546268,0.0,7.933778096474972,0.0,2.447571792172146,auto,85.0,2.4439783344746067,10.0,0.0,0.0,3.2031048425618787,0.05478799797868451,0,0
1761218940.2641253,15.041367769241333,7.994598402392416,0.0,2.453993412297473,0.5620577682207725,0.0,0.06901649112858711,0.0,0.060840531061186004,0.0,0.4,0.0,-0.3,0.0,7.994598402392416,0.0,2.453993412297473,auto,85.0,2.4499147268255532,10.0,0.0,0.0,3.169182739333036,0.060840531061186004,0,0
1761218940.369491,15.146733522415161,8.053177023460856,0.0,2.4597499512910965,0.5513306369339801,0.0,0.035258893119786125,0.0,0.0590781906755352,0.0,0.46409387387360634,0.0,-0.13746004517386184,0.0,8.053177023460856,0.0,2.4597499512910965,auto,85.0,2.456245929586971,10.0,0.0,0.0,3.13695545471358,0.0590781906755352,0,0
1761218940.473425,15.250667333602905,8.109225850252969,0.0,2.4651153143834987,0.537314909419816,0.0,0.026303292643676156,0.0,0.04803631617154201,0.0,0.4,0.0,0.027878764772786176,0.0,8.109225850252969,0.0,2.4651153143834987,auto,85.0,2.461648906842077,10.0,0.0,0.0,3.106737903100238,0.04803631617154201,0,0
1761218940.5843494,15.361591815948486,8.167332522060796,0.0,2.4706159653526667,0.5236034924142328,0.0,0.060911352545966496,0.0,0.03996295787146447,0.0,0.6780137913219197,0.0,0.3,0.0,8.167332522060796,0.0,2.4706159653526667,auto,85.0,2.4668262364763076,10.0,0.0,0.0,3.076136104425734,0.03996295787146446,0,0
1761218940.6891625,15.466404914855957,8.21914036370357,0.0,2.475236915086823,0.49002047482352407,0.0,0.040947484592781504,0.0,-0.05593038405153199,0.0,0.4,0.0,0.3,0.0,8.21914036370357,0.0,2.475236915086823,auto,85.0,2.471644383318462,10.0,0.0,0.0,3.049304646964351,0.05593038405153199,0,0
1761218940.794375,15.571617364883423,8.270723215886601,0.0,2.479518330462016,0.4760210899281013,0.0,0.014479817136696816,0.0,-0.012733263877433508,0.0,0.4080354774717266,0.0,-0.1808106289705589,0.0,8.270723215886601,0.0,2.479518330462016,auto,85.0,2.4760072452056505,10.0,0.0,0.0,3.0229802095234963,0.012733263877433508,0,0
1761218940.8979173,15.675159692764282,8.320007841778521,0.0,2.4848457752722863,0.46306227240824716,0.0,0.025641241825015395,0.0,-0.004726554546154465,0.0,0.4,0.0,-0.16257852803463319,0.0,8.320007841778521,0.0,2.4848457752722863,auto,85.0,2.481428817709431,10.0,0.0,0.0,2.9994719832954253,0.0047265545461544645,0,0
1761218941.0030184,15.780260801315308,8.368679970995192,0.0,2.49043120595229,0.4482407407587442,0.0,0.048177618847393106,0.0,0.005887399439580249,0.0,0.4,0.0,-0.24812099695040857,0.0,8.368679970995192,0.0,2.49043120595229,auto,85.0,2.486760135255929,10.0,0.0,0.0,2.977155123370837,0.005887399439580249,0,0
1761218941.1071916,15.88443398475647,8.415568800108035,0.0,2.4955652222219764,0.43674460411848565,0.0,0.03545184764551567,0.0,0.015980669048825384,0.0,0.4,0.0,-0.3,0.0,8.415568800108035,0.0,2.4955652222219764,auto,85.0,2.4918466459238036,10.0,0.0,0.0,2.956056157375045,0.015980669048825384,0,0
1761218941.2127495,15.989991903305054,8.462041709031856,0.0,2.500362360249889,0.4258735699074364,0.0,0.05342186443783841,0.0,0.04445731920640664,0.0,0.6117000654269135,0.0,-0.3,0.0,8.462041709031856,0.0,2.500362360249889,auto,85.0,2.496802340705382,10.0,0.0,0.0,2.9354944451168783,0.04445731920640663,0,0
1761218941.3185747,16.09581708908081,8.507157408293757,0.0,2.505177859421559,0.41783670170755544,0.0,0.0345162360270287,0.0,0.043640601677997125,0.0,0.4942397983539565,0.0,-0.3,0.0,8.507157408293757,0.0,2.505177859421559,auto,85.0,2.501551859944715,10.0,0.0,0.0,2.9162467506965517,0.043640601677997125,0,0
1761218941.428369,16.20561146736145,8.552935193243947,0.0,2.5099714433835314,0.4089261531590265,0.0,0.01819396336941009,0.0,0.06620551798689439,0.0,0.4,0.0,-0.2378326511050301,0.0,8.552935193243947,0.0,2.5099714433835314,auto,85.0,2.5066094065552447,10.0,0.0,0.0,2.8972319895984757,0.06620551798689439,0,0
1761218941.5336938,16.310936212539673,8.594922703874195,0.0,2.5145895801882845,0.39764363678499637,0.0,0.08674541423903259,0.0,0.04112255149527385,0.0,0.8715839271743787,0.0,-0.011865525193758553,0.0,8.594922703874195,0.0,2.5145895801882845,auto,85.0,2.5108264394473734,10.0,0.0,0.0,2.8805213008897708,0.04112255149527386,0,0
1761218941.6385458,16.415788173675537,8.635607410084397,0.0,2.5192315197553166,0.3933519701110749,0.0,-0.007530821797817472,0.0,0.032150033641451845,0.0,0.4235732387414261,0.0,0.013215994820352309,0.0,8.635607410084397,0.0,2.5192315197553166,auto,85.0,2.513520507799007,10.0,0.0,0.0,2.8649772406679412,0.032150033641451845,0,0
1761218941.7425823,16.519824743270874,8.673762793752289,0.0,2.522620002860811,0.3553735522724749,0.0,0.00397642128052356,0.0,-0.060585670616415815,0.0,0.4231275782361775,0.0,0.023649024865402435,0.0,8.673762793752289,0.0,2.522620002860811,auto,85.0,2.5189883945668456,10.0,0.0,0.0,2.85000294843167,0.060585670616415815,0,0
1761218941.8478131,16.62505555152893,8.712587401904143,0.0,2.526369220412632,0.353592209434515,0.0,0.019197433576154,0.0,0.02693248079546332,0.0,0.4,0.0,-0.3,0.0,8.712587401904143,0.0,2.526369220412632,auto,85.0,2.522829921181193,10.0,0.0,0.0,2.83548455040479,0.02693248079546332,0,0
1761218941.9536955,16.730937957763672,8.7502620769889,0.0,2.5296757979994204,0.3461926751599612,0.0,0.021841134675962756,0.0,0.028107930194234625,0.0,0.4,0.0,-0.3,0.0,8.7502620769889,0.0,2.5296757979994204,auto,85.0,2.5261171441473578,10.0,0.0,0.0,2.8215429323680516,0.028107930194234625,0,0
1761218942.0582132,16.835455656051636,8.786632373301394,0.0,2.533729761884846,0.33604566847139944,0.0,0.03948171597625651,0.0,0.0420174525559847,0.0,0.4,0.0,-0.3,0.0,8.786632373301394,0.0,2.533729761884846,auto,85.0,2.5301629493110562,10.0,0.0,0.0,2.8092788227196754,0.0420174525559847,0,0
1761218942.1590235,16.93626594543457,8.819925142024701,0.0,2.5372335357405125,0.31892127775779044,0.0,0.06570457582313498,0.0,-0.0016590518563861824,0.0,0.8261476991406473,0.0,-0.2638027205188668,0.0,8.819925142024701,0.0,2.5372335357405125,auto,85.0,2.5337525148427718,10.0,0.0,0.0,2.7982370673893455,0.0016590518563861824,0,0
1761218942.2650533,17.042295694351196,8.854255725614482,0.0,2.541487176681014,0.3166855196931338,0.0,0.04946937329769466,0.0,0.009340162031395986,0.0,0.6382406666580911,0.0,-0.29956337380712406,0.0,8.854255725614482,0.0,2.541487176681014,auto,85.0,2.5377780267758214,10.0,0.0,0.0,2.7878104332112015,0.009340162031395986,0,0
1761218942.3699973,17.147239685058594,8.887804110241234,0.0,2.545541753280177,0.30505922713416883,0.0,0.06252073551065285,0.0,0.010727700414948724,0.0,0.7742355920515708,0.0,-0.3,0.0,8.887804110241234,0.0,2.545541753280177,auto,85.0,2.541907870392514,10.0,0.0,0.0,2.7779061386031407,0.010727700414948724,0,0
1761218942.475519,17.252761363983154,8.920442423583633,0.0,2.550404431061177,0.2974294975909928,0.0,0.041252877462824245,0.0,0.030584714203039202,0.0,0.4,0.0,-0.3,0.0,8.920442423583633,0.0,2.550404431061177,auto,85.0,2.5465625525238074,10.0,0.0,0.0,2.7694778068752357,0.030584714203039202,0,0
1761218942.5803251,17.35756754875183,8.951938119275267,0.0,2.554659766707218,0.29129711515071016,0.0,0.02895195700190384,0.0,0.04148215921595062,0.0,0.4821281358882989,0.0,-0.3,0.0,8.951938119275267,0.0,2.554659766707218,auto,85.0,2.5512587898883283,10.0,0.0,0.0,2.7612895953631598,0.04148215921595062,0,0
1761218942.6858,17.463042497634888,8.982721128478298,0.0,2.559083309106129,0.28276970291226794,0.0,0.06568765279938782,0.0,0.05126025315662248,0.0,0.4,0.0,-0.3,0.0,8.982721128478298,0.0,2.559083309106129,auto,85.0,2.5550519907850737,10.0,0.0,0.0,2.753863410808539,0.05126025315662248,0,0
1761218942.7910085,17.56825089454651,9.0123966468591,0.0,2.5642756751530364,0.27862700007744423,0.0,0.05708700558899512,0.0,0.04989759445203912,0.0,0.4,0.0,-0.24007287018344722,0.0,9.0123966468591,0.0,2.5642756751530364,auto,85.0,2.560494063012586,10.0,0.0,0.0,2.7478846630302205,0.04989759445203912,0,0
1761218942.8991597,17.67640209197998,9.042089728320919,0.0,2.568910922516679,0.27009775562362537,0.0,0.033206642720465473,0.0,0.057991354560210435,0.0,0.4,0.0,-0.2011852641014123,0.0,9.042089728320919,0.0,2.568910922516679,auto,85.0,2.565148752295344,10.0,0.0,0.0,2.7416957191515228,0.05799135456021044,0,0
1761218943.0035841,17.780826568603516,9.069560386607764,0.0,2.573170083236492,0.26669879212263653,0.0,0.01426576672263587,0.0,0.037467396316887794,0.0,0.4,0.0,0.07829474560167536,0.0,9.069560386607764,0.0,2.573170083236492,auto,85.0,2.5698326672339054,10.0,0.0,0.0,2.7362240682065475,0.037467396316887794,0,0
1761218943.1095145,17.886756896972656,9.09673767746437,0.0,2.577836974482528,0.25993190216824114,0.0,0.07644840598330493,0.0,0.029466817022198073,0.0,0.8120533020890233,0.0,0.1920214812385138,0.0,9.09673767746437,0.0,2.577836974482528,auto,85.0,2.574200465103942,10.0,0.0,0.0,2.7315062310603824,0.029466817022198073,0,0
1761218943.214681,17.991923332214355,9.123071296262141,0.0,2.582055834646395,0.2519356514174508,0.0,0.013135267440804552,0.0,0.028364129402261944,0.0,0.4236333058514402,0.0,0.1294672113840514,0.0,9.123071296262141,0.0,2.582055834646395,auto,85.0,2.578734432891519,10.0,0.0,0.0,2.7269059911685356,0.028364129402261944,0,0
1761218943.32073,18.09797239303589,9.148865778067037,0.0,2.5865423350798276,0.24550991626357244,0.0,0.05878755701070923,0.0,0.03326714111245059,0.0,0.7337790496835525,0.0,0.14328481766217369,0.0,9.148865778067037,0.0,2.5865423350798276,auto,85.0,2.5830514261062616,10.0,0.0,0.0,2.7229819527322685,0.03326714111245059,0,0
1761218943.4282806,18.205523014068604,9.174341671296123,0.0,2.590584666728555,0.2386557348946045,0.0,0.03241344841433946,0.0,0.03470981656858392,0.0,0.4,0.0,0.0778165133589351,0.0,9.174341671296123,0.0,2.590584666728555,auto,85.0,2.5870514846632924,10.0,0.0,0.0,2.7189778578074475,0.03470981656858392,0,0
1761218943.5322552,18.309497594833374,9.198185393111906,0.0,2.5938940052046515,0.2329113358841995,0.0,0.004781988136386195,0.0,0.02614228051649909,0.0,0.4,0.0,0.12426951394702421,0.0,9.198185393111906,0.0,2.5938940052046515,auto,85.0,2.5904866989393165,10.0,0.0,0.0,2.714994065197148,0.02614228051649909,0,0
1761218943.6391563,18.416398763656616,9.222027193890957,0.0,2.598346195760185,0.2237481134111439,0.0,0.02411379814848961,0.0,0.0360086217986047,0.0,0.4,0.0,-0.011582393537331847,0.0,9.222027193890957,0.0,2.598346195760185,auto,85.0,2.5946198268617673,10.0,0.0,0.0,2.7123135217128946,0.0360086217986047,0,0
1761218943.744006,18.52124834060669,9.244708995763043,0.0,2.602204460917201,0.21770471411656311,0.0,0.007758378230235296,0.0,0.03890058180904029,0.0,0.4,0.0,-0.008142146889108795,0.0,9.244708995763043,0.0,2.602204460917201,auto,85.0,2.5987397983778036,10.0,0.0,0.0,2.70960007335006,0.03890058180904029,0,0
1761218943.8494635,18.62670588493347,9.2667210450838,0.0,2.6065913343578795,0.2128749440305215,0.0,0.06922616967677603,0.0,0.029159218352238,0.0,0.7966006237546934,0.0,0.16993238931614352,0.0,9.2667210450838,0.0,2.6065913343578795,auto,85.0,2.6030652279787825,10.0,0.0,0.0,2.7077696375564493,0.029159218352238,0,0
1761218943.9558635,18.733105897903442,9.28850697598871,0.0,2.6111201553420793,0.20838866084217583,0.0,0.025600198016533512,0.0,0.024517344133268292,0.0,0.5022556835084881,0.0,0.17305452288531575,0.0,9.28850697598871,0.0,2.6111201553420793,auto,85.0,2.6075641323631973,10.0,0.0,0.0,2.7063205258894176,0.024517344133268292,0,0
1761218944.0609567,18.838199138641357,9.30940594931902,0.0,2.615835366495019,0.20088503041121786,0.0,0.06868099481146246,0.0,0.024762845001916736,0.0,0.7523030686400219,0.0,0.15561968035449614,0.0,9.30940594931902,0.0,2.615835366495019,auto,85.0,2.6122755961548116,10.0,0.0,0.0,2.7054601840430204,0.024762845001916736,0,0
1761218944.165805,18.943047523498535,9.32972917562881,0.0,2.620255561848585,0.19716179015391058,0.0,0.031915042782730246,0.0,0.027396237396062603,0.0,0.5319478001304968,0.0,0.15339358572488165,0.0,9.32972917562881,0.0,2.620255561848585,auto,85.0,2.6168496112353923,10.0,0.0,0.0,2.7046260716412682,0.027396237396062603,0,0
1761218944.2708366,19.048079013824463,9.349541752864098,0.0,2.6239208294940974,0.19030399299716996,0.0,0.05990261136747391,0.0,0.029538120587658367,0.0,0.7593096376727598,0.0,0.10839643685997791,0.0,9.349541752864098,0.0,2.6239208294940974,auto,85.0,2.620437531054386,10.0,0.0,0.0,2.7033417191912865,0.029538120587658367,0,0
1761218944.3845918,19.161834239959717,9.370237894529277,0.0,2.6276628582913237,0.18466066498594538,0.0,0.03655463447220911,0.0,0.03875134264739346,0.0,0.6331906474783311,0.0,0.047382561150107826,0.0,9.370237894529277,0.0,2.6276628582913237,auto,85.0,2.622288787656025,10.0,0.0,0.0,2.7020755737637407,0.03875134264739346,0,0
1761218944.4888487,19.266091108322144,9.388039930289121,0.0,2.630574648680079,0.17473724718876477,0.0,0.0066561546680759635,0.0,-0.008123038541711605,0.0,0.4192212609734779,0.0,0.3,0.0,9.388039930289121,0.0,2.630574648680079,auto,85.0,2.62711594451469,10.0,0.0,0.0,2.700818044444843,0.008123038541711605,0,0
1761218944.593207,19.37044930458069,9.405454260442236,0.0,2.633638673669794,0.1718858299147946,0.0,0.02094740531995473,0.0,-0.013220649563883169,0.0,0.5184842069025135,0.0,0.3,0.0,9.405454260442236,0.0,2.633638673669794,auto,85.0,2.6303422390295155,10.0,0.0,0.0,2.6999143134320915,0.01322064956388317,0,0
1761218944.7002323,19.477474689483643,9.422880565986864,0.0,2.6358758992623192,0.16617758083732062,0.0,0.0027835856015184686,0.0,-0.009606579016858656,0.0,0.4,0.0,0.3,0.0,9.422880565986864,0.0,2.6358758992623192,auto,85.0,2.6326869174160294,10.0,0.0,0.0,2.698315881698728,0.009606579016858654,0,0
1761218944.8072345,19.584476947784424,9.439906581822772,0.0,2.638628806821132,0.16387593436233397,0.0,0.0159921127490712,0.0,-0.0019716956483233003,0.0,0.5002800126611621,0.0,0.3,0.0,9.439906581822772,0.0,2.638628806821132,auto,85.0,2.6351650732666845,10.0,0.0,0.0,2.6974185098482146,0.0019716956483233003,0,0
1761218944.9124854,19.689727783203125,9.456239906943898,0.0,2.640704986470478,0.1599505910718602,0.0,0.02038461942582526,0.0,0.004329735137801043,0.0,0.4,0.0,0.3,0.0,9.456239906943898,0.0,2.640704986470478,auto,85.0,2.636983766132202,10.0,0.0,0.0,2.696107910371992,0.004329735137801043,0,0
1761218945.017053,19.79429531097412,9.471982061536758,0.0,2.6434683430270423,0.1575587936852445,0.0,0.02047716652667617,0.0,-0.017111249018779966,0.0,0.4,0.0,0.3,0.0,9.471982061536758,0.0,2.6434683430270423,auto,85.0,2.6401103609859615,10.0,0.0,0.0,2.695686892783564,0.017111249018779962,0,0
1761218945.1222842,19.899526596069336,9.487368785010297,0.0,2.645717211510005,0.1473213804132493,0.0,0.003417291788220901,0.0,-0.0320525383730199,0.0,0.42027616335444135,0.0,0.3,0.0,9.487368785010297,0.0,2.645717211510005,auto,85.0,2.642359143268015,10.0,0.0,0.0,2.6949230649245064,0.0320525383730199,0,0
1761218945.2281678,20.005410194396973,9.502244026661886,0.0,2.6485500483566953,0.1446447157813521,0.0,0.05685795447201414,0.0,-0.041885770480947854,0.0,0.9254487635927371,0.0,0.3,0.0,9.502244026661886,0.0,2.6485500483566953,auto,85.0,2.64503529254904,10.0,0.0,0.0,2.6949171355802437,0.041885770480947854,0,0
1761218945.332633,20.109875440597534,9.517008852301862,0.0,2.6513518039829433,0.13725650662595787,0.0,0.02334288599812482,0.0,-0.038279808404042465,0.0,0.5920822117395382,0.0,0.1466379172436057,0.0,9.517008852301862,0.0,2.6513518039829433,auto,85.0,2.647772588807501,10.0,0.0,0.0,2.6949854985209796,0.03827980840404246,0,0
1761218945.4391131,20.216355562210083,9.531501362175895,0.0,2.6542953593161998,0.13230352214528043,0.0,0.028935869209497034,0.0,-0.038539984290026294,0.0,0.622383552684217,0.0,0.11604173301495892,0.0,9.531501362175895,0.0,2.6542953593161998,auto,85.0,2.6508026233829813,10.0,0.0,0.0,2.695324623886807,0.038539984290026294,0,0
1761218945.5445442,20.321786642074585,9.545459575955164,0.0,2.657969931451547,0.12569199201106268,0.0,0.017089028216265147,0.0,-0.031579933271551085,0.0,0.4,0.0,0.0608583116224776,0.0,9.545459575955164,0.0,2.657969931451547,auto,85.0,2.6546037476230864,10.0,0.0,0.0,2.6965554237937335,0.031579933271551085,0,0
1761218945.647711,20.42495346069336,9.558573101158293,0.0,2.6608612885930474,0.12186347555594566,0.0,0.014484915332507682,0.0,-0.0338330440843736,0.0,0.4,0.0,0.05571825064246789,0.0,9.558573101158293,0.0,2.6608612885930474,auto,85.0,2.657464436026957,10.0,0.0,0.0,2.6972283003398245,0.0338330440843736,0,0
1761218945.7529068,20.530149221420288,9.57159303164068,0.0,2.663784018713996,0.12026325982600226,0.0,0.0692933973310026,0.0,-0.03209756526874567,0.0,0.8607142906054689,0.0,0.030469101776702045,0.0,9.57159303164068,0.0,2.663784018713996,auto,85.0,2.6601947605601515,10.0,0.0,0.0,2.698013682117811,0.03209756526874567,0,0
1761218945.856698,20.63394045829773,9.584124946260127,0.0,2.66705771251263,0.11483993867321705,0.0,0.009279656794748351,0.0,-0.031368037084775424,0.0,0.47499502767221635,0.0,0.021932464894703598,0.0,9.584124946260127,0.0,2.66705771251263,auto,85.0,2.663767499643923,10.0,0.0,0.0,2.6992867395288416,0.031368037084775424,0,0
1761218945.962268,20.739510536193848,9.596476642630885,0.0,2.670254012848541,0.11084910347035361,0.0,-0.00041476625467986444,0.0,-0.030282085299655398,0.0,0.4,0.0,-0.013765044607787595,0.0,9.596476642630885,0.0,2.670254012848541,auto,85.0,2.666971788773652,10.0,0.0,0.0,2.700571715966117,0.030282085299655398,0,0
1761218946.065756,20.842998504638672,9.60855458056785,0.0,2.673288988512943,0.10691870938988271,0.0,0.04159320605844859,0.0,-0.01630165241336937,0.0,0.6961324710728815,0.0,-0.19618983851808308,0.0,9.60855458056785,0.0,2.673288988512943,auto,85.0,2.669913977979906,10.0,0.0,0.0,2.701796352891714,0.01630165241336937,0,0
1761218946.174033,20.95127534866333,9.620533777979515,0.0,2.675710521487384,0.10037745781785704,0.0,0.012778662063573348,0.0,-0.008662071368161672,0.0,0.4,0.0,-0.22579843680770745,0.0,9.620533777979515,0.0,2.675710521487384,auto,85.0,2.6723575971179874,10.0,0.0,0.0,2.702484303090915,0.008662071368161672,0,0
1761218946.2778437,21.055086135864258,9.631525099075015,0.0,2.677689053420324,0.09775362154465991,0.0,0.01036466754144728,0.0,-0.004234966125307257,0.0,0.4,0.0,-0.29739164723450573,0.0,9.631525099075015,0.0,2.677689053420324,auto,85.0,2.674416249204244,10.0,0.0,0.0,2.7029229399704886,0.004234966125307257,0,0
1761218946.3824933,21.159735679626465,9.642479066463958,0.0,2.67959451496168,0.0960438881778483,0.0,0.0055248514010364305,0.0,0.005480535733220056,0.0,0.4,0.0,-0.3,0.0,9.642479066463958,0.0,2.67959451496168,auto,85.0,2.6760458137626633,10.0,0.0,0.0,2.703340152945834,0.005480535733220056,0,0
1761218946.4861915,21.263433933258057,9.652940221042495,0.0,2.681611086305497,0.09218272777584594,0.0,0.04104223243394424,0.0,0.0035884420310954637,0.0,0.7370284444427047,0.0,-0.3,0.0,9.652940221042495,0.0,2.681611086305497,auto,85.0,2.678292595469133,10.0,0.0,0.0,2.703976425260875,0.0035884420310954637,0,0
1761218946.5945635,21.371805906295776,9.66353052947145,0.0,2.6838747277229222,0.08834530792219253,0.0,0.027604526130493263,0.0,0.005063269526835459,0.0,0.4,0.0,-0.29237552225595953,0.0,9.66353052947145,0.0,2.6838747277229222,auto,85.0,2.6803339638429886,10.0,0.0,0.0,2.70488359429894,0.005063269526835459,0,0
1761218946.7010047,21.47824716567993,9.67352538340708,0.0,2.6857084787534347,0.08517155529587914,0.0,0.019186708343631044,0.0,0.004390030896409914,0.0,0.4,0.0,-0.3,0.0,9.67352538340708,0.0,2.6857084787534347,auto,85.0,2.682325315802256,10.0,0.0,0.0,2.7054788315800185,0.004390030896409913,0,0
1761218946.8042738,21.58151626586914,9.68302739208712,0.0,2.6885121174115465,0.08367558972145808,0.0,0.04923067446579556,0.0,0.01657911576855279,0.0,0.7766563887229815,0.0,-0.3,0.0,9.68302739208712,0.0,2.6885121174115465,auto,85.0,2.685147004929942,10.0,0.0,0.0,2.7071329926022862,0.01657911576855279,0,0
1761218946.9072642,21.68450665473938,9.69239434062882,0.0,2.692060449281571,0.08462153095670101,0.0,0.023984166806351633,0.0,0.03183999928724142,0.0,0.5094564282243981,0.0,-0.3,0.0,9.69239434062882,0.0,2.692060449281571,auto,85.0,2.6887247567294374,10.0,0.0,0.0,2.7095775877917343,0.03183999928724141,0,0
1761218947.0107274,21.787969827651978,9.7015631219563,0.0,2.6947095410737556,0.08165984436939148,0.0,0.052647680512450834,0.0,0.036591353533164686,0.0,0.8352262690541347,0.0,-0.3,0.0,9.7015631219563,0.0,2.6947095410737556,auto,85.0,2.691283525745079,10.0,0.0,0.0,2.711184995703982,0.036591353533164686,0,0
1761218947.114242,21.89148449897766,9.71038462018684,0.0,2.697908396930399,0.08013988725279897,0.0,0.043957528419533244,0.0,0.039061345460028395,0.0,0.4,0.0,-0.3,0.0,9.71038462018684,0.0,2.697908396930399,auto,85.0,2.6942811981897554,10.0,0.0,0.0,2.7134087024353475,0.0390613454600284,0,0
1761218947.217034,21.994276523590088,9.718892567229947,0.0,2.7001775234995984,0.07956393409723131,0.0,0.011620507402110495,0.0,0.04472971815877738,0.0,0.4755744320914518,0.0,-0.3,0.0,9.718892567229947,0.0,2.7001775234995984,auto,85.0,2.6969383686348,10.0,0.0,0.0,2.7147707172376445,0.04472971815877738,0,0
1761218947.3200283,22.097270727157593,9.727158025858946,0.0,2.7025318567545793,0.07935954975217259,0.0,0.005876020017146766,0.0,0.04467053703541746,0.0,0.4447251448792841,0.0,-0.2615144125540685,0.0,9.727158025858946,0.0,2.7025318567545793,auto,85.0,2.6992999022004347,10.0,0.0,0.0,2.716269717761206,0.04467053703541746,0,0
1761218947.4262266,22.203469038009644,9.7355439719387,0.0,2.706138487998319,0.07668999821766767,0.0,0.08034181717794472,0.0,0.04728322610489259,0.0,0.93856490033694,0.0,-0.1715751739909882,0.0,9.7355439719387,0.0,2.706138487998319,auto,85.0,2.7025618514089054,10.0,0.0,0.0,2.719029699544267,0.04728322610489259,0,0
1761218947.528858,22.306100368499756,9.743221544657715,0.0,2.710709280580917,0.07827847222143591,0.0,0.06907003695954725,0.0,0.03428869281446309,0.0,0.8019753744553172,0.0,0.024456942808609744,0.0,9.743221544657715,0.0,2.710709280580917,auto,85.0,2.7071977065394393,10.0,0.0,0.0,2.7228440974384642,0.03428869281446309,0,0
1761218947.6385512,22.415793657302856,9.751225608426283,0.0,2.7158659673873595,0.0774186899661439,0.0,0.04922989807920472,0.0,0.03314144691162375,0.0,0.6406388864926144,0.0,0.08303102359151529,0.0,9.751225608426283,0.0,2.7158659673873595,auto,85.0,2.7114940320842664,10.0,0.0,0.0,2.7272360826880666,0.03314144691162375,0,0
1761218947.7421844,22.519426822662354,9.758423796981422,0.0,2.719937148994408,0.0739418086526901,0.0,0.06354218458520886,0.0,0.019623626694056793,0.0,0.7633324537594955,0.0,0.17620926326792866,0.0,9.758423796981422,0.0,2.719937148994408,auto,85.0,2.716265647684733,10.0,0.0,0.0,2.7306440918480575,0.019623626694056793,0,0
1761218947.8453496,22.622591972351074,9.76537161308194,0.0,2.724044548930977,0.07330590997968094,0.0,0.024423490209417135,0.0,0.013126164904723086,0.0,0.4,0.0,0.24523050500365381,0.0,9.76537161308194,0.0,2.724044548930977,auto,85.0,2.7204304830267003,10.0,0.0,0.0,2.7341304256579164,0.013126164904723084,0,0
1761218947.9501982,22.72744059562683,9.772240094776217,0.0,2.7276519065848466,0.07295443568606867,0.0,0.016451161136872054,0.0,0.0037788559574967982,0.0,0.4,0.0,0.3,0.0,9.772240094776217,0.0,2.7276519065848466,auto,85.0,2.7243233721776767,10.0,0.0,0.0,2.737144405749082,0.0037788559574967982,0,0
1761218948.054288,22.831530332565308,9.778934949052967,0.0,2.73062630580563,0.07018305551607651,0.0,0.010031192283115546,0.0,-0.001769578904853346,0.0,0.4,0.0,0.3,0.0,9.778934949052967,0.0,2.73062630580563,auto,85.0,2.7273864921432875,10.0,0.0,0.0,2.7395601432908747,0.0017695789048533463,0,0
1761218948.1599498,22.93719220161438,9.785510417921099,0.0,2.733128043086998,0.06786914879410812,0.0,0.006529469291496438,0.0,-0.002140294292132101,0.0,0.4,0.0,0.3,0.0,9.785510417921099,0.0,2.733128043086998,auto,85.0,2.7298758283840905,10.0,0.0,0.0,2.7415314480649218,0.0021402942921321015,0,0
1761218948.2635155,23.04075789451599,9.791805031619491,0.0,2.7352590812438273,0.06629439836840062,0.0,0.021780116725992907,0.0,0.000990666210172273,0.0,0.5744664434347186,0.0,0.3,0.0,9.791805031619491,0.0,2.7352590812438273,auto,85.0,2.7319725627455385,10.0,0.0,0.0,2.7431710457763634,0.000990666210172273,0,0
1761218948.366403,23.143645524978638,9.797808611184069,0.0,2.738238839905631,0.06502891229078149,0.0,0.022883711204804202,0.0,-0.006461252484148892,0.0,0.4,0.0,0.3,0.0,9.797808611184069,0.0,2.738238839905631,auto,85.0,2.7348639315531296,10.0,0.0,0.0,2.7456935921692085,0.006461252484148892,0,0
1761218948.4702225,23.247464895248413,9.80377651505848,0.0,2.7412129618974634,0.06498116437880061,0.0,0.025411929416485707,0.0,-0.02556987373525211,0.0,0.4,0.0,0.3,0.0,9.80377651505848,0.0,2.7412129618974634,auto,85.0,2.737609217156092,10.0,0.0,0.0,2.7482270936946347,0.02556987373525211,0,0
1761218948.5743587,23.351601123809814,9.809774973136067,0.0,2.74363862085543,0.06205985405053791,0.0,0.050051830083974846,0.0,-0.030916824453994855,0.0,0.8279907341608208,0.0,0.3,0.0,9.809774973136067,0.0,2.74363862085543,auto,85.0,2.7401312227691057,10.0,0.0,0.0,2.7502251621812475,0.030916824453994855,0,0
