timestamp,simulation_time,position_x,position_y,position_z,velocity_x,velocity_y,velocity_z,attitude_roll,attitude_pitch,attitude_yaw,angular_velocity_x,angular_velocity_y,angular_velocity_z,acceleration_x,acceleration_y,acceleration_z,motor_speed_1,motor_speed_2,motor_speed_3,motor_speed_4,control_throttle,control_roll,control_pitch,control_yaw,estimated_position_x,estimated_position_y,estimated_position_z,estimated_velocity_x,estimated_velocity_y,estimated_velocity_z,estimated_attitude_roll,estimated_attitude_pitch,estimated_attitude_yaw,sensor_accel_x,sensor_accel_y,sensor_accel_z,sensor_gyro_x,sensor_gyro_y,sensor_gyro_z,sensor_gps_x,sensor_gps_y,sensor_gps_z,sensor_gps_vx,sensor_gps_vy,sensor_gps_vz,sensor_baro_altitude,sensor_mag_x,sensor_mag_y,sensor_mag_z,flight_mode,battery_level,gps_fix,waypoint_index,mission_complete,setpoint_altitude,setpoint_position_x,setpoint_position_y,setpoint_position_z,position_error,attitude_error
1760892894.6091309,0.10754537582397461,-8.644762067922487e-13,-5.5208182891495e-14,0.0561278486530246,-3.230336989197546e-11,-1.4782800331292452e-12,1.0474305443745666,-2.745048142152087e-07,1.3951710398005498e-05,1.0976936233931724e-08,,,,,,,,,,,0.8,-0.010176255301947493,1.0,-0.14563568528188017,0.05518803600582124,-0.05979161576064291,-0.9855953549277097,-0.019967168227528028,0.0009458809360850069,0.8426425982297089,-0.0053137193831656725,-0.0020446674412578692,0.08653290181268403,,,,,,,,,,,,,,,,,auto,85.0,True,0,False,-10.0,15.0,0.0,-10.0,17.453093444474526,0.08672000562011044
1760892894.7152755,0.21369004249572754,-1.3691843822456837e-11,-2.0220473771340606e-13,0.22287166030995542,-2.5568088271395806e-10,6.627060376392465e-14,2.0756641294765594,8.772634306023931e-07,5.5612765793668965e-05,-3.510301115600721e-08,,,,,,,,,,,0.8,0.0023919304422057256,1.0,0.04395273047374389,0.05299055454463503,-0.05966255842188287,-0.21564257768326162,-0.021070893688779593,0.0012406014276029906,1.8727531651485372,-0.008701634346043294,-0.00032684240552341914,-0.01743822526101693,,,,,,,,,,,,,,,,,auto,85.0,True,0,False,-10.0,15.0,0.0,-10.0,17.864778228431888,0.019491458809033704
1760892894.822835,0.32124948501586914,-6.974342605668968e-11,2.07137729441796e-13,0.5006049588848688,-8.654001479140369e-10,7.502619356734675e-12,3.0823996247112437,1.1350290768352998e-06,0.00012574887828996229,-4.488885490466654e-08,,,,,,,,,,,0.8,0.0044625170362420806,1.0,-0.12954390542297428,0.05075621094635148,-0.05951117479202392,0.21524563466449415,-0.019939461316179116,0.001141613584624716,2.8821662175235736,-0.009599016211283371,0.0017648272411594156,0.07674912816357154,,,,,,,,,,,,,,,,,auto,85.0,True,0,False,-10.0,15.0,0.0,-10.0,18.106205423031525,0.07736720494682453
1760892894.9306774,0.4290919303894043,-2.205693366895925e-10,1.4858460297527469e-12,0.8855392538778019,-2.0436227230822223e-09,1.6314862503380392e-11,4.048168626481699,1.4405111550243439e-06,0.00022442834957713006,-5.64145948690922e-08,,,,,,,,,,,0.8,0.006168518054152809,0.9979339360093963,-0.2623676003256467,0.048637208941077655,-0.05935866971452025,1.0883260506021881,-0.019774759285087207,0.001382097747453296,3.8520017116277336,-0.010224000908344084,0.0028938024269483005,0.15251615067565125,,,,,,,,,,,,,,,,,auto,85.0,True,0,False,-10.0,15.0,0.0,-10.0,18.61444996141424,0.15288584141109335
1760892895.0399706,0.5383851528167725,-5.390057123809502e-10,4.101307022173786e-12,1.3763877828973057,-3.92592498177968e-09,3.4990456606745657e-11,4.967042292888811,4.407693425233893e-06,0.0003525927463095961,-1.7494619780094304e-07,,,,,,,,,,,0.8,-0.011911833298366453,0.9603918537023057,0.12340445462495979,-0.24007863929459064,-0.18756644617819984,1.3451436621577848,-0.004770057913016362,0.047456724376533095,4.8112544823542915,-0.010215951844274982,0.008038277314149371,-0.059513990391424396,,,,,,,,,,,,,,,,,auto,85.0,True,0,False,-10.0,15.0,0.0,-10.0,19.000196388948567,0.06091711275638619
1760892895.147097,0.6455116271972656,-1.0966765846474566e-09,9.614113338839623e-12,1.9572331375681549,-6.5860906757555564e-09,6.954744993148578e-11,5.813682970630659,6.769518801305596e-06,0.0005066817218551706,-2.651199249341178e-07,,,,,,,,,,,0.8,0.223183359180322,0.9595561573101405,0.17928332999914226,0.12551618601863906,0.17801398092707177,1.4765723711931635,0.011080274948927594,0.10339547625597825,5.6999408730592425,-0.010674326565698316,0.005702067155883405,-0.10717916677565276,,,,,,,,,,,,,,,,,auto,85.0,True,0,False,-10.0,15.0,0.0,-10.0,18.78812580064955,0.1078602271840949
1760892895.2547593,0.753173828125,-1.9902041475809675e-09,1.9864781199374067e-11,2.6257091930490795,-1.0168580526461913e-08,1.250792978286144e-10,6.592774252144496,1.1100643640705163e-05,0.000687582946361713,-4.27173301057612e-07,,,,,,,,,,,0.8,0.30321777725686644,0.9368023241733348,0.1006525269547976,-1.5978591624806,0.4921135298050639,2.4036831125598495,0.04145212936325428,0.028937329942478728,6.514097557076207,-0.007797507893142767,0.01077466422932506,-0.062320581023116606,,,,,,,,,,,,,,,,,auto,85.0,True,0,False,-10.0,15.0,0.0,-10.0,20.726371106890873,0.0637240091147533
1760892895.3637948,0.8622093200683594,-3.342570252673946e-09,3.794665269339355e-11,3.3843282022189047,-1.4783746922442445e-08,2.1447440032274702e-10,7.310219028759668,1.9567641127025626e-05,0.0008976704943766292,-7.412469884928935e-07,,,,,,,,,,,0.8,0.2290477214920651,0.9190189029534751,0.043947011810876305,-1.0946256859148795,0.462441351235183,3.258467079527056,-0.001895488631928878,0.006889400257578084,7.268691389946926,-0.0062069198869274915,0.015976296419864627,-0.03529414871957006,,,,,,,,,,,,,,,,,auto,85.0,True,0,False,-10.0,15.0,0.0,-10.0,20.85755923572905,0.03923575965388263
1760892895.4726174,0.971031904220581,-5.245995661291347e-09,6.887834043780019e-11,4.215534781125154,-2.0378051640823513e-08,3.6664624075391565e-10,7.9542508991044505,3.300177696224456e-05,0.001133597359279444,-1.2361389570819937e-06,,,,,,,,,,,0.8,0.20197077149740042,0.913369444369921,0.13972202694093008,-1.0950587414599813,0.46300358198361774,4.0984745059124394,-0.006795962328698158,0.0037120857184974347,7.917640198853167,-0.002937441181607059,0.01822034927046601,-0.09677933863041224,,,,,,,,,,,,,,,,,auto,85.0,True,0,False,-10.0,15.0,0.0,-10.0,21.40168852221338,0.09852334786218532
1760892895.5806699,1.0790843963623047,-7.810303650491362e-09,1.2094497501005023e-10,5.106421633736838,-2.72149602417259e-08,6.138922441877134e-10,8.524356649786348,5.3152563822229155e-05,0.0013941491195659178,-1.9928848138923444e-06,,,,,,,,,,,0.8,0.07305024618852235,0.9053974022246454,0.12516769822924567,-1.2506130875354904,0.20006554695860046,5.113327239691429,0.038519668028949045,0.03327555586732411,8.497030033336928,0.0015682956126026962,0.021292380327656377,-0.0739950949072578,,,,,,,,,,,,,,,,,auto,85.0,True,0,False,-10.0,15.0,0.0,-10.0,22.193132095264485,0.07701362919302118
1760892895.689773,1.188187599182129,-1.122507178695e-08,2.0787178887177508e-10,6.0602450709570075,-3.6353902511999723e-08,1.021252623276374e-09,9.031041191746775,7.018712803517712e-05,0.001682841800353849,-2.6430928007094353e-06,,,,,,,,,,,0.8,-0.761471999892914,0.9169747827111039,-0.1237331162321805,-0.3299549933879884,-1.357833723689056,6.139710352721529,0.03251945932065292,-0.04605166484946609,8.977597197496513,0.0029964594887125348,0.018716768202889134,0.06528607184046595,,,,,,,,,,,,,,,,,auto,85.0,True,0,False,-10.0,15.0,0.0,-10.0,22.301154292776754,0.06798211057172804
1760892895.795204,1.2936184406280518,-1.5668316309774553e-08,3.4093635470832956e-10,7.04047070418953,-4.762016035271185e-08,1.4739540449932661e-09,9.465487007579902,6.624023944626913e-05,0.001991563328448912,-2.5823111680052348e-06,,,,,,,,,,,0.8,-0.7016638869083452,0.9062445757990382,-0.058315296530344216,-0.32711416311361713,-1.362583853358824,7.0953734187871085,0.01964417990235364,-0.0435017789554179,9.415719527332348,0.00999636737315417,0.022789829000468585,0.0324860554323469,,,,,,,,,,,,,,,,,auto,85.0,True,0,False,-10.0,15.0,0.0,-10.0,23.00062728827901,0.040922456721012926
1760892895.9012787,1.399693250656128,-2.131490164617488e-08,5.139539103417641e-10,8.065165425935469,-5.887913480977667e-08,1.7519944610045187e-09,9.846077465554188,4.39483323795521e-05,0.0023272704413820726,-1.8834486146058473e-06,,,,,,,,,,,0.8,-0.527677453106462,0.9092116828732851,0.056922872009365105,-1.4361992284077911,-1.0712435230642299,7.735495419240577,0.0503908791449372,-0.038746821976633435,9.831196848194761,0.012632246276410325,0.02261480211567877,-0.03797640967085109,,,,,,,,,,,,,,,,,auto,85.0,True,0,False,-10.0,15.0,0.0,-10.0,24.204214623232943,0.04596967056883814
1760892896.0086706,1.5070850849151611,-2.827667437589708e-08,7.066126003311217e-10,9.135744741828184,-7.156353346319513e-08,1.8085460410243032e-09,10.179565162765469,6.794566445319161e-06,0.0026920972497465265,-6.313036876581966e-07,,,,,,,,,,,0.8,-0.4416361318855258,0.8937596281653005,0.09350904526819963,-0.1998254873652559,-0.9791784382942423,8.815858184505379,0.008752558505463052,-0.014367862887376485,10.134633428309712,0.0150192316929806,0.027922231184684076,-0.06159671519893941,,,,,,,,,,,,,,,,,auto,85.0,True,0,False,-10.0,15.0,0.0,-10.0,24.20805660270557,0.06927758395236969
1760892896.115188,1.6136023998260498,-3.6648326319105055e-08,8.899969903611939e-10,10.241108435965488,-8.484311385465957e-08,1.5645731070270133e-09,10.46843318109452,-4.513444017293076e-05,0.003083897728778678,1.1789275334013372e-06,,,,,,,,,,,0.8,-0.28577991468135044,0.8929087846622333,0.09806862436201552,-0.5229212400614475,-0.7487575268910794,10.361669397192058,0.03925940204830029,0.011827162312859319,10.418737234764178,0.014079152773881868,0.029615055408476632,-0.06369413499945971,,,,,,,,,,,,,,,,,auto,85.0,True,0,False,-10.0,15.0,0.0,-10.0,25.614825829971487,0.07163949248149964
1760892896.223231,1.7216455936431885,-4.66052073071496e-08,1.0297341293255816e-09,11.386054764437658,-9.981569800143809e-08,9.581789383053492e-10,10.719417108655646,-0.00010858231566144333,0.003505296185095043,3.4166015124997914e-06,,,,,,,,,,,0.8,-0.3753317239781054,0.8938770027949856,0.027776479894036428,0.5500429496219685,-1.0107283268228644,11.258010512565921,0.029042970484715932,0.055964410310145984,10.668009225575906,0.01366445486034574,0.0303945085707601,-0.02014575708749476,,,,,,,,,,,,,,,,,auto,85.0,True,0,False,-10.0,15.0,0.0,-10.0,25.72403237170983,0.03894091686795242
1760892896.33075,1.8291645050048828,-5.817113456029e-08,1.0839707574953161e-09,12.550403778507505,-1.1546323528975284e-07,-1.1814499917226837e-11,10.933542149104529,-0.00018214466981952019,0.003950103182556279,6.014743599338165e-06,,,,,,,,,,,0.8,-0.36522092430857467,0.8811345275144554,-0.2611400366504836,0.5519457860737542,-1.0039708711944106,12.269935679455745,0.005344284897646133,0.07026656668805333,10.885498921477344,0.015752857294912614,0.03532353882386096,0.15441852981376106,,,,,,,,,,,,,,,,,auto,85.0,True,0,False,-10.0,15.0,0.0,-10.0,26.56509482847473,0.15918852740646264
1760892896.4396389,1.9380533695220947,-7.163668544894734e-08,1.0095584900413223e-09,13.745681116132106,-1.335319696688251e-07,-1.4485544319862211e-09,11.117974298843041,-0.00026583040085343676,0.00442372508278832,8.965164726757725e-06,,,,,,,,,,,0.8,-0.3673695999466052,0.8824910915457768,0.19953520378393869,0.5510104977952504,-0.9955877368713094,13.426917253988266,-0.021875401455618435,0.08577199259238749,11.072506921846218,0.021667003810077922,0.035953830851614424,-0.11344794783434678,,,,,,,,,,,,,,,,,auto,85.0,True,0,False,-10.0,15.0,0.0,-10.0,27.542420819562043,0.1209651762898608
1760892896.5467458,2.0451602935791016,-8.729074028275962e-08,7.393458780662737e-10,14.950730493915348,-1.6044722189941771e-07,-3.860507822618852e-09,11.274010505488326,-0.0003661114648613765,0.00492085801120975,1.249660216866618e-05,,,,,,,,,,,0.8,-0.9635675478678618,0.8752360184080313,0.18524355679067395,-0.14227784021107637,-2.175098088973841,14.771939652488507,-0.05916446914718321,0.05414344743201364,11.30655532457811,0.024321971053738244,0.03921562457861444,-0.10634689979429077,,,,,,,,,,,,,,,,,auto,85.0,True,0,False,-10.0,15.0,0.0,-10.0,29.114749252455145,0.11592707441700852
1760892896.652791,2.151205539703369,-1.0589865595004244e-07,1.6580647042844627e-10,16.153414865233966,-1.9033235320943204e-07,-7.056369699564419e-09,11.404967132669967,-0.0004944318100579135,0.005439173698498659,1.6908298278720335e-05,,,,,,,,,,,0.8,-0.8893446792588271,0.8885763878597317,-0.07112826846301495,-0.15024272091717844,-2.168028650107035,16.042604740113095,-0.08995427515408135,0.0789913271777086,11.440382527570652,0.02715839096674032,0.03634613414758219,0.042442456658589596,,,,,,,,,,,,,,,,,auto,85.0,True,0,False,-10.0,15.0,0.0,-10.0,30.206745345703002,0.06212875175466363
1760892896.7601497,2.2585642337799072,-1.2796124386192468e-07,-7.982531305771701e-10,17.384053871005417,-2.2024546896561322e-07,-1.0988477338677631e-08,11.517696296039986,-0.0006518588996106492,0.005991439694169569,2.222970084814223e-05,,,,,,,,,,,0.8,-0.8151392429137474,0.8782166223531175,-0.14899808777324242,-0.16147788150918874,-2.1580721829547587,17.212624123628565,-0.11978393781978224,0.10545111669132323,11.554018800944872,0.023532796861593354,0.04009370399388393,0.09238736851731734,,,,,,,,,,,,,,,,,auto,85.0,True,0,False,-10.0,15.0,0.0,-10.0,31.225864260132607,0.10342496550462467
1760892896.8683157,2.366730213165283,-1.5337997363244114e-07,-2.23329243317189e-09,18.635227450501496,-2.5023723985557764e-07,-1.5737655933436513e-08,11.613955793645163,-0.0008347267913094366,0.006574094883399866,2.8318278187280312e-05,,,,,,,,,,,0.8,-0.7532954777936318,0.8625398790197225,-0.06294972265275467,-0.17634278283071486,-2.145654405855389,18.455115765524095,-0.15523961980397738,0.12415841246446285,11.651912316604209,0.016411707736735733,0.04589424524483326,0.04459758589711722,,,,,,,,,,,,,,,,,auto,85.0,True,0,False,-10.0,15.0,0.0,-10.0,32.32056352108859,0.06606489661900396
1760892896.9756553,2.474069833755493,-1.8165844220087618e-07,-4.186837593521929e-09,19.886324639104362,-2.745782091631833e-07,-2.049901860449346e-08,11.694802416926517,-0.0010372880942572152,0.007179023076913549,3.5063033953292434e-05,,,,,,,,,,,0.8,-0.20103919304000245,0.8745313883196326,-0.0794767033714945,0.371470807799081,-0.9689135617868813,19.62288846764847,-0.13512781972259957,0.0889295430319861,11.681062370025234,0.015115553507132094,0.04353399707100532,0.05054123521820554,,,,,,,,,,,,,,,,,auto,85.0,True,0,False,-10.0,15.0,0.0,-10.0,33.05220387484063,0.06839667620716122
1760892897.0837972,2.58221173286438,-2.1236374459631946e-07,-6.656564543557672e-09,21.148916309269953,-2.959717786877424e-07,-2.5485502526996266e-08,11.76336597057925,-0.001246392312935244,0.007810290267295711,4.204275457764251e-05,,,,,,,,,,,0.8,-0.13258521826044836,0.8657017720230711,-0.04167388505682405,0.20821142169025292,-0.6540155306979173,21.008593363791032,-0.13044025859645142,0.06391158981417046,11.734228350470678,0.017648377762549433,0.04710951791190335,0.031620226480894825,,,,,,,,,,,,,,,,,auto,85.0,True,0,False,-10.0,15.0,0.0,-10.0,34.362153716854735,0.05941894174625356
1760892897.1927922,2.691206693649292,-2.460671623319025e-07,-9.765274588916329e-09,22.44031190527913,-3.1960997958374596e-07,-3.136960125206218e-08,11.822198256882478,-0.0014575422629236673,0.008477491637788189,4.907788979816535e-05,,,,,,,,,,,0.8,0.007701142830936314,0.8579205339009067,-0.15578997022046068,1.1898801723614683,-0.19995640015425709,22.25948149516655,-0.054139727239024306,0.03353363408268768,11.780556413202023,0.01704557629269509,0.050535533013317126,0.10239820258922089,,,,,,,,,,,,,,,,,auto,85.0,True,0,False,-10.0,15.0,0.0,-10.0,35.09178733767619,0.11545468228527277
1760892897.3026118,2.8010263442993164,-2.825524336895288e-07,-1.3567913671219788e-08,23.74142604695314,-3.4560577682777545e-07,-3.8077119034269635e-08,11.871837594324079,-0.0016663282214174078,0.00917173072483317,5.602023960690623e-05,,,,,,,,,,,0.8,0.21722578243681834,0.8792021951309039,-0.029135210910204414,0.4666361739371104,0.2429474597758645,23.589910780960814,-0.09770264928740488,0.05676508898230099,11.875591941488988,0.014447485281338492,0.045315586393046746,0.021878499581458283,,,,,,,,,,,,,,,,,auto,85.0,True,0,False,-10.0,15.0,0.0,-10.0,36.59999718363148,0.05235361444099199
1760892897.4125533,2.9109678268432617,-3.217129472751149e-07,-1.811190344954619e-08,25.037017931386476,-3.733254906507513e-07,-4.5384944960678724e-08,11.913249586534779,-0.0018698844750124322,0.009885317486977751,6.278442221480804e-05,,,,,,,,,,,0.8,-0.17199735374959063,0.8563079013122128,-0.17522061183319212,0.901779254400045,-0.4053695119101941,24.84336220982602,-0.09782708044415483,0.04274651780502432,11.941281119328046,0.014105147381324555,0.052485042242643186,0.09725835512204822,,,,,,,,,,,,,,,,,auto,85.0,True,0,False,-10.0,15.0,0.0,-10.0,37.58968000286758,0.11141284702810252
1760892897.5208302,3.01924467086792,-3.6394517889543935e-07,-2.347867600745142e-08,26.334849669200914,-4.033829706167323e-07,-5.336778550712114e-08,11.948035323469835,-0.002076458710760926,0.010622749610176351,6.967119294224484e-05,,,,,,,,,,,0.8,-0.14977592689094607,0.8814886531889707,0.020498809027983733,0.8889935637658846,-0.39986985747113135,26.031151857756456,-0.13649173640055198,0.05822067576508026,11.976901837038184,0.015602156365559408,0.04592817731134184,-0.01619641793266529,,,,,,,,,,,,,,,,,auto,85.0,True,0,False,-10.0,15.0,0.0,-10.0,38.69785914935167,0.05113852469759939
1760892897.6302948,3.128709316253662,-4.0991922152126396e-07,-2.9801762533341457e-08,27.644328537539423,-4.3713434722246525e-07,-6.229707259328418e-08,11.977454642599437,-0.0022896929667044867,0.011390430894867581,7.680764010686271e-05,,,,,,,,,,,0.8,-0.21480299180179188,0.901276067828405,-0.04560383888769516,1.5705282526248752,-0.49817291594133234,27.475026162497585,-0.05612127667009008,0.02223772057711012,11.942301067433982,0.012568273699514616,0.04026832776723839,0.025705222183887044,,,,,,,,,,,,,,,,,auto,85.0,True,0,False,-10.0,15.0,0.0,-10.0,39.811763004765346,0.04939896934631989
1760892897.7379217,3.2363362312316895,-4.591250419424016e-07,-3.705052454341105e-08,28.9409035228666,-4.7234843495281153e-07,-7.16810616652999e-08,12.001882850196528,-0.0025070706717047423,0.012174599118912667,8.411679255625116e-05,,,,,,,,,,,0.8,-0.16518309470674028,0.8784465768507873,-0.07254921418864806,-0.020930072918256194,-0.45097471464045125,28.7271247195373,-0.06031943276447926,0.04258867424158026,11.99619424936477,0.013892968892152552,0.04703070461722419,0.04170266201121576,,,,,,,,,,,,,,,,,auto,85.0,True,0,False,-10.0,15.0,0.0,-10.0,41.540605526296105,0.06437401479053957
1760892897.8466442,3.3450586795806885,-5.124162276112983e-07,-4.536677411269138e-08,30.246932648730052,-5.083992863738491e-07,-8.141423390023756e-08,12.022531322073897,-0.0027297173760859215,0.012988215788577123,9.161766953018744e-05,,,,,,,,,,,0.8,-0.14848142023502378,0.891926675236584,0.10143831171639846,-0.02950214017797915,-0.44543167585895765,29.973351905870278,-0.096462754425868,0.05967071555226239,12.017691090948906,0.014704048117739047,0.04382173556781157,-0.0540889800310794,,,,,,,,,,,,,,,,,auto,85.0,True,0,False,-10.0,15.0,0.0,-10.0,42.70776517859505,0.07114893744833083
1760892897.954443,3.452857494354248,-5.692628748874947e-07,-5.469350519698532e-08,31.543901665161304,-5.473882182599252e-07,-9.188152265165633e-08,12.039742325110781,-0.0029548958663405513,0.013820134224758286,9.922823881783811e-05,,,,,,,,,,,0.8,0.323691860604735,0.902624250718834,-0.02338492831005115,0.2956527495882116,0.457614673543694,31.512975618766095,-0.1500248553008426,0.06768345316257761,12.047220675632724,0.015164596432655905,0.04108183428887259,0.017782876657624326,,,,,,,,,,,,,,,,,auto,85.0,True,0,False,-10.0,15.0,0.0,-10.0,44.042642790532035,0.04726428668375297
1760892898.063137,3.561551570892334,-6.311202939743436e-07,-6.530621710728856e-08,32.85336610384954,-5.915240783325801e-07,-1.0355963151866958e-07,12.054328362043785,-0.003177741318004029,0.014684678004196625,0.00010675534184444659,,,,,,,,,,,0.8,0.300887678115304,0.9201332580751483,-0.0731836791016805,0.27787263631040865,0.4661462165994048,32.54741278743102,-0.1775705706726436,0.08915439717130805,12.06331105015802,0.013868957028689422,0.03603230502485033,0.034320981993699526,,,,,,,,,,,,,,,,,auto,85.0,True,0,False,-10.0,15.0,0.0,-10.0,45.02488935368966,0.0516585402375961
1760892898.1692457,3.6676602363586426,-6.962882377896068e-07,-7.692576798842834e-08,34.13308850607313,-6.361524433453781e-07,-1.1531116281551885e-07,12.066309328039173,-0.003393091263793149,0.01555419731899441,0.00011403424964786541,,,,,,,,,,,0.8,-0.20640910024553055,0.8999769107981859,-0.06287146225689588,-0.49754900429187093,-0.48073769622811524,34.07060614876154,-0.1221993256206665,0.04836150331067163,12.012918410170892,0.007582077286812181,0.041684734565547624,0.026221543288761216,,,,,,,,,,,,,,,,,auto,85.0,True,0,False,-10.0,15.0,0.0,-10.0,46.718555844463566,0.04982644201854807
1760892898.2784061,3.776820659637451,-7.681486136592585e-07,-9.015361395981728e-08,35.450834316893186,-6.807420460878791e-07,-1.271073416214449e-07,12.07667603122509,-0.0036204341003165143,0.016474648785641543,0.00012174844446637808,,,,,,,,,,,0.8,-0.1557362635290924,0.8966920936891877,-0.023327913262258415,-0.5124682313347009,-0.47496715808772944,35.2601678314145,-0.15035115798187507,0.05663696656977646,12.022258057515511,0.0015888774817439527,0.04337847393360987,0.0071419357687325415,,,,,,,,,,,,,,,,,auto,85.0,True,0,False,-10.0,15.0,0.0,-10.0,47.84710081663504,0.04399117842233333
1760892898.3869545,3.885369062423706,-8.444210504089484e-07,-1.0458075839280999e-07,36.762221425303366,-7.244875411604775e-07,-1.3868822916375205e-07,12.085327274000512,-0.0038500392990722834,0.017415457735538792,0.00012955325023357618,,,,,,,,,,,0.8,-0.1321297865764281,0.8790200557306931,-0.05326854806996123,-0.5304865374768657,-0.4686175916146041,36.6289416009662,-0.18308962987540864,0.060051161417219695,12.031529550032612,-0.0009205570611953475,0.04956648301336972,0.033008652983497026,,,,,,,,,,,,,,,,,auto,85.0,True,0,False,-10.0,15.0,0.0,-10.0,49.14950467058887,0.05955883507425672
1760892898.4943218,3.992736339569092,-9.246350954573689e-07,-1.201079689673332e-07,38.06018725446113,-7.699001218568508e-07,-1.5058201148253202e-07,12.092517884019948,-0.004080107810985743,0.018370733286180718,0.00013738554277385466,,,,,,,,,,,0.8,-0.1219086727446885,0.8807454981981067,-0.06312110299118086,-0.5518243225238524,-0.4620408129977051,37.8068888049931,-0.21470003878602031,0.06153146693559441,12.040400819551135,-0.0015213201606811312,0.05019518943018105,0.04404212054532067,,,,,,,,,,,,,,,,,auto,85.0,True,0,False,-10.0,15.0,0.0,-10.0,50.274957371284714,0.06679505849306228
1760892898.6003041,4.098718643188477,-1.00826677890927e-06,-1.3662094110981474e-07,39.33593878743865,-8.164361764505764e-07,-1.6263821396203277e-07,12.098467613059867,-0.004305618457653763,0.019333109921185216,0.0001450543221516687,,,,,,,,,,,0.8,0.07727996786368152,0.8928147041577257,-0.021178051568709264,0.09883766422424192,-0.016206777787132736,39.1528873149285,-0.21984824858617563,0.04370688568122615,12.016127850144493,-0.0022084441130719064,0.047583731611809885,0.020629054685530487,,,,,,,,,,,,,,,,,auto,85.0,True,0,False,-10.0,15.0,0.0,-10.0,51.36196290068018,0.051909985905641755
1760892898.7066462,4.205060720443726,-1.0982033295786353e-06,-1.5468782286586525e-07,40.62896116435145,-8.687472830944712e-07,-1.7591236408748052e-07,12.103546471085195,-0.004534206795665571,0.02033263606111641,0.0001528280480260185,,,,,,,,,,,0.8,-0.1949056837525867,0.9054710895548879,0.028513263822022912,0.31653990614862976,-0.4769855007147653,40.35660732148823,-0.16998496972214416,0.0053711272620022244,12.015756520637334,-0.0036463356186802573,0.04433197143027094,-0.015128989082706545,,,,,,,,,,,,,,,,,auto,85.0,True,0,False,-10.0,15.0,0.0,-10.0,52.455880665814576,0.04698410119394718
1760892898.8156376,4.314052104949951,-1.1958780194370184e-06,-1.7461215379658695e-07,41.94838760729506,-9.238283127677914e-07,-1.8973717236409543e-07,12.107899189839928,-0.004772460373727092,0.02137822626016945,0.00016095671955308874,,,,,,,,,,,0.8,0.037562251157297034,0.9099754738279274,0.026534282870330703,0.7098152108762811,-0.12179332090023115,41.71321953826924,-0.14772312877221097,0.0334306860287448,12.064322622847083,-0.007206175614754207,0.043143854205867575,-0.010104790737970347,,,,,,,,,,,,,,,,,auto,85.0,True,0,False,-10.0,15.0,0.0,-10.0,53.651479848495796,0.044893517556391226
1760892898.9236894,4.4221038818359375,-1.2983152223327343e-06,-1.9578216227307009e-07,43.25073857871718,-9.819659967207318e-07,-2.041115402574814e-07,12.111505205672117,-0.005005989469641446,0.022435779920443804,0.00016891365490142175,,,,,,,,,,,0.8,0.037803753642549405,0.9194438200527091,0.054439716724099654,0.6927438220495599,-0.1184962163716607,43.30843488909665,-0.168377755119244,0.025167535451355253,12.067794746850216,-0.013666775244656228,0.04049843936021741,-0.015801841439837025,,,,,,,,,,,,,,,,,auto,85.0,True,0,False,-10.0,15.0,0.0,-10.0,55.195116188118064,0.04556975454279851
1760892899.0315897,4.530004262924194,-1.4079418165306888e-06,-2.1868729232332725e-07,44.563875328106654,-1.0403120676600496e-06,-2.1838715588848204e-07,12.114558615970706,-0.005239883871769471,0.023527932407393738,0.00017687331142494697,,,,,,,,,,,0.8,0.033857748979342066,0.906265118889311,-0.1817764527030169,0.673433813809037,-0.11612291248792674,44.72271245989739,-0.1890709321123092,0.01831138355986588,12.07237143902095,-0.01666378021807618,0.04460273689894542,0.10743785942034513,,,,,,,,,,,,,,,,,auto,85.0,True,0,False,-10.0,15.0,0.0,-10.0,56.56712156532913,0.11751586848957352
1760892899.1401625,4.638576984405518,-1.5242728500703265e-06,-2.4321306465291413e-07,45.879329319907335,-1.101657673727298e-06,-2.3315870584907363e-07,12.1171251062434,-0.005476619233915917,0.02464794379295091,0.00018494357840666286,,,,,,,,,,,0.8,0.09105699043721135,0.9071251253760733,-0.027772058873353454,-0.05008764774366289,0.06013372145228062,45.94457194395849,-0.00510776836029196,-0.01002595776488628,12.077966433960679,-0.012525145004986303,0.04512489348873201,0.01801276998442588,,,,,,,,,,,,,,,,,auto,85.0,True,0,False,-10.0,15.0,0.0,-10.0,57.93361618492298,0.050175643018073784
1760892899.2476516,4.746066093444824,-1.6459660423044245e-06,-2.6905602967449053e-07,47.18190630739517,-1.1631012037484931e-06,-2.477630016349691e-07,12.119259038975839,-0.005712037214608422,0.025782377747822046,0.00019297597497729317,,,,,,,,,,,0.8,0.02086893800546665,0.9168071795284364,-0.06931223918016374,0.28085175412055785,0.01227353566870794,47.06702327346369,0.0036960094380055772,-0.045980271098925156,12.077780649422186,-0.01402967686589038,0.04286818583108807,0.03213442530676758,,,,,,,,,,,,,,,,,auto,85.0,True,0,False,-10.0,15.0,0.0,-10.0,58.9346979377845,0.05538171610925599
1760892899.3555555,4.853970050811768,-1.7752014452900861e-06,-2.9666260014200197e-07,48.489722242191526,-1.2328105984949391e-06,-2.640106254043451e-07,12.121058842431987,-0.005950607827520905,0.026947006709808,0.00020111649223513364,,,,,,,,,,,0.8,-0.24819338934560944,0.8983450488443733,0.12604279002243846,-0.3889698980096471,-0.560726473491767,48.323983916369656,-0.009367662604842656,-0.048243952182498946,12.073974340735635,-0.017193762910764163,0.048922425740854474,-0.07503310148025027,,,,,,,,,,,,,,,,,auto,85.0,True,0,False,-10.0,15.0,0.0,-10.0,60.3226483882867,0.0912085277874088
1760892899.4656408,4.964055299758911,-1.9140965857436206e-06,-3.2647210920430425e-07,49.81795969841569,-1.3025349642600167e-06,-2.8009677697505073e-07,12.122592106922626,-0.006201713378474987,0.0281564094598649,0.00020971968097741555,,,,,,,,,,,0.8,0.23065284826888688,0.9137978278762698,0.016875902630159853,-0.12729781891752204,0.3188443527028109,50.024298739405786,-0.04045382174253527,-0.03180794041643251,12.136110569613225,-0.015238840946677374,0.04534172339497266,-0.015893209296239552,,,,,,,,,,,,,,,,,auto,85.0,True,0,False,-10.0,15.0,0.0,-10.0,61.901964752186245,0.05040524035810579
1760892899.5714407,5.069855213165283,-2.0563340502715005e-06,-3.5710867759437225e-07,51.10679679045388,-1.3722437257325716e-06,-2.959858298330833e-07,12.12384144742766,-0.006441253662362541,0.029355760008015815,0.00021790149545626827,,,,,,,,,,,0.8,0.1072922720524398,0.9232354991372119,0.13365060571511145,0.07927190702666498,0.10433157542642851,50.89096485439468,-0.028280283088510952,-0.005236740300152743,12.095849134353509,-0.012728997462448039,0.042935322717430835,-0.07338545876369951,,,,,,,,,,,,,,,,,auto,85.0,True,0,False,-10.0,15.0,0.0,-10.0,62.69249247558437,0.08597031389501601
1760892899.6785016,5.176916122436523,-2.2069341643907726e-06,-3.8962828897213544e-07,52.404844600349094,-1.4412322698363613e-06,-3.114988217410004e-07,12.124900408579332,-0.006679229143771572,0.030589107872990007,0.000226012361467005,,,,,,,,,,,0.8,0.1743279444911618,0.9192755044719869,0.03483416822667253,0.2793171315434594,0.263947727450249,52.25650177608192,-0.10064746087686322,-0.01544022171210309,12.071942339217951,-0.015073690776205366,0.04450959846072374,-0.02616995132234784,,,,,,,,,,,,,,,,,auto,85.0,True,0,False,-10.0,15.0,0.0,-10.0,63.97374606752201,0.053788352465618194
1760892899.7866635,5.285078048706055,-2.3676446348212814e-06,-4.243868594640725e-07,53.71634719142989,-1.5323022472432701e-06,-3.3156918051455583e-07,12.125798853303182,-0.006912290929796146,0.03186139266280006,0.00023394693145392212,,,,,,,,,,,0.8,0.5646964953522462,0.8834147660358016,-0.015675285254700466,-0.02609003220666561,1.1284548833619124,53.62199911492522,-0.0918392551940781,-0.021805552645392686,12.047285900120608,-0.014735659491084243,0.055763198135439014,-2.2549640821725725e-05,,,,,,,,,,,,,,,,,auto,85.0,True,0,False,-10.0,15.0,0.0,-10.0,65.38207371641946,0.0576773303423079
1760892899.8936062,5.3920207023620605,-2.5363270141576063e-06,-4.608902035461512e-07,55.013153366794086,-1.6208931883668096e-06,-3.5071759172501574e-07,12.126545442583145,-0.007125733790320076,0.03314556355714054,0.00024119458207408172,,,,,,,,,,,0.8,0.5021556275090682,0.8727475685087439,-0.12520158355729438,-0.037225103349021474,1.1257757308685927,54.86100012061082,-0.11659815688945575,-0.0279264564347728,12.048878942641387,-0.011731046852566287,0.060587752492221536,0.0676609148013061,,,,,,,,,,,,,,,,,auto,85.0,True,0,False,-10.0,15.0,0.0,-10.0,66.59080151530598,0.09157779536582765
1760892900.0023286,5.50074315071106,-2.7172417439574085e-06,-5.000120827940458e-07,56.33161676071424,-1.7081502842053353e-06,-3.690762894844705e-07,12.127183157191164,-0.007325858922470189,0.03447770651148939,0.00024794549601101184,,,,,,,,,,,0.8,0.551937834327567,0.8720732152385775,0.0007507684998896403,-0.035640845331118484,1.2558458832332542,56.24154854043662,-0.10707823218961773,-0.03449133469571857,12.074889265760358,-0.016024807203462745,0.062497694805526256,0.0025754978412486917,,,,,,,,,,,,,,,,,auto,85.0,True,0,False,-10.0,15.0,0.0,-10.0,67.93813654750359,0.0645708098992349
1760892900.1102157,5.608630180358887,-2.9052213598091433e-06,-5.40576576716833e-07,57.633902337332394,-1.7922185688800587e-06,-3.861744113252125e-07,12.127712130759939,-0.00750766199321413,0.0358195497483193,0.00025403591839665067,,,,,,,,,,,0.8,0.4488047745728404,0.8788214860524779,-0.06995343541730202,-0.6179852191373157,1.050997083866883,57.141848607720895,-0.11347244972996441,-0.0228154009278306,12.103454835709444,-0.017896947837948683,0.06171315965910407,0.04129456548762622,,,,,,,,,,,,,,,,,auto,85.0,True,0,False,-10.0,15.0,0.0,-10.0,68.94239545909035,0.07638099211083983
1760892900.215516,5.713930606842041,-3.099061751650192e-06,-5.822642180493502e-07,58.917089150887264,-1.8688543066163466e-06,-4.010985368921112e-07,12.128150998552702,-0.007674614985551495,0.03716659494377063,0.0002595979038442149,,,,,,,,,,,0.8,0.04883248938763818,0.8814521093346148,0.0076884005610366145,-1.1217886005207505,0.27319680528787693,58.82890980859632,-0.11268792973334117,-0.020351747932584593,12.131588774518587,-0.017925544432872198,0.06177906748170958,-0.009727622677583495,,,,,,,,,,,,,,,,,auto,85.0,True,0,False,-10.0,15.0,0.0,-10.0,70.69233006213749,0.06505847343030682
1760892900.322621,5.821035623550415,-3.302868234732649e-06,-6.258986368562875e-07,60.216095589183695,-1.9396679021947143e-06,-4.1416578695498324e-07,12.128525235992406,-0.00783919244436087,0.03855487544637675,0.0002650634868994038,,,,,,,,,,,0.8,0.40929030682618595,0.8771750672518785,-0.08363465455779803,-0.340272601992794,0.9209857211090523,60.231146047135674,-0.028379085219733608,-0.03471591303639024,12.106600601010777,-0.018911836260348057,0.06380149944438046,0.048126964829942394,,,,,,,,,,,,,,,,,auto,85.0,True,0,False,-10.0,15.0,0.0,-10.0,71.89287901660384,0.08212486606279494
1760892900.4328842,5.931298732757568,-3.520619839076741e-06,-6.722395712358236e-07,61.547326785111565,-2.028746211259288e-06,-4.302470718425291e-07,12.128846746078356,-0.007998224983447636,0.04000377199584384,0.00027030310315662414,,,,,,,,,,,0.8,0.38502181079667047,0.9058609863646133,0.012531304787013049,-0.3444994357096503,0.9164613433032435,61.715204245161345,-0.0475829773506075,-0.04723277970004276,12.108632632194109,-0.019710254889763155,0.05588498677021683,-0.009358426935995985,,,,,,,,,,,,,,,,,auto,85.0,True,0,False,-10.0,15.0,0.0,-10.0,73.34414826181752,0.05999338337552833
1760892900.5392737,6.037688255310059,-3.7419185007371074e-06,-7.189962502081256e-07,62.843839490831535,-2.1115984921140046e-06,-4.4442385868679207e-07,12.129109663920964,-0.008145105668394579,0.041440754796845405,0.0002751079025068642,,,,,,,,,,,0.8,-0.1671400882756846,0.8983751800288299,0.151002140182976,-0.8591894208194836,-0.2913683092702281,62.75569191703557,-0.09388430040900274,-0.0012343848413484502,12.11201459132427,-0.020564826753579693,0.058297588422996705,-0.09252182571430381,,,,,,,,,,,,,,,,,auto,85.0,True,0,False,-10.0,15.0,0.0,-10.0,74.46468620026323,0.11127357794575439
1760892900.6460516,6.144466161727905,-3.971615406778975e-06,-7.671391989942596e-07,64.1389725701899,-2.195013218393144e-06,-4.580451303680098e-07,12.129330652843494,-0.0082931502638076,0.04290156787828326,0.00027996217404357033,,,,,,,,,,,0.8,0.34606304017391654,0.9301697608656756,0.12588318008460084,-0.2687074517462224,0.5329761425699604,64.01211484685625,-0.07326789494490693,0.055633108865973224,12.103319222569995,-0.021602339960886584,0.049194078239261016,-0.07779294125926309,,,,,,,,,,,,,,,,,auto,85.0,True,0,False,-10.0,15.0,0.0,-10.0,75.57255212654789,0.09454342988998976
1760892900.754614,6.253028631210327,-4.215119724378364e-06,-8.17704612183315e-07,65.45577319494055,-2.2891651920430157e-06,-4.730368468362913e-07,12.129519282581263,-0.008436040651886464,0.044413296616390256,0.00028460646530866705,,,,,,,,,,,0.8,0.2147515203028738,0.9277256640153394,0.08709652440217613,0.18471929018981484,0.31697289935961853,65.29532906726345,-0.07985594435789976,0.03135658887116933,12.065364593874493,-0.025691486745876204,0.04955722469626824,-0.05446286961978085,,,,,,,,,,,,,,,,,auto,85.0,True,0,False,-10.0,15.0,0.0,-10.0,76.73968721383278,0.0779883015460088
1760892900.8625317,6.360946178436279,-4.465981968407581e-06,-8.692743998779114e-07,66.75850885583898,-2.392869449085759e-06,-4.891428124482674e-07,12.12967579591431,-0.008570639685971658,0.04593521300968918,0.0002889379332755112,,,,,,,,,,,0.8,0.7026334841865447,0.9156618137670337,0.018588711760019513,-0.33334318112435335,1.3195160741735308,66.60665765778295,-0.051218892724494744,-0.007250195669743569,12.098578395224537,-0.027470936197880984,0.05324074018085241,-0.013637443368038848,,,,,,,,,,,,,,,,,auto,85.0,True,0,False,-10.0,15.0,0.0,-10.0,78.13726724986542,0.06144272627585422
1760892900.9683049,6.466719388961792,-4.727836216123643e-06,-9.224640198805349e-07,68.04777173961376,-2.5272047373334437e-06,-5.102324652496743e-07,12.12980549168993,-0.008687515222442046,0.04746847721116957,0.00029264913061633456,,,,,,,,,,,0.8,0.48113932547083443,0.9104612369544223,0.055071735324595465,-1.0586739888130858,1.0442410919566951,67.8733032899766,-0.07535532308868059,-0.035372970027699846,12.092554709028331,-0.028312858104507517,0.05515100678209035,-0.03962773816268741,,,,,,,,,,,,,,,,,auto,85.0,True,0,False,-10.0,15.0,0.0,-10.0,79.51869475179905,0.073577232314179
1760892901.0770013,6.575415849685669,-5.008186597005184e-06,-9.78721922043869e-07,69.36624493806585,-2.631479954317046e-06,-5.248082929343664e-07,12.129917616857323,-0.008792269926489068,0.0490627730188351,0.0002959527097317331,,,,,,,,,,,0.8,0.44353485135010406,0.908674405632877,0.058621197914692086,-1.3426499309323365,1.0630904069829876,69.22685074776443,-0.03344797286349751,-0.06854882477742456,12.123179939915138,-0.027496673943963167,0.055983318746324305,-0.04644215813862902,,,,,,,,,,,,,,,,,auto,85.0,True,0,False,-10.0,15.0,0.0,-10.0,80.90183092728472,0.07776292888264044
1760892901.1855562,6.68397068977356,-5.299745711534892e-06,-1.0364863466184429e-06,70.68301144978064,-2.7407174441327005e-06,-5.39378993031355e-07,12.130011490457226,-0.00888352272627371,0.050681824780982265,0.00029876544718373437,,,,,,,,,,,0.8,0.4809949802691853,0.9127306396628295,0.011217507016030429,-1.5024560320446811,1.236003874103299,70.20104281698225,-0.008113418864080173,-0.10770784309225634,12.089550734427961,-0.025438133607700437,0.055032450845686275,-0.01770017759481303,,,,,,,,,,,,,,,,,auto,85.0,True,0,False,-10.0,15.0,0.0,-10.0,81.89057350878541,0.06315825816481971
1760892901.2924411,6.790855646133423,-5.5975092347204706e-06,-1.0947025538574459e-06,71.97953148673325,-2.8297642181864264e-06,-5.49603364000969e-07,12.130089513820833,-0.008966012679351923,0.05230181242718363,0.00030127806370749613,,,,,,,,,,,0.8,-0.08748875885263717,0.9174933245597465,-0.03810864650020561,-0.7873113040362336,-0.04560783267594264,71.5970601655465,-0.010263739912369346,-0.06746891460574517,12.140471677978592,-0.03052919150323601,0.05363603032647222,0.009717775553481106,,,,,,,,,,,,,,,,,auto,85.0,True,0,False,-10.0,15.0,0.0,-10.0,83.11029723171953,0.06247631907155975
1760892901.4029255,6.901340007781982,-5.915090488181846e-06,-1.155885190259768e-06,73.30751022789423,-2.964218507977616e-06,-5.666494985252381e-07,12.130155880593765,-0.009061613078860048,0.05398895054613756,0.00030427051249334874,,,,,,,,,,,0.8,-0.4299731372151209,0.9189971456864213,-0.028116844198961273,-0.3135087196781008,-0.8454490385926465,73.47981173136918,-0.05022636419826139,-0.09022147038770228,12.147352911569307,-0.03226077548059796,0.05297138401629566,0.0007807206403941253,,,,,,,,,,,,,,,,,auto,85.0,True,0,False,-10.0,15.0,0.0,-10.0,84.8769538808348,0.062026886782505466
1760892901.5084112,7.006825685501099,-6.2365037417564e-06,-1.216872804420542e-06,74.5992811871228,-3.0720825839551692e-06,-5.786254277435586e-07,12.130210495565738,-0.009169186097950303,0.05565703295811076,0.00030772886827211567,,,,,,,,,,,0.8,-0.40829968497771507,0.9144221602992119,-0.006729561543387157,-0.3189365014323827,-0.8563450218492278,74.50657580920284,-0.052294379364620655,-0.11371699137796179,12.14747085644257,-0.030532153104393056,0.05447683844894123,-0.008344487309879245,,,,,,,,,,,,,,,,,auto,85.0,True,0,False,-10.0,15.0,0.0,-10.0,85.88809287280695,0.06300451387834745
1760892901.6162932,7.114707708358765,-6.573725356411103e-06,-1.2799081666686165e-06,75.90791541863462,-3.1902403556701643e-06,-5.916224663736573e-07,12.130256896364186,-0.00928967770923158,0.05737343659696335,0.0003116673421880112,,,,,,,,,,,0.8,-0.5629347963120783,0.9234528887004742,0.05985351444585184,0.4699100255016129,-1.2765816883609715,75.62008440561958,-0.03494355623971224,-0.09558208598077744,12.10391352160892,-0.03341553832250126,0.05160245745045014,-0.04271020471925616,,,,,,,,,,,,,,,,,auto,85.0,True,0,False,-10.0,15.0,0.0,-10.0,86.85362415639025,0.07485701973408265
1760892901.7244315,7.222846031188965,-6.926035004381917e-06,-1.3447161344172606e-06,77.2196632142843,-3.3243329275867996e-06,-6.066987090814994e-07,12.130295727768361,-0.009426398903170189,0.059121369161731496,0.0003161888839132322,,,,,,,,,,,0.8,-0.5598924722459317,0.8954906292684596,0.029430891141121587,0.46642592554340795,-1.2881529449538667,76.86676699976331,-0.030726918097242973,-0.1181961092891272,12.103376693570334,-0.02974970740718216,0.059822500953366956,-0.020926305553160725,,,,,,,,,,,,,,,,,auto,85.0,True,0,False,-10.0,15.0,0.0,-10.0,88.08359281034396,0.07001204878613955
1760892901.8317285,7.330142974853516,-7.288829671497165e-06,-1.4104332320799857e-06,78.52120867580896,-3.426639349673235e-06,-6.163933458572052e-07,12.130328605709092,-0.0095769142758459,0.06088183082669323,0.00032119018423839077,,,,,,,,,,,0.8,-0.14612516802813577,0.89242428228951,-0.15543989431201916,-0.17949672656272592,-0.5348015206508965,78.46708784370574,-0.023082062500822325,-0.1025919606762692,12.14074873209684,-0.029819850074922702,0.06151512163888394,0.08585382485704879,,,,,,,,,,,,,,,,,auto,85.0,True,0,False,-10.0,15.0,0.0,-10.0,89.76151048798236,0.1097461292771748
1760892901.9381952,7.436609745025635,-7.657947419673448e-06,-1.4763846698933243e-06,79.81268710555014,-3.5092627265834525e-06,-6.227924970612885e-07,12.130356378304057,-0.009731709663531287,0.06265341961300525,0.0003263580613101159,,,,,,,,,,,0.8,-0.19720594340094502,0.873286340038934,0.17921438608308138,-0.18210167393643378,-0.5466105269293836,79.68370541559317,-0.026063579553622245,-0.11805670415304002,12.141496891770108,-0.02628559343117317,0.06772859707844978,-0.10741528723031515,,,,,,,,,,,,,,,,,auto,85.0,True,0,False,-10.0,15.0,0.0,-10.0,90.96132151291992,0.12967705739649954
1760892902.0469124,7.5453269481658936,-8.044415762563523e-06,-1.5444968977048793e-06,81.13146685458737,-3.606744720561098e-06,-6.311891336888435e-07,12.130380068849263,-0.009898254455489648,0.06448779002848053,0.0003319634445508154,,,,,,,,,,,0.8,-0.4047493708107903,0.8803634663676957,-0.23322240464407845,-0.5971532416825654,-0.9988839209846159,81.37462796174088,-0.09523657513421717,-0.10040101115252639,12.182560907895553,-0.028008243017230462,0.06653759804044188,0.1274026038816967,,,,,,,,,,,,,,,,,auto,85.0,True,0,False,-10.0,15.0,0.0,-10.0,92.70162670351955,0.1464347537497167
1760892902.154148,7.652562618255615,-8.434769560562508e-06,-1.6123817297700249e-06,82.43227739816648,-3.6150133988269966e-06,-6.259437254586568e-07,12.13040105081459,-0.010073216728278852,0.06631858746818618,0.00033786952352149555,,,,,,,,,,,0.8,0.08211456345237132,-0.24201831522441036,-0.004661905085650519,-1.1973507974338393,-1.322274238550403,82.18978252088496,-0.09300172944587791,-0.08449101849906829,12.154574965967468,-0.02495223296656531,0.07287070387288523,0.006001816170065941,,,,,,,,,,,,,,,,,manual,85.0,True,0,False,-10.0,15.0,0.0,-10.0,93.61120970944202,0.0772578488587842
1760892902.269194,7.767608404159546,-8.84431411517072e-06,-1.6830300345796743e-06,83.82783013972515,-3.5049393377286414e-06,-6.023229693441623e-07,12.130421646898032,-0.010261358952134245,0.06827992295641792,0.0003442382034906078,,,,,,,,,,,0.8,0.08969142641238503,-0.23579521041691684,-0.0013514641061627437,-0.22208762478595578,-1.2443478756812445,83.17042205781205,-0.045612198959220515,-0.03321342474122812,12.179525784648854,-0.02862700432707386,0.07567682368172622,0.009792674587393194,,,,,,,,,,,,,,,,,manual,85.0,True,0,False,-10.0,15.0,0.0,-10.0,94.41391793439782,0.08150081898282961
1760892902.3764143,7.874828815460205,-9.215192896377183e-06,-1.7465300822844284e-06,85.12845982338814,-3.4144958509611567e-06,-5.824020636047701e-07,12.130437711321022,-0.010434572087659497,0.07010136322073413,0.0003501514991395121,,,,,,,,,,,0.8,0.08689949341913408,-0.21796976261082338,-0.02138392732357847,-0.22730032387768,-1.2490031671314221,85.06578663458025,-0.05054690586918008,-0.05341084748573477,12.179583002108432,-0.02987583393469714,0.07568783109942848,0.024035951485743598,,,,,,,,,,,,,,,,,manual,85.0,True,0,False,-10.0,15.0,0.0,-10.0,96.28569194078945,0.08484656854377927
1760892902.4836073,7.982021808624268,-9.576916809309029e-06,-1.8079869517292624e-06,86.4287584949103,-3.3361684262899126e-06,-5.645413429165861e-07,12.130451224206501,-0.010605277068605078,0.07191636700423308,0.0003560874140158227,,,,,,,,,,,0.8,0.10696326722687892,-0.2026979975465149,-0.005433083408427332,-0.2329542801626731,-1.2559973776130635,86.30921763185253,-0.054902658726461925,-0.0778028375171068,12.182200844494533,-0.037393690502703594,0.07439007691253993,0.008084217769360816,,,,,,,,,,,,,,,,,manual,85.0,True,0,False,-10.0,15.0,0.0,-10.0,97.51454161494905,0.08365121762059438
1760892902.5909052,8.089319705963135,-9.931050786269696e-06,-1.86766851383078e-06,87.7303310348399,-3.266647105599473e-06,-5.482193188892183e-07,12.13046263418381,-0.010773226211853662,0.07372763841963707,0.0003620638568922341,,,,,,,,,,,0.8,0.09976392102124113,-0.18028833222889465,-0.16654938838334105,1.126308486033319,-0.5114092054457438,87.55378735498549,-0.05959150856364066,-0.04319076786003999,12.073278371738985,-0.03675808689371113,0.06929966626542512,0.10200588140824329,,,,,,,,,,,,,,,,,manual,85.0,True,0,False,-10.0,15.0,0.0,-10.0,98.53670525698458,0.1286810030208714
1760892902.6978967,8.196311235427856,-1.0277438787031625e-05,-1.925550045887084e-06,89.02818831040325,-3.2101469849946875e-06,-5.340553378084744e-07,12.130472176708935,-0.010938468975696065,0.07552895525568568,0.00036795965489495213,,,,,,,,,,,0.8,0.10480169274997322,-0.19662806680073622,-0.1379672220131388,0.6384196297795333,-0.8416108521161116,88.99187917687885,-0.01578229113504032,-0.07596592783077497,12.115416038016136,-0.03900685052678347,0.07476247066321975,0.09377982070523341,,,,,,,,,,,,,,,,,manual,85.0,True,0,False,-10.0,15.0,0.0,-10.0,100.03177216527997,0.1261174697620966
1760892902.805385,8.303799629211426,-1.0619771411188768e-05,-1.982247972446387e-06,90.33207372776899,-3.162627110645029e-06,-5.213888138845536e-07,12.13048024510009,-0.01110196524048548,0.07733334329190816,0.00037386413297867257,,,,,,,,,,,0.8,0.08666662266853928,-0.19918279433497915,0.24711694865983702,0.6367448406154133,-0.8513436400632569,90.16618773761564,-0.015130649247106616,-0.10469064745440165,12.116374054799847,-0.03442948713465146,0.07648507580307137,-0.12815411925448433,,,,,,,,,,,,,,,,,manual,85.0,True,0,False,-10.0,15.0,0.0,-10.0,101.19433309555592,0.15316277186982905
1760892902.913758,8.412172555923462,-1.0958739259603539e-05,-2.0378694456936916e-06,91.6404687762461,-3.1236775108526147e-06,-5.101490866104781e-07,12.130487053894814,-0.011263251694344788,0.07913829419660842,0.0003798327139638985,,,,,,,,,,,0.8,0.09325569800477744,-0.20165751787381228,-0.10891510520662441,-0.3831610387767016,-0.2250610444276987,91.25727898737216,-0.031361453931689445,-0.021618132041965277,12.120420627168002,-0.03639990185272816,0.07791028400355883,0.07139136339854452,,,,,,,,,,,,,,,,,manual,85.0,True,0,False,-10.0,15.0,0.0,-10.0,102.41937728743119,0.11176623808783437
1760892903.020767,8.519181489944458,-1.1291400076864865e-05,-2.0919382201789742e-06,92.93840653784387,-3.0963814441584715e-06,-5.008139264724637e-07,12.130492694799369,-0.011420801859645592,0.08092309452115296,0.0003857985159735952,,,,,,,,,,,0.8,0.08511506603524212,-0.21289243294950874,0.03645079053156644,0.41355208207033506,-0.08643919487823898,93.05960782128948,0.019936627984034724,-0.04333326800597735,12.13860742840945,-0.03360095754456395,0.08175510355726084,-0.02220099201984496,,,,,,,,,,,,,,,,,manual,85.0,True,0,False,-10.0,15.0,0.0,-10.0,104.08676524359318,0.09113619123177824
1760892903.1272972,8.625711679458618,-1.1621485838520994e-05,-2.1450702578965975e-06,94.23702450835464,-3.072256124612166e-06,-4.92108227735657e-07,12.130497491398335,-0.011575989537933767,0.08270303219450888,0.00039184074820438415,,,,,,,,,,,0.8,0.07152500327845633,-0.20139890549618011,0.19544850156260532,0.24310527277288643,0.043560877987445734,94.36741975038069,0.03082521562994483,-0.006915691024586022,12.117913262530017,-0.02930499493039044,0.07865377942025387,-0.11218970911994067,,,,,,,,,,,,,,,,,manual,85.0,True,0,False,-10.0,15.0,0.0,-10.0,105.40553185147688,0.14011327766267212
1760892903.232787,8.731201410293579,-1.1944641403458559e-05,-2.196582426712609e-06,95.51666763939002,-3.059403097552802e-06,-4.852311960999505e-07,12.130501424494492,-0.011726713957062967,0.0844514692886287,0.00039784066145756407,,,,,,,,,,,0.8,0.08529188044707516,-0.19219900599810566,0.3272214533015584,0.0840614511716073,0.7758166028699748,95.4229994587411,0.019382752874761187,-0.04183687352681775,12.141592519562707,-0.0330939316632707,0.07603783371425121,-0.19368201310913719,,,,,,,,,,,,,,,,,manual,85.0,True,0,False,-10.0,15.0,0.0,-10.0,106.47579973435954,0.21068859169612705
1760892903.3404005,8.838814973831177,-1.2273323110847417e-05,-2.2484511901845726e-06,96.8220743137003,-3.0500711422945044e-06,-4.789041802970511e-07,12.13050483070104,-0.011877805284991964,0.08622960492522133,0.0004040340819003413,,,,,,,,,,,0.8,0.096503907496355,-0.19126102345005674,0.0159977173922281,0.5143027074700638,0.6410880694200364,96.98634858621227,0.034220049269362396,-0.05352574095761829,12.134658535684723,-0.036615356022305166,0.07547767136811263,-0.013605746704132934,,,,,,,,,,,,,,,,,manual,85.0,True,0,False,-10.0,15.0,0.0,-10.0,107.96446268922976,0.08498634899305883
1760892903.449977,8.948391437530518,-1.2605710624265814e-05,-2.300374139123954e-06,98.1450279283968,-3.0472172444484846e-06,-4.735578808313304e-07,12.130507721346206,-0.012028469056302966,0.08802620874130943,0.0004103085032282002,,,,,,,,,,,0.8,0.08454988160473233,-0.19767410046380515,-0.13069336419173977,0.20724108038851727,-0.05548669584074922,97.97178584642012,0.019696276290465796,-0.06921662877527397,12.146212490909285,-0.03328711686380634,0.07725011890415283,0.07093759046903124,,,,,,,,,,,,,,,,,manual,85.0,True,0,False,-10.0,15.0,0.0,-10.0,108.98043555653632,0.1100352432694291
1760892903.5566382,9.055052757263184,-1.293224393778965e-05,-2.350866091391638e-06,99.44514839596637,-3.048557405625325e-06,-4.6901124703191854e-07,12.130510119134145,-0.01217409797212803,0.08978618868507253,0.00041649419405101213,,,,,,,,,,,0.8,0.11570027872721145,-0.2806791404464417,-0.032252866411790246,0.5887680125212388,0.45714960180521763,99.40296684679903,0.036663119396382136,-0.10318257011264229,12.131530015700392,-0.0330525007076736,0.08018258547248727,0.01842810330921623,,,,,,,,,,,,,,,,,stabilize,85.0,True,0,False,-10.0,15.0,0.0,-10.0,110.34899976002124,0.08866402769815185
1760892903.664999,9.163413524627686,-1.3263871705077744e-05,-2.4016099388051203e-06,100.75961988407074,-3.0709950731629993e-06,-4.674083864656623e-07,12.130511987646651,-0.012318555614811348,0.0915587165998142,0.0004227935250404275,,,,,,,,,,,0.8,0.09110348538370727,-0.25314195055923716,0.1731350822618194,-0.13977474842519094,0.113585023897793,100.74919474209285,0.0752881998486122,-0.10062327159428482,12.144772101304351,-0.02956664181759446,0.08148826979933627,-0.10077300714022663,,,,,,,,,,,,,,,,,stabilize,85.0,True,0,False,-10.0,15.0,0.0,-10.0,111.77929064461232,0.13292751179249354
1760892903.7724113,9.270825862884521,-1.359480760029181e-05,-2.451718179217009e-06,102.06258662979499,-3.09139142336523e-06,-4.6567124161366554e-07,12.130513598190094,-0.012458625155360614,0.0933085580931523,0.00042913608116402444,,,,,,,,,,,0.8,0.09276180846517476,-0.24025806923252482,-0.11152886763858003,-0.13102967062125467,0.10187410555491035,101.87979747513539,0.08705534161408011,-0.1174372957902352,12.147323188759033,-0.03203221032674027,0.08323944285139569,0.06176591107371686,,,,,,,,,,,,,,,,,stabilize,85.0,True,0,False,-10.0,15.0,0.0,-10.0,112.89839467549534,0.10848914745445092
1760892903.8802235,9.37863802909851,-1.3927656394716188e-05,-2.501601883595483e-06,103.36404962230687,-3.118897106757338e-06,-4.6498295607215456e-07,12.130514912272229,-0.012596443448283916,0.09504982998755446,0.0004354601328575213,,,,,,,,,,,0.8,0.07780402789205866,-0.2410612894794814,0.28132225626001983,-0.12106749279968684,0.08826475535396465,103.35649306130144,0.09720684912347155,-0.13591894482827618,12.147314899313555,-0.028856243595944308,0.08721211358646724,-0.15746834519589145,,,,,,,,,,,,,,,,,stabilize,85.0,True,0,False,-10.0,15.0,0.0,-10.0,114.36060944200028,0.1823044576784116
1760892903.987251,9.485665559768677,-1.4264234188630559e-05,-2.551532265777768e-06,104.66870277724776,-3.139020539009768e-06,-4.6339197436420853e-07,12.130516125790518,-0.012732479721620256,0.09678867069710664,0.00044182616236192765,,,,,,,,,,,0.8,0.06986558153201217,-0.23872002977860082,0.050202177447133095,0.329128703382113,-1.6991949541520484,104.60923188978462,0.05934836578076113,-0.10652471625152797,12.125211005497393,-0.02696354412041694,0.08907625796451026,-0.027232040972099848,,,,,,,,,,,,,,,,,stabilize,85.0,True,0,False,-10.0,15.0,0.0,-10.0,115.55690270364884,0.0969700804372141
1760892904.0944035,9.592818021774292,-1.4602024249457538e-05,-2.6011526250093027e-06,105.96851749945309,-3.1643096311960126e-06,-4.6258456805744525e-07,12.130517124231334,-0.01286639026288473,0.09851450330928553,0.0004481543075282268,,,,,,,,,,,0.8,0.06113114265381596,-0.24418926870889934,0.03502789077956136,0.48496798974848776,-1.0890565162751742,105.91907242540577,0.025079827017945686,-0.030823382658570042,12.041722638129855,-0.02460984764475267,0.09228299314590113,-0.0159228598296189,,,,,,,,,,,,,,,,,stabilize,85.0,True,0,False,-10.0,15.0,0.0,-10.0,116.82937794202594,0.09682630267761992
1760892904.202587,9.701001405715942,-1.4945876810041153e-05,-2.6511751306865294e-06,107.28083793794093,-3.1933534491624594e-06,-4.6230730574158675e-07,12.130517965680042,-0.012999904561422393,0.1002500652860016,0.0004545689727277786,,,,,,,,,,,0.8,0.056380853157063315,-0.25328567223459364,0.1335975030007705,0.48792609183213065,-1.0929136324782462,107.14644824893819,0.02997495645486246,-0.04007107565446915,12.043034445762874,-0.022734863398753927,0.09629606908160665,-0.07657010977550784,,,,,,,,,,,,,,,,,stabilize,85.0,True,0,False,-10.0,15.0,0.0,-10.0,118.04696136142317,0.1251111052039861
1760892904.3120258,9.810440301895142,-1.5297537010689558e-05,-2.7018324974425783e-06,108.60838847011738,-3.23193618314904e-06,-4.6329796695177747e-07,12.130518619525818,-0.013133574660326594,0.10199846460839854,0.0004610572017713687,,,,,,,,,,,0.8,0.05038046110511957,-0.26683767178224466,-0.08072006171984125,0.8260337583568519,-1.429091281239595,108.63773191796902,0.012028853986074362,-0.06615090033226058,12.08644084674035,-0.020914311061735923,0.10161094688581496,0.05023371221580285,,,,,,,,,,,,,,,,,stabilize,85.0,True,0,False,-10.0,15.0,0.0,-10.0,119.48997889174322,0.11526325857444365
1760892904.4205866,9.91900110244751,-1.5648819089048686e-05,-2.7519494374106483e-06,109.91915308247253,-3.269559479933036e-06,-4.642775881513222e-07,12.130519184193657,-0.013264064521167084,0.10371718159307809,0.00046748910985514887,,,,,,,,,,,0.8,0.04974107583287567,-0.2766246132395483,0.033034982346725,1.1694727495331587,-2.4277428521232123,109.61996077664874,0.052875513436464676,-0.05841850317206639,12.100238615178226,-0.02023681983616384,0.10560083002073724,-0.018790511563589574,,,,,,,,,,,,,,,,,stabilize,85.0,True,0,False,-10.0,15.0,0.0,-10.0,120.44132362104347,0.10915194685836524
1760892904.530293,10.028707504272461,-1.6009795583560944e-05,-2.8029651212948997e-06,111.24989955416946,-3.3119409689907354e-06,-4.6586850728733074e-07,12.13051964533424,-0.013394768422120526,0.10545405718825725,0.00047408530171034525,,,,,,,,,,,0.8,0.05024027780014159,-0.28599181939544155,0.010895020029678402,0.8011364703686831,-2.7575678031638176,111.2523858057311,0.025560316485991875,-0.033232993613681476,12.136390659501362,-0.02011665071390317,0.10946782894241851,-0.011696527095985398,,,,,,,,,,,,,,,,,stabilize,85.0,True,0,False,-10.0,15.0,0.0,-10.0,122.11205087665999,0.11191377911329285
1760892904.6356208,10.134035348892212,-1.6362652922698116e-05,-2.8523760983784716e-06,112.53376446003477,-3.3575510857585127e-06,-4.6805449579814656e-07,12.130519991078419,-0.01351909955097889,0.10712171017648776,0.00048050904432530916,,,,,,,,,,,0.8,0.04500930349254466,-0.31405049232119187,0.013168058928851627,0.8035460885558344,-2.761528259716762,112.18455773048052,0.01832611070258914,-0.04028744991933573,12.13592729983041,-0.01845763899706288,0.11873118180797523,-0.012719880544899032,,,,,,,,,,,,,,,,,stabilize,85.0,True,0,False,-10.0,15.0,0.0,-10.0,123.03752065846459,0.12082869415805529
1760892904.744592,10.243006467819214,-1.6729826952575842e-05,-2.9033253911090687e-06,113.84940824483134,-3.414465544562835e-06,-4.716264108829228e-07,12.13052021075944,-0.013645070308412688,0.10882187946333317,0.00048713002816236383,,,,,,,,,,,0.8,0.046074736366845566,-0.3250560647957531,-0.1018151216481912,0.9025261010482251,-1.153107449867716,113.80367660676912,0.0637677827186315,-0.043994128594477204,12.128515167030963,-0.01837581050910397,0.12345502546943475,0.04811466865591672,,,,,,,,,,,,,,,,,stabilize,85.0,True,0,False,-10.0,15.0,0.0,-10.0,124.6090637492957,0.1337678401761572
1760892904.8515038,10.349918365478516,-1.7098253754044088e-05,-2.95398554405906e-06,115.14630518704757,-3.477312980554189e-06,-4.7602916542880963e-07,12.130520339368204,-0.013768318557304907,0.11048897213552451,0.0004936382600685644,,,,,,,,,,,0.8,0.05824300502942319,-0.32883057811582056,0.23259218485408029,0.4072104855322114,-0.9239142005639897,114.95303233574094,0.06449469314669162,-0.07641625735712004,12.148464421805388,-0.021976377223458216,0.12567691132477588,-0.1320018185977856,,,,,,,,,,,,,,,,,stabilize,85.0,True,0,False,-10.0,15.0,0.0,-10.0,125.80565731778633,0.18358139151102978
1760892904.9581301,10.456544637680054,-1.7473823724329056e-05,-3.0051793565223404e-06,116.44596992462938,-3.5364597095483033e-06,-4.799865935736329e-07,12.130520480351795,-0.013890353081334345,0.11215070231205686,0.0005001838830147495,,,,,,,,,,,0.8,0.05726609770875024,-0.31640396733882353,0.22325012558756302,0.4133719095709846,-0.9324987546428054,116.19558867611256,0.05167802555850953,-0.0837946025969965,12.14769270537052,-0.02167532269474065,0.12272555140232771,-0.12924721753919016,,,,,,,,,,,,,,,,,stabilize,85.0,True,0,False,-10.0,15.0,0.0,-10.0,127.03922966661318,0.17954448981394353
1760892905.0654075,10.563822031021118,-1.7856274498407352e-05,-3.056871310221491e-06,117.74730054926033,-3.5986230412048966e-06,-4.843388358530399e-07,12.130520576259881,-0.01401064357663758,0.11380567778793725,0.0005067892731008853,,,,,,,,,,,0.8,0.06985567422016713,-0.327177462790673,-0.18806624562534863,0.41815049207368915,-0.9420340130761763,117.54034449513824,0.038688697543375464,-0.09447069663570193,12.147505981087487,-0.025794744080997196,0.12619669311327197,0.10969950281023376,,,,,,,,,,,,,,,,,stabilize,85.0,True,0,False,-10.0,15.0,0.0,-10.0,128.37467521708533,0.16918911044077858
1760892905.1717777,10.670192241668701,-1.8242364690300398e-05,-3.1086242049263926e-06,119.03762658249578,-3.6603729148100345e-06,-4.886891706411117e-07,12.130520657522045,-0.014128265312733708,0.1154377547824442,0.0005133386269673129,,,,,,,,,,,0.8,0.07959725042000093,-0.3307825385838801,0.15219532260572227,-0.3892794222892127,-0.8657890894842347,118.9056016237077,0.02813828305880233,0.018701994616177057,12.075627758815779,-0.029225848167093404,0.12774291813074215,-0.08903613760634149,,,,,,,,,,,,,,,,,stabilize,85.0,True,0,False,-10.0,15.0,0.0,-10.0,129.82385621238802,0.15842928117459495
1760892905.2774441,10.775858640670776,-1.8632425651119105e-05,-3.1604962209976798e-06,120.31941502173017,-3.7258332168666458e-06,-4.935290836883558e-07,12.130520691024337,-0.014242511438877958,0.11705005630560171,0.0005199328593701453,,,,,,,,,,,0.8,0.07766592618099079,-0.3346761662181799,-0.08265790302701614,0.35587280223901474,-0.2648293776360284,120.13402095030283,0.027727391162471086,-0.021975675145237492,12.100128858152143,-0.029032209426257706,0.12897075907731603,0.04451026384743506,,,,,,,,,,,,,,,,,stabilize,85.0,True,0,False,-10.0,15.0,0.0,-10.0,130.95565663489808,0.13949010527244385
