timestamp,simulation_time,position_x,position_y,position_z,velocity_x,velocity_y,velocity_z,attitude_roll,attitude_pitch,attitude_yaw,control_throttle,control_roll,control_pitch,control_yaw,estimated_position_x,estimated_position_y,estimated_position_z,flight_mode,battery_level,setpoint_altitude,setpoint_position_x,setpoint_position_y,setpoint_position_z,position_error,attitude_error,waypoint_index,mission_complete
1761250754.5240812,0.10572504997253418,0.0,0.0,-0.0,0.0,0.0,-0.0,0.0,0.0,0.0,0.0,0.0,0.0,0.0,0.0,0.0,-0.0,manual,85.0,0.0,0.0,0.0,0.0,0.0,0.0,0,0
1761250754.62844,0.2100837230682373,0.0,0.0,-0.0,0.0,0.0,-0.0,0.0,0.0,0.0,0.0,0.0,0.0,0.0,0.0,0.0,-0.0,manual,85.0,0.0,0.0,0.0,0.0,0.0,0.0,0,0
1761250754.736171,0.31781482696533203,0.0,0.0,-0.0,0.0,0.0,-0.0,0.0,0.0,0.0,0.0,0.0,0.0,0.0,0.0,0.0,-0.0,manual,85.0,0.0,0.0,0.0,0.0,0.0,0.0,0,0
1761250754.8402598,0.4219036102294922,0.0,0.0,-0.0,0.0,0.0,-0.0,0.0,0.0,0.0,0.0,0.0,0.0,0.0,0.0,0.0,-0.0,manual,85.0,0.0,0.0,0.0,0.0,0.0,0.0,0,0
1761250754.9446297,0.5262734889984131,0.0,0.0,-0.0,0.0,0.0,-0.0,0.0,0.0,0.0,0.0,0.0,0.0,0.0,0.0,0.0,-0.0,manual,85.0,0.0,0.0,0.0,0.0,0.0,0.0,0,0
1761250755.0476573,0.6293010711669922,0.0,0.0,-0.0,0.0,0.0,-0.0,0.0,0.0,0.0,0.0,0.0,0.0,0.0,0.0,0.0,-0.0,manual,85.0,0.0,0.0,0.0,0.0,0.0,0.0,0,0
1761250755.1562908,0.7379345893859863,0.0,0.0,-0.0,0.0,0.0,-0.0,0.0,0.0,0.0,0.0,0.0,0.0,0.0,0.0,0.0,-0.0,manual,85.0,0.0,0.0,0.0,0.0,0.0,0.0,0,0
1761250755.2586286,0.8402724266052246,0.0,0.0,-0.0,0.0,0.0,-0.0,0.0,0.0,0.0,0.0,0.0,0.0,0.0,0.0,0.0,-0.0,manual,85.0,0.0,0.0,0.0,0.0,0.0,0.0,0,0
1761250755.3628328,0.9444766044616699,0.0,0.0,-0.0,0.0,0.0,-0.0,0.0,0.0,0.0,0.0,0.0,0.0,0.0,0.0,0.0,-0.0,manual,85.0,0.0,0.0,0.0,0.0,0.0,0.0,0,0
1761250755.4680681,1.0497119426727295,0.0,0.0,-0.0,0.0,0.0,-0.0,0.0,0.0,0.0,0.0,0.0,0.0,0.0,0.0,0.0,-0.0,manual,85.0,0.0,0.0,0.0,0.0,0.0,0.0,0,0
1761250755.5716062,1.153249979019165,0.0,0.0,-0.0,0.0,0.0,-0.0,0.0,0.0,0.0,0.0,0.0,0.0,0.0,0.0,0.0,-0.0,manual,85.0,0.0,0.0,0.0,0.0,0.0,0.0,0,0
1761250755.6773655,1.2590093612670898,0.0,0.0,-0.0,0.0,0.0,-0.0,0.0,0.0,0.0,0.0,0.0,0.0,0.0,0.0,0.0,-0.0,manual,85.0,0.0,0.0,0.0,0.0,0.0,0.0,0,0
1761250755.7817123,1.363356113433838,0.0,0.0,-0.0,0.0,0.0,-0.0,0.0,0.0,0.0,0.0,0.0,0.0,0.0,0.0,0.0,-0.0,manual,85.0,0.0,0.0,0.0,0.0,0.0,0.0,0,0
1761250755.886311,1.4679548740386963,0.0,0.0,-0.0,0.0,0.0,-0.0,0.0,0.0,0.0,0.0,0.0,0.0,0.0,0.0,0.0,-0.0,manual,85.0,0.0,0.0,0.0,0.0,0.0,0.0,0,0
1761250755.9894347,1.5710785388946533,0.0,0.0,-0.0,0.0,0.0,-0.0,0.0,0.0,0.0,0.0,0.0,0.0,0.0,0.0,0.0,-0.0,manual,85.0,0.0,0.0,0.0,0.0,0.0,0.0,0,0
1761250756.0915256,1.6731693744659424,0.0,0.0,-0.0,0.0,0.0,-0.0,0.0,0.0,0.0,0.0,0.0,0.0,0.0,0.0,0.0,-0.0,manual,85.0,0.0,0.0,0.0,0.0,0.0,0.0,0,0
1761250756.197211,1.7788548469543457,0.0,0.0,-0.0,0.0,0.0,-0.0,0.0,0.0,0.0,0.0,0.0,0.0,0.0,0.0,0.0,-0.0,manual,85.0,0.0,0.0,0.0,0.0,0.0,0.0,0,0
1761250756.3018126,1.8834564685821533,0.0,0.0,-0.0,0.0,0.0,-0.0,0.0,0.0,0.0,0.0,0.0,0.0,0.0,0.0,0.0,-0.0,manual,85.0,0.0,0.0,0.0,0.0,0.0,0.0,0,0
1761250756.4047205,1.9863643646240234,0.0,0.0,-0.0,0.0,0.0,-0.0,0.0,0.0,0.0,0.0,0.0,0.0,0.0,0.0,0.0,-0.0,manual,85.0,0.0,0.0,0.0,0.0,0.0,0.0,0,0
1761250756.508689,2.0903327465057373,0.0,0.0,-0.0,0.0,0.0,-0.0,0.0,0.0,0.0,0.0,0.0,0.0,0.0,0.0,0.0,-0.0,manual,85.0,0.0,0.0,0.0,0.0,0.0,0.0,0,0
1761250756.612467,2.194110870361328,0.0,0.0,-0.0,0.0,0.0,-0.0,0.0,0.0,0.0,0.0,0.0,0.0,0.0,0.0,0.0,-0.0,manual,85.0,0.0,0.0,0.0,0.0,0.0,0.0,0,0
1761250756.7150202,2.296663999557495,0.0,0.0,-0.0,0.0,0.0,-0.0,0.0,0.0,0.0,0.0,0.0,0.0,0.0,0.0,0.0,-0.0,manual,85.0,0.0,0.0,0.0,0.0,0.0,0.0,0,0
1761250756.8187103,2.4003541469573975,0.0,0.0,-0.0,0.0,0.0,-0.0,0.0,0.0,0.0,0.0,0.0,0.0,0.0,0.0,0.0,-0.0,manual,85.0,0.0,0.0,0.0,0.0,0.0,0.0,0,0
1761250756.9228582,2.504502058029175,0.0,0.0,0.0031363892461649476,0.0,0.0,0.3073857590813232,0.0,0.0,0.0,1.0,0.0,0.0,0.0,0.0,0.0,0.0031363892461649476,stabilize,85.0,2.0,0.0,0.0,-2.0,1.9968636107538351,0.0,0,0
1761250757.0279438,2.6095876693725586,0.0,0.0,0.10946699150308921,0.0,0.0,1.3380447892418081,0.0,0.0,0.0,0.35,0.0,0.0,0.0,0.0,0.0,0.10946699150308921,stabilize,85.0,2.0,0.0,0.0,-2.0,1.8905330084969107,0.0,0,0
1761250757.1325645,2.7142083644866943,0.0,0.0,0.2506805547337193,0.0,0.0,1.3593862733130484,0.0,0.0,0.0,0.5264726759952432,0.0,0.0,0.0,0.0,0.0,0.2506805547337193,stabilize,85.0,2.0,0.0,0.0,-2.0,1.7493194452662806,0.0,0,0
1761250757.2385762,2.8202199935913086,0.0,0.0,0.3931877423358236,0.0,0.0,1.3209887182588866,0.0,0.0,0.0,0.3916543814385207,0.0,0.0,0.0,0.0,0.0,0.3931877423358236,stabilize,85.0,2.0,0.0,0.0,-2.0,1.6068122576641763,0.0,0,0
1761250757.3432987,2.9249424934387207,0.0,0.0,0.5313253971339573,0.0,0.0,1.2936869869848133,0.0,0.0,0.0,0.35,0.0,0.0,0.0,0.0,0.0,0.5313253971339573,stabilize,85.0,2.0,0.0,0.0,-2.0,1.4686746028660427,0.0,0,0
1761250757.4476666,3.029310464859009,0.0,0.0,0.6636329595859222,0.0,0.0,1.2654141999157447,0.0,0.0,0.0,0.5856922376215363,0.0,0.0,0.0,0.0,0.0,0.6636329595859222,stabilize,85.0,2.0,0.0,0.0,-2.0,1.336367040414078,0.0,0,0
1761250757.5514526,3.13309645652771,0.0,0.0,0.7893933034442938,0.0,0.0,1.1634378695101313,0.0,0.0,0.0,0.35,0.0,0.0,0.0,0.0,0.0,0.7893933034442938,stabilize,85.0,2.0,0.0,0.0,-2.0,1.2106066965557063,0.0,0,0
1761250757.6550155,3.236659288406372,0.0,0.0,0.9086201225716384,0.0,0.0,1.1235709542001875,0.0,0.0,0.0,0.35,0.0,0.0,0.0,0.0,0.0,0.9086201225716384,stabilize,85.0,2.0,0.0,0.0,-2.0,1.0913798774283616,0.0,0,0
1761250757.7599757,3.3416194915771484,0.0,0.0,1.021655234663532,0.0,0.0,1.0340749275992553,0.0,0.0,0.0,0.35,0.0,0.0,0.0,0.0,0.0,1.021655234663532,stabilize,85.0,2.0,0.0,0.0,-2.0,0.9783447653364681,0.0,0,0
1761250757.864516,3.446159839630127,0.0,0.0,1.125933955519895,0.0,0.0,0.9559144928743278,0.0,0.0,0.0,0.35,0.0,0.0,0.0,0.0,0.0,1.125933955519895,stabilize,85.0,2.0,0.0,0.0,-2.0,0.8740660444801049,0.0,0,0
1761250757.9688406,3.5504844188690186,0.0,0.0,1.2222273930848566,0.0,0.0,0.8890762244574721,0.0,0.0,0.0,0.35,0.0,0.0,0.0,0.0,0.0,1.2222273930848566,stabilize,85.0,2.0,0.0,0.0,-2.0,0.7777726069151434,0.0,0,0
1761250758.0744152,3.6560590267181396,0.0,0.0,1.311960129736837,0.0,0.0,0.7992316578704535,0.0,0.0,0.0,0.35,0.0,0.0,0.0,0.0,0.0,1.311960129736837,stabilize,85.0,2.0,0.0,0.0,-2.0,0.6880398702631629,0.0,0,0
1761250758.1786504,3.760294198989868,0.0,0.0,1.3938076247741624,0.0,0.0,0.7509033175962238,0.0,0.0,0.0,0.46842904663099816,0.0,0.0,0.0,0.0,0.0,1.3938076247741624,stabilize,85.0,2.0,0.0,0.0,-2.0,0.6061923752258376,0.0,0,0
1761250758.2824402,3.864084005355835,0.0,0.0,1.4675888499262117,0.0,0.0,0.6697435490724067,0.0,0.0,0.0,0.35,0.0,0.0,0.0,0.0,0.0,1.4675888499262117,stabilize,85.0,2.0,0.0,0.0,-2.0,0.5324111500737883,0.0,0,0
1761250758.3887308,3.970374584197998,0.0,0.0,1.5358607589124356,0.0,0.0,0.6270432818250421,0.0,0.0,0.0,0.35,0.0,0.0,0.0,0.0,0.0,1.5358607589124356,stabilize,85.0,2.0,0.0,0.0,-2.0,0.46413924108756444,0.0,0,0
1761250758.4916523,4.073296070098877,0.0,0.0,1.5973108378488274,0.0,0.0,0.5547765928720044,0.0,0.0,0.0,0.40676090136347504,0.0,0.0,0.0,0.0,0.0,1.5973108378488274,stabilize,85.0,2.0,0.0,0.0,-2.0,0.40268916215117256,0.0,0,0
1761250758.596101,4.1777448654174805,0.0,0.0,1.6530345902484955,0.0,0.0,0.5075308763776412,0.0,0.0,0.0,0.35,0.0,0.0,0.0,0.0,0.0,1.6530345902484955,stabilize,85.0,2.0,0.0,0.0,-2.0,0.34696540975150447,0.0,0,0
1761250758.7004113,4.282055139541626,0.0,0.0,1.7033027145926058,0.0,0.0,0.47768331470640024,0.0,0.0,0.0,0.5746140095658886,0.0,0.0,0.0,0.0,0.0,1.7033027145926058,stabilize,85.0,2.0,0.0,0.0,-2.0,0.29669728540739415,0.0,0,0
1761250758.8063695,4.3880133628845215,0.0,0.0,1.7490927889505348,0.0,0.0,0.4059946354015841,0.0,0.0,0.0,0.43076991456058467,0.0,0.0,0.0,0.0,0.0,1.7490927889505348,stabilize,85.0,2.0,0.0,0.0,-2.0,0.25090721104946523,0.0,0,0
1761250758.910715,4.492358922958374,0.0,0.0,1.789851831081364,0.0,0.0,0.3701539624741824,0.0,0.0,0.0,0.477280214454176,0.0,0.0,0.0,0.0,0.0,1.789851831081364,stabilize,85.0,2.0,0.0,0.0,-2.0,0.21014816891863597,0.0,0,0
1761250759.0175302,4.5991740226745605,0.0,0.0,1.8267960950925863,0.0,0.0,0.30777852368362313,0.0,0.0,0.0,0.3541101437544837,0.0,0.0,0.0,0.0,0.0,1.8267960950925863,stabilize,85.0,2.0,0.0,0.0,-2.0,0.17320390490741366,0.0,0,0
1761250759.1228101,4.704453945159912,0.0,0.0,1.8600293549074685,0.0,0.0,0.2809481060604556,0.0,0.0,0.0,0.35,0.0,0.0,0.0,0.0,0.0,1.8600293549074685,stabilize,85.0,2.0,0.0,0.0,-2.0,0.13997064509253154,0.0,0,0
1761250759.2290208,4.810664653778076,0.0,0.0,1.8897681030175917,0.0,0.0,0.2651279156418813,0.0,0.0,0.0,0.35,0.0,0.0,0.0,0.0,0.0,1.8897681030175917,stabilize,85.0,2.0,0.0,0.0,-2.0,0.11023189698240832,0.0,0,0
1761250759.3350098,4.916653633117676,0.0,0.0,1.9158704315062955,0.0,0.0,0.2256660076521429,0.0,0.0,0.0,0.4222397655534789,0.0,0.0,0.0,0.0,0.0,1.9158704315062955,stabilize,85.0,2.0,0.0,0.0,-2.0,0.08412956849370445,0.0,0,0
1761250759.4396646,5.021308422088623,0.0,0.0,1.938530848598289,0.0,0.0,0.21319351365064731,0.0,0.0,0.0,0.5263531122177396,0.0,0.0,0.0,0.0,0.0,1.938530848598289,stabilize,85.0,2.0,0.0,0.0,-2.0,0.06146915140171094,0.0,0,0
1761250759.5446374,5.126281261444092,0.0,0.0,1.9587406001541814,0.0,0.0,0.17496726782848565,0.0,0.0,0.0,0.4334355592061079,0.0,0.0,0.0,0.0,0.0,1.9587406001541814,stabilize,85.0,2.0,0.0,0.0,-2.0,0.04125939984581861,0.0,0,0
1761250759.654272,5.235915899276733,0.0,0.0,1.9771502385062933,0.0,0.0,0.1967013803444749,0.0,0.0,0.0,0.6702850354823924,0.0,0.0,0.0,0.0,0.0,1.9771502385062933,stabilize,85.0,2.0,0.0,0.0,-2.0,0.022849761493706655,0.0,0,0
1761250759.7575083,5.339152097702026,0.0,0.0,1.9936596052617108,0.0,0.0,0.13219348492865982,0.0,0.0,0.0,0.35,0.0,0.0,0.0,0.0,0.0,1.9936596052617108,stabilize,85.0,2.0,0.0,0.0,-2.0,0.006340394738289179,0.0,0,0
1761250759.862533,5.444176912307739,0.0,0.0,2.0082977927132357,0.0,0.0,0.12543170501000409,0.0,0.0,0.0,0.35,0.0,0.0,0.0,0.0,0.0,2.0082977927132357,stabilize,85.0,2.0,0.0,0.0,-2.0,0.008297792713235719,0.0,0,0
1761250759.9688175,5.550461292266846,0.0,0.0,2.0217191654309365,0.0,0.0,0.10322023590471799,0.0,0.0,0.0,0.3972891705457568,0.0,0.0,0.0,0.0,0.0,2.0217191654309365,stabilize,85.0,2.0,0.0,0.0,-2.0,0.02171916543093655,0.0,0,0
1761250760.0720603,5.6537041664123535,0.0,0.0,2.0328984788953206,0.0,0.0,0.08179941848341823,0.0,0.0,0.0,0.35,0.0,0.0,0.0,0.0,0.0,2.0328984788953206,stabilize,85.0,2.0,0.0,0.0,-2.0,0.032898478895320604,0.0,0,0
1761250760.1776507,5.759294509887695,0.0,0.0,2.042762713150526,0.0,0.0,0.08042301880493288,0.0,0.0,0.0,0.35,0.0,0.0,0.0,0.0,0.0,2.042762713150526,stabilize,85.0,2.0,0.0,0.0,-2.0,0.04276271315052593,0.0,0,0
1761250760.2840343,5.865678071975708,0.0,0.0,2.050837709426353,0.0,0.0,0.11776784698067383,0.0,0.0,0.0,0.7254135631119856,0.0,0.0,0.0,0.0,0.0,2.050837709426353,stabilize,85.0,2.0,0.0,0.0,-2.0,0.050837709426352795,0.0,0,0
1761250760.388725,5.9703688621521,0.0,0.0,2.058495365668301,0.0,0.0,0.06704090998748874,0.0,0.0,0.0,0.49742753641320725,0.0,0.0,0.0,0.0,0.0,2.058495365668301,stabilize,85.0,2.0,0.0,0.0,-2.0,0.05849536566830116,0.0,0,0
1761250760.491431,6.073074817657471,0.0,0.0,2.0644841526699405,0.0,0.0,0.07280743324608169,0.0,0.0,0.0,0.5870892104235331,0.0,0.0,0.0,0.0,0.0,2.0644841526699405,stabilize,85.0,2.0,0.0,0.0,-2.0,0.06448415266994045,0.0,0,0
1761250760.5964808,6.178124666213989,0.0,0.0,2.0697903792938104,0.0,0.0,0.06892121133293265,0.0,0.0,0.0,0.6166917359366303,0.0,0.0,0.0,0.0,0.0,2.0697903792938104,stabilize,85.0,2.0,0.0,0.0,-2.0,0.06979037929381038,0.0,0,0
1761250760.6989973,6.280641078948975,0.0,0.0,2.073893395228953,0.0,0.0,0.041398546296085185,0.0,0.0,0.0,0.511970428502555,0.0,0.0,0.0,0.0,0.0,2.073893395228953,stabilize,85.0,2.0,0.0,0.0,-2.0,0.07389339522895311,0.0,0,0
1761250760.8041797,6.385823488235474,0.0,0.0,2.0781805820455252,0.0,0.0,0.038257671001267014,0.0,0.0,0.0,0.35,0.0,0.0,0.0,0.0,0.0,2.0781805820455252,stabilize,85.0,2.0,0.0,0.0,-2.0,0.07818058204552525,0.0,0,0
1761250760.9084258,6.490069627761841,0.0,0.0,2.082113679952214,0.0,0.0,0.02160152849196667,0.0,0.0,0.0,0.35,0.0,0.0,0.0,0.0,0.0,2.082113679952214,stabilize,85.0,2.0,0.0,0.0,-2.0,0.08211367995221419,0.0,0,0
1761250761.0120392,6.5936830043792725,0.0,0.0,2.085134428034054,0.0,0.0,0.026600712030701024,0.0,0.0,0.0,0.35,0.0,0.0,0.0,0.0,0.0,2.085134428034054,stabilize,85.0,2.0,0.0,0.0,-2.0,0.08513442803405402,0.0,0,0
1761250761.1180007,6.699644565582275,0.0,0.0,2.087760617072008,0.0,0.0,0.01189954579740336,0.0,0.0,0.0,0.35,0.0,0.0,0.0,0.0,0.0,2.087760617072008,stabilize,85.0,2.0,0.0,0.0,-2.0,0.087760617072008,0.0,0,0
1761250761.222619,6.80426287651062,0.0,0.0,2.089903660171622,0.0,0.0,0.0343236784332113,0.0,0.0,0.0,0.5690165382080918,0.0,0.0,0.0,0.0,0.0,2.089903660171622,stabilize,85.0,2.0,0.0,0.0,-2.0,0.08990366017162188,0.0,0,0
1761250761.3274891,6.909132957458496,0.0,0.0,2.0928094041383782,0.0,0.0,0.005721929987581375,0.0,0.0,0.0,0.35,0.0,0.0,0.0,0.0,0.0,2.0928094041383782,stabilize,85.0,2.0,0.0,0.0,-2.0,0.09280940413837824,0.0,0,0
1761250761.4348586,7.016502380371094,0.0,0.0,2.095365397878664,0.0,0.0,0.036608958378520566,0.0,0.0,0.0,0.35,0.0,0.0,0.0,0.0,0.0,2.095365397878664,stabilize,85.0,2.0,0.0,0.0,-2.0,0.09536539787866394,0.0,0,0
1761250761.5399554,7.121599197387695,0.0,0.0,2.0979860986621355,0.0,0.0,-0.0006161371023766377,0.0,0.0,0.0,0.35,0.0,0.0,0.0,0.0,0.0,2.0979860986621355,stabilize,85.0,2.0,0.0,0.0,-2.0,0.09798609866213548,0.0,0,0
1761250761.6462264,7.227870225906372,0.0,0.0,2.0998450448559827,0.0,0.0,0.0525747723531097,0.0,0.0,0.0,0.6727949399987299,0.0,0.0,0.0,0.0,0.0,2.0998450448559827,stabilize,85.0,2.0,0.0,0.0,-2.0,0.09984504485598267,0.0,0,0
1761250761.7489552,7.330599069595337,0.0,0.0,2.101333523098489,0.0,0.0,-0.01211771732792491,0.0,0.0,0.0,0.3624081188480222,0.0,0.0,0.0,0.0,0.0,2.101333523098489,stabilize,85.0,2.0,0.0,0.0,-2.0,0.10133352309848886,0.0,0,0
1761250761.854727,7.436370849609375,0.0,0.0,2.102293964340111,0.0,0.0,-0.006435910250018297,0.0,0.0,0.0,0.35,0.0,0.0,0.0,0.0,0.0,2.102293964340111,stabilize,85.0,2.0,0.0,0.0,-2.0,0.10229396434011084,0.0,0,0
1761250761.9590693,7.54071307182312,0.0,0.0,2.1027874866840017,0.0,0.0,-0.010731713403911824,0.0,0.0,0.0,0.35,0.0,0.0,0.0,0.0,0.0,2.1027874866840017,stabilize,85.0,2.0,0.0,0.0,-2.0,0.10278748668400173,0.0,0,0
1761250762.0627818,7.644425630569458,0.0,0.0,2.1041062252836387,0.0,0.0,0.008493041368085368,0.0,0.0,0.0,0.35,0.0,0.0,0.0,0.0,0.0,2.1041062252836387,stabilize,85.0,2.0,0.0,0.0,-2.0,0.10410622528363866,0.0,0,0
1761250762.1673026,7.74894642829895,0.0,0.0,2.1051417637984673,0.0,0.0,-0.010109392036349751,0.0,0.0,0.0,0.35,0.0,0.0,0.0,0.0,0.0,2.1051417637984673,stabilize,85.0,2.0,0.0,0.0,-2.0,0.10514176379846729,0.0,0,0
1761250762.2720544,7.853698253631592,0.0,0.0,2.105946838481982,0.0,0.0,0.03093098262419647,0.0,0.0,0.0,0.6297283589277218,0.0,0.0,0.0,0.0,0.0,2.105946838481982,stabilize,85.0,2.0,0.0,0.0,-2.0,0.10594683848198194,0.0,0,0
1761250762.3771212,7.958765029907227,0.0,0.0,2.1059356058984924,0.0,0.0,0.03633284832461617,0.0,0.0,0.0,0.6895368065155767,0.0,0.0,0.0,0.0,0.0,2.1059356058984924,stabilize,85.0,2.0,0.0,0.0,-2.0,0.10593560589849238,0.0,0,0
1761250762.480701,8.062344789505005,0.0,0.0,2.1068417234439574,0.0,0.0,-0.012704307579005081,0.0,0.0,0.0,0.35,0.0,0.0,0.0,0.0,0.0,2.1068417234439574,stabilize,85.0,2.0,0.0,0.0,-2.0,0.10684172344395737,0.0,0,0
1761250762.589059,8.170702934265137,0.0,0.0,2.1071935425758612,0.0,0.0,0.026302534751561107,0.0,0.0,0.0,0.6015071134351007,0.0,0.0,0.0,0.0,0.0,2.1071935425758612,stabilize,85.0,2.0,0.0,0.0,-2.0,0.10719354257586122,0.0,0,0
1761250762.6950724,8.276716232299805,0.0,0.0,2.107754146562216,0.0,0.0,0.007304243631645911,0.0,0.0,0.0,0.5222793035338522,0.0,0.0,0.0,0.0,0.0,2.107754146562216,stabilize,85.0,2.0,0.0,0.0,-2.0,0.10775414656221605,0.0,0,0
1761250762.799524,8.381167888641357,0.0,0.0,2.107455962417641,0.0,0.0,0.009772092891057588,0.0,0.0,0.0,0.35,0.0,0.0,0.0,0.0,0.0,2.107455962417641,stabilize,85.0,2.0,0.0,0.0,-2.0,0.107455962417641,0.0,0,0
1761250762.9062607,8.48790454864502,0.0,0.0,2.107651355673549,0.0,0.0,0.030643622833286734,0.0,0.0,0.0,0.6433261936839136,0.0,0.0,0.0,0.0,0.0,2.107651355673549,stabilize,85.0,2.0,0.0,0.0,-2.0,0.107651355673549,0.0,0,0
1761250763.0093215,8.590965270996094,0.0,0.0,2.1084023827839213,0.0,0.0,0.023252172143076188,0.0,0.0,0.0,0.35,0.0,0.0,0.0,0.0,0.0,2.1084023827839213,stabilize,85.0,2.0,0.0,0.0,-2.0,0.10840238278392134,0.0,0,0
1761250763.1159873,8.697631120681763,0.0,0.0,2.108878535910321,0.0,0.0,0.03464065707968825,0.0,0.0,0.0,0.6705915032396174,0.0,0.0,0.0,0.0,0.0,2.108878535910321,stabilize,85.0,2.0,0.0,0.0,-2.0,0.10887853591032082,0.0,0,0
1761250763.221483,8.803126811981201,0.0,0.0,2.109548232384686,0.0,0.0,-0.019024913562236664,0.0,0.0,0.0,0.3813294015330693,0.0,0.0,0.0,0.0,0.0,2.109548232384686,stabilize,85.0,2.0,0.0,0.0,-2.0,0.10954823238468592,0.0,0,0
1761250763.327221,8.908864736557007,0.0,0.0,2.109302838749547,0.0,0.0,0.02517210831977331,0.0,0.0,0.0,0.6539632796210724,0.0,0.0,0.0,0.0,0.0,2.109302838749547,stabilize,85.0,2.0,0.0,0.0,-2.0,0.10930283874954716,0.0,0,0
1761250763.4325633,9.014207124710083,0.0,0.0,2.10810286308031,0.0,0.0,0.0034880777591956257,0.0,0.0,0.0,0.5821826490055073,0.0,0.0,0.0,0.0,0.0,2.10810286308031,stabilize,85.0,2.0,0.0,0.0,-2.0,0.10810286308031003,0.0,0,0
1761250763.5375633,9.11920714378357,0.0,0.0,2.1075266678872953,0.0,0.0,0.004271274066378842,0.0,0.0,0.0,0.5511491317672006,0.0,0.0,0.0,0.0,0.0,2.1075266678872953,stabilize,85.0,2.0,0.0,0.0,-2.0,0.10752666788729526,0.0,0,0
1761250763.642679,9.22432279586792,0.0,0.0,2.105955119312134,0.0,0.0,-0.0368445369565812,0.0,0.0,0.0,0.35,0.0,0.0,0.0,0.0,0.0,2.105955119312134,stabilize,85.0,2.0,0.0,0.0,-2.0,0.1059551193121342,0.0,0,0
1761250763.7487354,9.330379247665405,0.0,0.0,2.1057506301672473,0.0,0.0,0.007026701660099631,0.0,0.0,0.0,0.35,0.0,0.0,0.0,0.0,0.0,2.1057506301672473,stabilize,85.0,2.0,0.0,0.0,-2.0,0.10575063016724728,0.0,0,0
1761250763.8535216,9.435165405273438,0.0,0.0,2.105578998031024,0.0,0.0,-0.022209522273184255,0.0,0.0,0.0,0.35,0.0,0.0,0.0,0.0,0.0,2.105578998031024,stabilize,85.0,2.0,0.0,0.0,-2.0,0.105578998031024,0.0,0,0
1761250763.9593477,9.54099154472351,0.0,0.0,2.1051388295725455,0.0,0.0,-0.03039869896637562,0.0,0.0,0.0,0.35,0.0,0.0,0.0,0.0,0.0,2.1051388295725455,stabilize,85.0,2.0,0.0,0.0,-2.0,0.1051388295725455,0.0,0,0
1761250764.064692,9.64633584022522,0.0,0.0,2.1053997760386083,0.0,0.0,-0.011291287780679813,0.0,0.0,0.0,0.35,0.0,0.0,0.0,0.0,0.0,2.1053997760386083,stabilize,85.0,2.0,0.0,0.0,-2.0,0.10539977603860828,0.0,0,0
1761250764.166034,9.74767780303955,0.0,0.0,2.1062522009092772,0.0,0.0,0.029733027384316518,0.0,0.0,0.0,0.6399329520960917,0.0,0.0,0.0,0.0,0.0,2.1062522009092772,stabilize,85.0,2.0,0.0,0.0,-2.0,0.10625220090927723,0.0,0,0
1761250764.270408,9.852051734924316,0.0,0.0,2.1059690109680416,0.0,0.0,-0.01239774821371703,0.0,0.0,0.0,0.4659137579568511,0.0,0.0,0.0,0.0,0.0,2.1059690109680416,stabilize,85.0,2.0,0.0,0.0,-2.0,0.10596901096804157,0.0,0,0
1761250764.3741248,9.955768585205078,0.0,0.0,2.1057306592738527,0.0,0.0,0.03133004483070573,0.0,0.0,0.0,0.6820631035005211,0.0,0.0,0.0,0.0,0.0,2.1057306592738527,stabilize,85.0,2.0,0.0,0.0,-2.0,0.10573065927385272,0.0,0,0
1761250764.4828734,10.064517259597778,0.0,0.0,2.1052599595644854,0.0,0.0,-0.037573684238986785,0.0,0.0,0.0,0.3781436993548334,0.0,0.0,0.0,0.0,0.0,2.1052599595644854,stabilize,85.0,2.0,0.0,0.0,-2.0,0.10525995956448542,0.0,0,0
1761250764.5880125,10.16965627670288,0.0,0.0,2.104594199980816,0.0,0.0,-0.023088668410755363,0.0,0.0,0.0,0.43043651628671176,0.0,0.0,0.0,0.0,0.0,2.104594199980816,stabilize,85.0,2.0,0.0,0.0,-2.0,0.10459419998081598,0.0,0,0
1761250764.692073,10.273716926574707,0.0,0.0,2.1025854840320917,0.0,0.0,-0.03125642760721281,0.0,0.0,0.0,0.35,0.0,0.0,0.0,0.0,0.0,2.1025854840320917,stabilize,85.0,2.0,0.0,0.0,-2.0,0.10258548403209167,0.0,0,0
1761250764.8002946,10.381938457489014,0.0,0.0,2.0999143099898014,0.0,0.0,0.0009768048393614323,0.0,0.0,0.0,0.6403396539984636,0.0,0.0,0.0,0.0,0.0,2.0999143099898014,stabilize,85.0,2.0,0.0,0.0,-2.0,0.09991430998980144,0.0,0,0
1761250764.9033816,10.485025405883789,0.0,0.0,2.0973409236521134,0.0,0.0,-0.005559928125904168,0.0,0.0,0.0,0.5990885328249713,0.0,0.0,0.0,0.0,0.0,2.0973409236521134,stabilize,85.0,2.0,0.0,0.0,-2.0,0.09734092365211344,0.0,0,0
1761250765.0087824,10.590426206588745,0.0,0.0,2.0952338663082903,0.0,0.0,-0.03402462548548059,0.0,0.0,0.0,0.35,0.0,0.0,0.0,0.0,0.0,2.0952338663082903,stabilize,85.0,2.0,0.0,0.0,-2.0,0.09523386630829034,0.0,0,0
1761250765.113099,10.694742918014526,0.0,0.0,2.0928577797428893,0.0,0.0,-0.001096800493498029,0.0,0.0,0.0,0.6069675868654693,0.0,0.0,0.0,0.0,0.0,2.0928577797428893,stabilize,85.0,2.0,0.0,0.0,-2.0,0.09285777974288933,0.0,0,0
1761250765.2173274,10.798971176147461,0.0,0.0,2.09109132719061,0.0,0.0,-0.0008676440302454527,0.0,0.0,0.0,0.35,0.0,0.0,0.0,0.0,0.0,2.09109132719061,stabilize,85.0,2.0,0.0,0.0,-2.0,0.0910913271906102,0.0,0,0
1761250765.3216937,10.903337478637695,0.0,0.0,2.0901728615014648,0.0,0.0,-0.03320496614017831,0.0,0.0,0.0,0.35,0.0,0.0,0.0,0.0,0.0,2.0901728615014648,stabilize,85.0,2.0,0.0,0.0,-2.0,0.09017286150146475,0.0,0,0
1761250765.4248042,11.006448030471802,0.0,0.0,2.089548941403629,0.0,0.0,-0.03304135227702164,0.0,0.0,0.0,0.35,0.0,0.0,0.0,0.0,0.0,2.089548941403629,stabilize,85.0,2.0,0.0,0.0,-2.0,0.08954894140362901,0.0,0,0
1761250765.5313492,11.112993001937866,0.0,0.0,2.0889219908063885,0.0,0.0,-0.02477321496287924,0.0,0.0,0.0,0.35,0.0,0.0,0.0,0.0,0.0,2.0889219908063885,stabilize,85.0,2.0,0.0,0.0,-2.0,0.08892199080638852,0.0,0,0
1761250765.6409867,11.222630500793457,0.0,0.0,2.0889975990646317,0.0,0.0,-0.0014106725084043186,0.0,0.0,0.0,0.4976224887277745,0.0,0.0,0.0,0.0,0.0,2.0889975990646317,stabilize,85.0,2.0,0.0,0.0,-2.0,0.08899759906463167,0.0,0,0
1761250765.7452252,11.326869010925293,0.0,0.0,2.0890222074687843,0.0,0.0,0.0009166823241164648,0.0,0.0,0.0,0.35,0.0,0.0,0.0,0.0,0.0,2.0890222074687843,stabilize,85.0,2.0,0.0,0.0,-2.0,0.08902220746878431,0.0,0,0
1761250765.8512127,11.432856559753418,0.0,0.0,2.0880997650134727,0.0,0.0,-0.0065841389792528,0.0,0.0,0.0,0.35,0.0,0.0,0.0,0.0,0.0,2.0880997650134727,stabilize,85.0,2.0,0.0,0.0,-2.0,0.08809976501347272,0.0,0,0
1761250765.9545875,11.536231279373169,0.0,0.0,2.0876767991295746,0.0,0.0,0.004703044531186876,0.0,0.0,0.0,0.35,0.0,0.0,0.0,0.0,0.0,2.0876767991295746,stabilize,85.0,2.0,0.0,0.0,-2.0,0.0876767991295746,0.0,0,0
1761250766.0583348,11.639978647232056,0.0,0.0,2.087398435190512,0.0,0.0,-0.023951750093129807,0.0,0.0,0.0,0.35,0.0,0.0,0.0,0.0,0.0,2.087398435190512,stabilize,85.0,2.0,0.0,0.0,-2.0,0.08739843519051194,0.0,0,0
1761250766.1617413,11.743385076522827,0.0,0.0,2.086374368403627,0.0,0.0,-0.00826839280107887,0.0,0.0,0.0,0.5198836716626245,0.0,0.0,0.0,0.0,0.0,2.086374368403627,stabilize,85.0,2.0,0.0,0.0,-2.0,0.08637436840362689,0.0,0,0
1761250766.2667716,11.84841537475586,0.0,0.0,2.0848043238678065,0.0,0.0,6.557472976929588e-05,0.0,0.0,0.0,0.35,0.0,0.0,0.0,0.0,0.0,2.0848043238678065,stabilize,85.0,2.0,0.0,0.0,-2.0,0.08480432386780645,0.0,0,0
1761250766.3713999,11.953043699264526,0.0,0.0,2.083409496375492,0.0,0.0,-0.03212010908652106,0.0,0.0,0.0,0.37181161790866213,0.0,0.0,0.0,0.0,0.0,2.083409496375492,stabilize,85.0,2.0,0.0,0.0,-2.0,0.08340949637549189,0.0,0,0
1761250766.4775324,12.059176206588745,0.0,0.0,2.082407724240318,0.0,0.0,-0.00571729744210785,0.0,0.0,0.0,0.35,0.0,0.0,0.0,0.0,0.0,2.082407724240318,stabilize,85.0,2.0,0.0,0.0,-2.0,0.08240772424031784,0.0,0,0
1761250766.5835247,12.165168523788452,0.0,0.0,2.081155261521419,0.0,0.0,0.00966425294301099,0.0,0.0,0.0,0.35,0.0,0.0,0.0,0.0,0.0,2.081155261521419,stabilize,85.0,2.0,0.0,0.0,-2.0,0.08115526152141905,0.0,0,0
1761250766.6898909,12.27153468132019,0.0002603205997498539,0.0,2.0901117226732415,0.022810777099946423,0.0,0.4481833000095318,0.0,-0.07005048365754918,0.0,1.0,0.0,-0.3,0.0,0.0002603205997498539,0.0,2.0901117226732415,auto,85.0,5,10.0,0.0,0.0,10.215838715887596,0.07005048365754918,0,0
1761250766.7948062,12.376450061798096,0.01961771384886064,0.0,2.193622639615303,0.4261678559907137,0.0,1.4851888328641965,0.0,-0.3218675381631432,0.0,0.8100914933148695,0.0,-0.3,0.0,0.01961771384886064,0.0,2.193622639615303,auto,85.0,5,10.0,0.0,0.0,10.21861100457162,0.3218675381631432,0,0
1761250766.90149,12.483133792877197,0.0915566708077436,0.0,2.360482325503657,0.9488150383673181,0.0,1.6656825292452715,0.0,-0.4007259006573902,0.0,0.35,0.0,0.3,0.0,0.0915566708077436,0.0,2.360482325503657,auto,85.0,5,10.0,0.0,0.0,10.185731491494838,0.4007259006573902,0,0
1761250767.0092006,12.59084439277649,0.21234261061566218,0.0,2.5414188527835053,1.3134784586176496,0.0,1.7999149308470659,0.0,-0.3071151354144583,0.0,0.8933523748683354,0.0,-0.13557337317657914,0.0,0.21234261061566218,0.0,2.5414188527835053,auto,85.0,5,10.0,0.0,0.0,10.112222651685101,0.3071151354144583,0,0
1761250767.113687,12.69533085823059,0.36505987971945897,0.0,2.7272555411156167,1.581747741888469,0.0,1.7834828637046034,0.0,-0.27157970294793604,0.0,0.6283156089412266,0.0,-0.15098799510252128,0.0,0.36505987971945897,0.0,2.7272555411156167,auto,85.0,5,10.0,0.0,0.0,10.013490595588406,0.271579702947936,0,0
1761250767.2202637,12.801907539367676,0.545832510477659,0.0,2.9144918752054347,1.7715105254986971,0.0,1.7360799238619182,0.0,-0.07168359435280316,0.0,0.35,0.0,0.3,0.0,0.545832510477659,0.0,2.9144918752054347,auto,85.0,5,10.0,0.0,0.0,9.893207053861738,0.07168359435280316,0,0
1761250767.327506,12.909149885177612,0.7377593368157062,0.0,3.098222110576844,1.8235794290886007,0.0,1.6858570736422585,0.0,-0.0914082552916585,0.0,0.44669494341291704,0.0,0.20492260579649965,0.0,0.7377593368157062,0.0,3.098222110576844,auto,85.0,5,10.0,0.0,0.0,9.766682259048457,0.0914082552916585,0,0
1761250767.432532,13.01417589187622,0.9317126771596719,0.0,3.2713776554423126,1.8728268710727922,0.0,1.606722009269805,0.0,-0.07072766199363295,0.0,0.35,0.0,0.22780923367694145,0.0,0.9317126771596719,0.0,3.2713776554423126,auto,85.0,5,10.0,0.0,0.0,9.640318808738321,0.07072766199363295,0,0
1761250767.5375986,13.119242429733276,1.1303155543014656,0.0,3.4370895131862254,1.9023588328457013,0.0,1.532142594316914,0.0,-0.012639211474739679,0.0,0.35,0.0,-0.3,0.0,1.1303155543014656,0.0,3.4370895131862254,auto,85.0,5,10.0,0.0,0.0,9.51235441349413,0.012639211474739679,0,0
1761250767.6433303,13.224974155426025,1.3325867266864917,0.0,3.5943682883579853,1.9192723822962916,0.0,1.4609953777946367,0.0,0.008178313996929004,0.0,0.5128539649088485,0.0,-0.28366898548182995,0.0,1.3325867266864917,0.0,3.5943682883579853,auto,85.0,5,10.0,0.0,0.0,9.383151722250084,0.008178313996929004,0,0
1761250767.7493653,13.331009149551392,1.5367281400860902,0.0,3.742360005380343,1.9328007957452242,0.0,1.3453732045855642,0.0,0.017941397658720142,0.0,0.44671787267739305,0.0,0.15666744544105754,0.0,1.5367281400860902,0.0,3.742360005380343,auto,85.0,5,10.0,0.0,0.0,9.25376836670775,0.017941397658720142,0,0
1761250767.8538396,13.435483455657959,1.737397158401921,0.0,3.877218429893668,1.923765327822102,0.0,1.2479286891761112,0.0,-0.00890869778542741,0.0,0.35,0.0,0.3,0.0,1.737397158401921,0.0,3.877218429893668,auto,85.0,5,10.0,0.0,0.0,9.127071188014902,0.00890869778542741,0,0
1761250767.9583304,13.539974212646484,1.937018259651795,0.0,4.003035279548289,1.9100900027147723,0.0,1.1541210156676924,0.0,-0.0164898492898144,0.0,0.35,0.0,0.28719013390288517,0.0,1.937018259651795,0.0,4.003035279548289,auto,85.0,5,10.0,0.0,0.0,9.001997889052008,0.0164898492898144,0,0
1761250768.064332,13.645975828170776,2.1378162700270296,0.0,4.120155895390785,1.8843341858062597,0.0,1.0427441591281859,0.0,-0.013396636206080257,0.0,0.35,0.0,-0.09659311529350531,0.0,2.1378162700270296,0.0,4.120155895390785,auto,85.0,5,10.0,0.0,0.0,8.876351593203998,0.013396636206080257,0,0
1761250768.1706614,13.752305269241333,2.336774360035898,0.0,4.228016833136407,1.84651901369631,0.0,0.9564577995401303,0.0,0.0021868361203321134,0.0,0.35,0.0,-0.09444474425104196,0.0,2.336774360035898,0.0,4.228016833136407,auto,85.0,5,10.0,0.0,0.0,8.752208495590587,0.0021868361203321134,0,0
1761250768.2746131,13.85625696182251,2.52838139929826,0.0,4.324157868093078,1.8231694691208409,0.0,0.8863910001798088,0.0,0.0377850867449312,0.0,0.35,0.0,-0.2421270573967688,0.0,2.52838139929826,0.0,4.324157868093078,auto,85.0,5,10.0,0.0,0.0,8.632695163304652,0.0377850867449312,0,0
1761250768.3781395,13.95978331565857,2.7162752068910003,0.0,4.410803088969104,1.797922969103746,0.0,0.7934357748882717,0.0,0.05326445674331203,0.0,0.35,0.0,-0.222044383735381,0.0,2.7162752068910003,0.0,4.410803088969104,auto,85.0,5,10.0,0.0,0.0,8.515153008103267,0.05326445674331203,0,0
1761250768.4819014,14.063545227050781,2.9014352369253977,0.0,4.488877231365688,1.7698425967714695,0.0,0.7196487176754387,0.0,0.0548368336147597,0.0,0.44920432280757794,0.0,-0.17412749596213914,0.0,2.9014352369253977,0.0,4.488877231365688,auto,85.0,5,10.0,0.0,0.0,8.398788037201419,0.0548368336147597,0,0
1761250768.5858648,14.167508602142334,3.083309850132232,0.0,4.559188642017764,1.727671400835871,0.0,0.6450513933169829,0.0,0.05202890517092698,0.0,0.35,0.0,-0.3,0.0,3.083309850132232,0.0,4.559188642017764,auto,85.0,5,10.0,0.0,0.0,8.284129628559755,0.052028905170926974,0,0
1761250768.6908538,14.272497653961182,3.2632303374010974,0.0,4.623133708520178,1.6920353714330372,0.0,0.5918118234933634,0.0,0.061845770439056445,0.0,0.4787678995299231,0.0,-0.3,0.0,3.2632303374010974,0.0,4.623133708520178,auto,85.0,5,10.0,0.0,0.0,8.170522062498115,0.061845770439056445,0,0
1761250768.7913976,14.37304139137268,3.4315446345034655,0.0,4.678368209637985,1.6534546306531506,0.0,0.5124109631426256,0.0,0.059147301884015645,0.0,0.35,0.0,0.3,0.0,3.4315446345034655,0.0,4.678368209637985,auto,85.0,5,10.0,0.0,0.0,8.064225628879162,0.059147301884015645,0,0
1761250768.8966804,14.478324174880981,3.601178922064865,0.0,4.730613117743975,1.5957471832737191,0.0,0.4586178328933066,0.0,-0.04751269511862594,0.0,0.35,0.0,0.17501659332466263,0.0,3.601178922064865,0.0,4.730613117743975,auto,85.0,5,10.0,0.0,0.0,7.957613439794518,0.047512695118625936,0,0
1761250769.001501,14.583144903182983,3.767938602945079,0.0,4.777267964547115,1.5647969122491758,0.0,0.41516218501453106,0.0,0.026860824826646083,0.0,0.41359024724698606,0.0,-0.20136043394484315,0.0,3.767938602945079,0.0,4.777267964547115,auto,85.0,5,10.0,0.0,0.0,7.852444107521572,0.02686082482664608,0,0
1761250769.106111,14.68775486946106,3.9304229442284115,0.0,4.8190369762766485,1.5295274456629526,0.0,0.37324122257747055,0.0,0.03347532554454743,0.0,0.3851931577495136,0.0,-0.3,0.0,3.9304229442284115,0.0,4.8190369762766485,auto,85.0,5,10.0,0.0,0.0,7.750024710584508,0.03347532554454743,0,0
1761250769.2097867,14.791430473327637,4.087444829485994,0.0,4.857026181739931,1.4893545864374038,0.0,0.35512652495761227,0.0,0.021145341012051632,0.0,0.35,0.0,-0.3,0.0,4.087444829485994,0.0,4.857026181739931,auto,85.0,5,10.0,0.0,0.0,7.651732612583837,0.021145341012051632,0,0
1761250769.313641,14.89528489112854,4.241102218199806,0.0,4.891236035543414,1.4556233847102473,0.0,0.31498439574397036,0.0,0.03221520169752015,0.0,0.35,0.0,-0.3,0.0,4.241102218199806,0.0,4.891236035543414,auto,85.0,5,10.0,0.0,0.0,7.555732500335202,0.03221520169752015,0,0
1761250769.4180427,14.999686479568481,4.391966064464269,0.0,4.921052410232887,1.4204611662366213,0.0,0.2686817118077501,0.0,0.048129542234139656,0.0,0.35,0.0,-0.3,0.0,4.391966064464269,0.0,4.921052410232887,auto,85.0,5,10.0,0.0,0.0,7.4610187941312205,0.048129542234139656,0,0
1761250769.5243554,15.105999231338501,4.541649690275392,0.0,4.9475952379411074,1.3853953310320035,0.0,0.24272916058052052,0.0,0.04411721239334298,0.0,0.35,0.0,-0.2955459922583379,0.0,4.541649690275392,0.0,4.9475952379411074,auto,85.0,5,10.0,0.0,0.0,7.366972698617,0.04411721239334297,0,0
1761250769.629271,15.210914850234985,4.685548075138452,0.0,4.971100823829355,1.3489032302881954,0.0,0.2274311933129828,0.0,0.042070811994814335,0.0,0.35,0.0,-0.2714349726350157,0.0,4.685548075138452,0.0,4.971100823829355,auto,85.0,5,10.0,0.0,0.0,7.27703529346543,0.042070811994814335,0,0
1761250769.733574,15.315217733383179,4.825113991153029,0.0,4.992133622596675,1.3162609598429014,0.0,0.20561521225483065,0.0,0.05916257628308301,0.0,0.535140481343842,0.0,-0.25425411464066094,0.0,4.825113991153029,0.0,4.992133622596675,auto,85.0,5,10.0,0.0,0.0,7.190329847122476,0.05916257628308302,0,0
1761250769.8394384,15.421082258224487,4.963182501067532,0.0,5.012063419845127,1.286855529898146,0.0,0.19357749426895426,0.0,0.04037659717382102,0.0,0.35,0.0,-0.18485932022011525,0.0,4.963182501067532,0.0,5.012063419845127,auto,85.0,5,10.0,0.0,0.0,7.105653400082357,0.04037659717382102,0,0
1761250769.9448104,15.526454210281372,5.0970173283436,0.0,5.0292318582164235,1.2540332108185197,0.0,0.1377915648443795,0.0,0.001494356975288912,0.0,0.3535532993379833,0.0,0.22828336944637276,0.0,5.0970173283436,0.0,5.0292318582164235,auto,85.0,5,10.0,0.0,0.0,7.023703592995788,0.0014943569752889122,0,0
1761250770.0484672,15.6301109790802,5.225093033643907,0.0,5.0439095863786685,1.217527861393073,0.0,0.13577268622409308,0.0,-0.011173238959985184,0.0,0.4991255601990877,0.0,0.1267126570501137,0.0,5.225093033643907,0.0,5.0439095863786685,auto,85.0,5,10.0,0.0,0.0,6.945556885730515,0.011173238959985184,0,0
1761250770.1527512,15.734395027160645,5.350832375482303,0.0,5.056068394740502,1.1858805113017183,0.0,0.09185309011326703,0.0,-0.001745345172351219,0.0,0.35,0.0,0.03818930834952318,0.0,5.350832375482303,0.0,5.056068394740502,auto,85.0,5,10.0,0.0,0.0,6.868667062331477,0.001745345172351219,0,0
1761250770.2572322,15.838876008987427,5.473713617934389,0.0,5.066779385562773,1.1565197142073194,0.0,0.07831443174622281,0.0,0.007375976978317896,0.0,0.38684478605702843,0.0,-0.017983513835465297,0.0,5.473713617934389,0.0,5.066779385562773,auto,85.0,5,10.0,0.0,0.0,6.794079904919905,0.0073759769783178965,0,0
1761250770.3665612,15.94820499420166,5.600163916500511,0.0,5.076319194396842,1.133204760714006,0.0,0.07279800600711042,0.0,0.06724413621091872,0.0,0.35,0.0,-0.3,0.0,5.600163916500511,0.0,5.076319194396842,auto,85.0,5,10.0,0.0,0.0,6.717706016570383,0.06724413621091872,0,0
1761250770.4708776,16.052521467208862,5.717068159004565,0.0,5.084505306376209,1.1047610657076172,0.0,0.09340020572428068,0.0,0.048865692333576474,0.0,0.35,0.0,-0.23927263238451485,0.0,5.717068159004565,0.0,5.084505306376209,auto,85.0,5,10.0,0.0,0.0,6.647984609276738,0.048865692333576474,0,0
1761250770.577347,16.15899085998535,5.83349934769614,0.0,5.09225227989941,1.0744862751643531,0.0,0.06595134334211927,0.0,0.06899207536398347,0.0,0.35,0.0,-0.3,0.0,5.83349934769614,0.0,5.09225227989941,auto,85.0,5,10.0,0.0,0.0,6.579571488158574,0.06899207536398347,0,0
1761250770.6823814,16.26402521133423,5.944884512104328,0.0,5.098914678244869,1.0465649512231199,0.0,0.07161834185086152,0.0,0.06120273053952684,0.0,0.550040218404039,0.0,-0.11770775847562319,0.0,5.944884512104328,0.0,5.098914678244869,auto,85.0,5,10.0,0.0,0.0,6.514820988806394,0.06120273053952683,0,0
1761250770.7868016,16.36844539642334,6.052649795209136,0.0,5.104522592863389,1.0208360147555842,0.0,0.057238137384009236,0.0,0.05190770176138197,0.0,0.5187410352542097,0.0,-0.1690932989454044,0.0,6.052649795209136,0.0,5.104522592863389,auto,85.0,5,10.0,0.0,0.0,6.45273000677351,0.05190770176138197,0,0
1761250770.8907776,16.472421407699585,6.157230628921896,0.0,5.108954511119219,0.9905224941091859,0.0,0.03672848499231541,0.0,0.0569387291355774,0.0,0.4220776239119708,0.0,-0.3,0.0,6.157230628921896,0.0,5.108954511119219,auto,85.0,5,10.0,0.0,0.0,6.3928313473750755,0.0569387291355774,0,0
1761250770.99571,16.577353715896606,6.259959659255763,0.0,5.113012408205416,0.9632786047476525,0.0,0.04521219380124367,0.0,0.05811025821606424,0.0,0.35,0.0,-0.3,0.0,6.259959659255763,0.0,5.113012408205416,auto,85.0,5,10.0,0.0,0.0,6.3348873420809,0.05811025821606424,0,0
1761250771.0976124,16.679256200790405,6.3571286309215225,0.0,5.1164187402038594,0.9415904439737601,0.0,0.07926366521821439,0.0,0.06749337043903755,0.0,0.35,0.0,0.3,0.0,6.3571286309215225,0.0,5.1164187402038594,auto,85.0,5,10.0,0.0,0.0,6.280784388654091,0.06749337043903755,0,0
1761250771.2029781,16.784621953964233,6.45328968509262,0.0,5.120795334252135,0.9090754817129613,0.0,0.05765306466803733,0.0,-0.021561472313499676,0.0,0.35,0.0,0.3,0.0,6.45328968509262,0.0,5.120795334252135,auto,85.0,5,10.0,0.0,0.0,6.229100971502135,0.021561472313499676,0,0
1761250771.3073754,16.88901925086975,6.546818361234708,0.0,5.124173429168785,0.8886558895284555,0.0,0.027509929072921928,0.0,-0.020062632777099437,0.0,0.44656356323589236,0.0,0.3,0.0,6.546818361234708,0.0,5.124173429168785,auto,85.0,5,10.0,0.0,0.0,6.179127508192813,0.020062632777099437,0,0
1761250771.4149299,16.99657368659973,6.640835236746824,0.0,5.126251007504018,0.8640217047153648,0.0,0.028539535546582825,0.0,-0.021239261228737264,0.0,0.35,0.0,0.2926311554404415,0.0,6.640835236746824,0.0,5.126251007504018,auto,85.0,5,10.0,0.0,0.0,6.128820220778035,0.021239261228737264,0,0
1761250771.5200627,17.101706504821777,6.730289965881584,0.0,5.127512464580512,0.8387039176144236,0.0,0.035107796111275937,0.0,-0.019635935166684187,0.0,0.596419280916876,0.0,0.25282546451148025,0.0,6.730289965881584,0.0,5.127512464580512,auto,85.0,5,10.0,0.0,0.0,6.0813146425459,0.019635935166684184,0,0
1761250771.6250255,17.206669330596924,6.817208733821871,0.0,5.12828228121887,0.8184985239500361,0.0,0.04085803619557836,0.0,-0.020389393602337318,0.0,0.6446914059214846,0.0,0.2854627999437768,0.0,6.817208733821871,0.0,5.12828228121887,auto,85.0,5,10.0,0.0,0.0,6.0356805250048815,0.020389393602337314,0,0
1761250771.7307684,17.31241226196289,6.902416125234859,0.0,5.130609547159303,0.7951370617151148,0.0,0.03777937068513107,0.0,-0.017203480742579,0.0,0.5766013668523055,0.0,0.287669502808927,0.0,6.902416125234859,0.0,5.130609547159303,auto,85.0,5,10.0,0.0,0.0,5.993177803687057,0.017203480742579,0,0
1761250771.836868,17.418511867523193,6.985665931564446,0.0,5.13199139387328,0.7787765721827181,0.0,-0.0011919929628620672,0.0,-0.015319468218877471,0.0,0.35,0.0,0.3,0.0,6.985665931564446,0.0,5.13199139387328,auto,85.0,5,10.0,0.0,0.0,5.951768270263943,0.015319468218877473,0,0
1761250771.9434726,17.525116443634033,7.06682963055476,0.0,5.132314416612231,0.7588814719218727,0.0,0.03300397603754404,0.0,-0.020224791774039807,0.0,0.35,0.0,0.3,0.0,7.06682963055476,0.0,5.132314416612231,auto,85.0,5,10.0,0.0,0.0,5.91135683977522,0.020224791774039807,0,0
1761250772.0466106,17.628254413604736,7.144247270478774,0.0,5.132619523107879,0.7391881223229515,0.0,0.01102164273942206,0.0,-0.021788984914819527,0.0,0.5244477439517566,0.0,0.25591854871996667,0.0,7.144247270478774,0.0,5.132619523107879,auto,85.0,5,10.0,0.0,0.0,5.873594029310851,0.021788984914819527,0,0
1761250772.1523316,17.733975410461426,7.221174565152114,0.0,5.133109785072575,0.7190128141223655,0.0,0.021258360702117417,0.0,-0.014835587435247042,0.0,0.35,0.0,0.3,0.0,7.221174565152114,0.0,5.133109785072575,auto,85.0,5,10.0,0.0,0.0,5.837010096184978,0.014835587435247042,0,0
1761250772.2584581,17.840101957321167,7.296047911534345,0.0,5.13399554254404,0.6984720109516495,0.0,0.0007431592167911078,0.0,-0.02215551499521568,0.0,0.35,0.0,0.3,0.0,7.296047911534345,0.0,5.13399554254404,auto,85.0,5,10.0,0.0,0.0,5.802522479713443,0.02215551499521568,0,0
1761250772.3639832,17.945626974105835,7.368523083520236,0.0,5.134358913721069,0.6794293980924515,0.0,0.0014532488977853884,0.0,-0.0243036175891706,0.0,0.35,0.0,0.28026135344822645,0.0,7.368523083520236,0.0,5.134358913721069,auto,85.0,5,10.0,0.0,0.0,5.769429106668427,0.0243036175891706,0,0
1761250772.4692276,18.0508713722229,7.438961592416999,0.0,5.133411653083683,0.6605966741327134,0.0,0.02865697072295081,0.0,-0.021615895331935153,0.0,0.6603070988158172,0.0,0.2556503835215322,0.0,7.438961592416999,0.0,5.133411653083683,auto,85.0,5,10.0,0.0,0.0,5.736796399135202,0.021615895331935153,0,0
1761250772.5743513,18.15599513053894,7.507402232981407,0.0,5.1340905225031594,0.6444936921647673,0.0,0.03983870200914191,0.0,-0.023267998586696828,0.0,0.6682409067410892,0.0,0.3,0.0,7.507402232981407,0.0,5.1340905225031594,auto,85.0,5,10.0,0.0,0.0,5.70718224007284,0.023267998586696828,0,0
1761250772.683223,18.264866828918457,7.576269760259049,0.0,5.136164175685668,0.6230023364776396,0.0,0.022408368928356816,0.0,-0.023550607450688606,0.0,0.5257055172288705,0.0,0.21565839435693065,0.0,7.576269760259049,0.0,5.136164175685668,auto,85.0,5,10.0,0.0,0.0,5.679317803630253,0.023550607450688606,0,0
1761250772.787482,18.369125843048096,7.640320626690917,0.0,5.137076788522224,0.6071969641017677,0.0,-0.002578425490956729,0.0,-0.022323148337713747,0.0,0.35,0.0,0.25778444160828873,0.0,7.640320626690917,0.0,5.137076788522224,auto,85.0,5,10.0,0.0,0.0,5.653109292769259,0.022323148337713747,0,0
1761250772.8934188,18.475062608718872,7.703768636824183,0.0,5.136574754570539,0.5919656627717822,0.0,-0.004198348600396126,0.0,-0.012751154186600578,0.0,0.35,0.0,0.3,0.0,7.703768636824183,0.0,5.136574754570539,auto,85.0,5,10.0,0.0,0.0,5.626462359469195,0.012751154186600578,0,0
1761250772.998968,18.58061170578003,7.765123009475522,0.0,5.135389144139098,0.5793272652708191,0.0,0.011669320242500636,0.0,-0.022113048723021993,0.0,0.35,0.0,0.3,0.0,7.765123009475522,0.0,5.135389144139098,auto,85.0,5,10.0,0.0,0.0,5.600615754050392,0.022113048723021993,0,0
1761250773.1035004,18.685144186019897,7.824577221670466,0.0,5.134557633173547,0.5637513853611272,0.0,-0.015981371128287652,0.0,-0.0177579766005236,0.0,0.35,0.0,0.3,0.0,7.824577221670466,0.0,5.134557633173547,auto,85.0,5,10.0,0.0,0.0,5.57639187583295,0.0177579766005236,0,0
1761250773.2074978,18.78914165496826,7.882173356577579,0.0,5.133901700356908,0.5517494077940037,0.0,0.02284979803117275,0.0,-0.008581587038365741,0.0,0.35,0.0,0.3,0.0,7.882173356577579,0.0,5.133901700356908,auto,85.0,5,10.0,0.0,0.0,5.55356969529666,0.008581587038365741,0,0
1761250773.316665,18.898308753967285,7.940929357589585,0.0,5.133642630086243,0.5303613559635829,0.0,-0.03007541679353365,0.0,0.03145113156304031,0.0,0.35,0.0,0.11958222442434965,0.0,7.940929357589585,0.0,5.133642630086243,auto,85.0,5,10.0,0.0,0.0,5.5311896156139175,0.031451131563040316,0,0
1761250773.420682,19.002325773239136,7.994754132740017,0.0,5.133079200675718,0.5181305999551133,0.0,-0.028192145895365704,0.0,0.02273644836476243,0.0,0.36276401227957683,0.0,0.16950793235977019,0.0,7.994754132740017,0.0,5.133079200675718,auto,85.0,5,10.0,0.0,0.0,5.510854114252428,0.02273644836476243,0,0
1761250773.5240421,19.10568594932556,8.047125799130768,0.0,5.1324308000817975,0.5065127693861586,0.0,-0.01311750184572465,0.0,0.02682370563073231,0.0,0.35,0.0,0.1407631229237562,0.0,8.047125799130768,0.0,5.1324308000817975,auto,85.0,5,10.0,0.0,0.0,5.4914081583915175,0.02682370563073231,0,0
1761250773.6271265,19.208770275115967,8.098100590162126,0.0,5.132660626339724,0.4939705005853637,0.0,-0.007122196455167503,0.0,0.03071863441473428,0.0,0.35,0.0,0.09630213466161794,0.0,8.098100590162126,0.0,5.132660626339724,auto,85.0,5,10.0,0.0,0.0,5.473703177038351,0.030718634414734276,0,0
1761250773.7301242,19.311768054962158,8.147753198300862,0.0,5.132881725103633,0.48189114107974007,0.0,-0.01298472332327356,0.0,0.030122690847206243,0.0,0.35,0.0,0.09130103156437433,0.0,8.147753198300862,0.0,5.132881725103633,auto,85.0,5,10.0,0.0,0.0,5.456857430637852,0.030122690847206243,0,0
1761250773.8346884,19.416332244873047,8.196967053699879,0.0,5.131768059426076,0.4691377189599007,0.0,-0.024799848900208983,0.0,0.035915637024458956,0.0,0.35,0.0,0.050286135735232024,0.0,8.196967053699879,0.0,5.131768059426076,auto,85.0,5,10.0,0.0,0.0,5.439298780283114,0.03591563702445896,0,0
1761250773.9402566,19.521900415420532,8.24531036621544,0.0,5.130513807700656,0.4576550654066011,0.0,-0.03168730765032555,0.0,0.03250603294792284,0.0,0.35,0.0,0.07074292716278066,0.0,8.24531036621544,0.0,5.130513807700656,auto,85.0,5,10.0,0.0,0.0,5.422278823697476,0.03250603294792284,0,0
1761250774.0449767,19.626620531082153,8.291950486139319,0.0,5.1296349270152355,0.4463980237208404,0.0,-0.02834858387761759,0.0,0.02506848176527649,0.0,0.35,0.0,0.18159049605689132,0.0,8.291950486139319,0.0,5.1296349270152355,auto,85.0,5,10.0,0.0,0.0,5.406531940741154,0.02506848176527649,0,0
1761250774.150725,19.73236870765686,8.337876819096195,0.0,5.127346452158037,0.43248997853247473,0.0,-0.041871737805359015,0.0,0.030082532005672274,0.0,0.35,0.0,0.09544106836699337,0.0,8.337876819096195,0.0,5.127346452158037,auto,85.0,5,10.0,0.0,0.0,5.390021809691998,0.030082532005672274,0,0
1761250774.2549174,19.83656120300293,8.381810917338642,0.0,5.125474018030674,0.4220622098077563,0.0,-0.032495482491323065,0.0,0.029010972581748895,0.0,0.42356722096586413,0.0,0.09622440540311888,0.0,8.381810917338642,0.0,5.125474018030674,auto,85.0,5,10.0,0.0,0.0,5.374850678553955,0.029010972581748895,0,0
1761250774.3614328,19.943076610565186,8.425684488951848,0.0,5.123532751034643,0.4159276111817328,0.0,0.006060015870190009,0.0,0.023674936564622225,0.0,0.35,0.0,0.2769550525498822,0.0,8.425684488951848,0.0,5.123532751034643,auto,85.0,5,10.0,0.0,0.0,5.359949363496956,0.023674936564622225,0,0
1761250774.467211,20.04885482788086,8.46822273725357,0.0,5.122204414792317,0.40179840344647394,0.0,-0.02710350074493656,0.0,0.014088506009566772,0.0,0.35,0.0,0.2154896227948924,0.0,8.46822273725357,0.0,5.122204414792317,auto,85.0,5,10.0,0.0,0.0,5.346337031050778,0.01408850600956677,0,0
1761250774.572312,20.153955936431885,8.50920575058635,0.0,5.121655481392699,0.392625936734599,0.0,0.0040536384457636986,0.0,0.014364147770260197,0.0,0.35,0.0,0.2644619919406909,0.0,8.50920575058635,0.0,5.121655481392699,auto,85.0,5,10.0,0.0,0.0,5.33421244085429,0.014364147770260197,0,0
1761250774.6784267,20.26007056236267,8.549552036449056,0.0,5.120948114893547,0.381468802743005,0.0,-0.007544208008764104,0.0,0.013811060712829438,0.0,0.46162541150347075,0.0,0.28535720506977724,0.0,8.549552036449056,0.0,5.120948114893547,auto,85.0,5,10.0,0.0,0.0,5.322396912144082,0.013811060712829438,0,0
1761250774.7830133,20.364657163619995,8.58830167923034,0.0,5.119033378862954,0.37168338684891195,0.0,-0.033286380289413386,0.0,0.01332802306569199,0.0,0.35,0.0,0.24572668603401274,0.0,8.58830167923034,0.0,5.119033378862954,auto,85.0,5,10.0,0.0,0.0,5.310121927298558,0.01332802306569199,0,0
1761250774.888869,20.470512866973877,8.626520164088326,0.0,5.116013833947681,0.36213437708567564,0.0,-0.04078771315032134,0.0,0.018635293075052177,0.0,0.3826468717366119,0.0,0.22142147039880528,0.0,8.626520164088326,0.0,5.116013833947681,auto,85.0,5,10.0,0.0,0.0,5.29717324700637,0.018635293075052177,0,0
1761250774.9948683,20.576512098312378,8.663753485271023,0.0,5.11268312007143,0.35338092434275403,0.0,-0.03603372400873271,0.0,0.01968997522572882,0.0,0.35,0.0,0.20786279715195022,0.0,8.663753485271023,0.0,5.11268312007143,auto,85.0,5,10.0,0.0,0.0,5.284418930628861,0.01968997522572882,0,0
1761250775.099761,20.68140482902527,8.699684616465971,0.0,5.111390955885498,0.34434147832483036,0.0,-0.010548236806550156,0.0,0.023717994396111552,0.0,0.35,0.0,0.1518371530286399,0.0,8.699684616465971,0.0,5.111390955885498,auto,85.0,5,10.0,0.0,0.0,5.274195445806243,0.023717994396111552,0,0
1761250775.2044508,20.786094665527344,8.734555139691624,0.0,5.109461933530676,0.3345093733681402,0.0,-0.027088237053820116,0.0,0.018695609605714657,0.0,0.42597979723889884,0.0,0.20082259104933434,0.0,8.734555139691624,0.0,5.109461933530676,auto,85.0,5,10.0,0.0,0.0,5.263834338643259,0.018695609605714657,0,0
1761250775.3096673,20.891311168670654,8.768700308533054,0.0,5.108258307506325,0.3264274314721722,0.0,-0.02081737253938823,0.0,0.02481239708150559,0.0,0.35,0.0,0.15578853118775893,0.0,8.768700308533054,0.0,5.108258307506325,auto,85.0,5,10.0,0.0,0.0,5.254560102084091,0.02481239708150559,0,0
1761250775.4156992,20.997343063354492,8.802133766006204,0.0,5.107768792715647,0.3172125123816355,0.0,-0.01881880765283783,0.0,0.024348047508966346,0.0,0.35,0.0,0.13210671641482102,0.0,8.802133766006204,0.0,5.107768792715647,auto,85.0,5,10.0,0.0,0.0,5.2463497361863265,0.024348047508966346,0,0
1761250775.5226963,21.104340076446533,8.834979515515164,0.0,5.106103559614448,0.30889109971275724,0.0,-0.025884740930981292,0.0,0.024822953810674293,0.0,0.35,0.0,0.13619562849988504,0.0,8.834979515515164,0.0,5.106103559614448,auto,85.0,5,10.0,0.0,0.0,5.237324344622607,0.02482295381067429,0,0
1761250775.6313186,21.21296238899231,8.867328802820882,0.0,5.103848100617797,0.2978908262608228,0.0,-0.027803082048552225,0.0,0.03276567526517179,0.0,0.4624610736645687,0.0,0.03139978725667659,0.0,8.867328802820882,0.0,5.103848100617797,auto,85.0,5,10.0,0.0,0.0,5.228021564138682,0.032765675265171795,0,0
1761250775.7346528,21.316296577453613,8.897204298847836,0.0,5.102191253787038,0.29184900814801157,0.0,-0.041504419034711235,0.0,0.028324977037205705,0.0,0.35,0.0,0.051602418986119454,0.0,8.897204298847836,0.0,5.102191253787038,auto,85.0,5,10.0,0.0,0.0,5.220010914615087,0.028324977037205705,0,0
1761250775.8440833,21.425727128982544,8.927838433478994,0.0,5.100938766787911,0.284503743747208,0.0,-0.02683503468799711,0.0,0.03046594452534474,0.0,0.447939472962462,0.0,0.06335107713046925,0.0,8.927838433478994,0.0,5.100938766787911,auto,85.0,5,10.0,0.0,0.0,5.212399325382174,0.03046594452534474,0,0
1761250775.94886,21.530503749847412,8.956622345050588,0.0,5.100491474401479,0.27548711983171925,0.0,-0.001013287404429613,0.0,0.017379406116113532,0.0,0.35,0.0,0.18737873915628783,0.0,8.956622345050588,0.0,5.100491474401479,auto,85.0,5,10.0,0.0,0.0,5.206116615221936,0.017379406116113532,0,0
1761250776.0538936,21.63553738594055,8.984571084678578,0.0,5.098869108236387,0.2684048194747197,0.0,-0.02994498653623356,0.0,0.017564755894609933,0.0,0.38501293812587584,0.0,0.19230742953843805,0.0,8.984571084678578,0.0,5.098869108236387,auto,85.0,5,10.0,0.0,0.0,5.198996255528384,0.017564755894609933,0,0
1761250776.1587427,21.740386486053467,9.011678099897113,0.0,5.096304627041209,0.2606840556282596,0.0,-0.027412423343959755,0.0,0.016751175744851358,0.0,0.4463723825467747,0.0,0.17333454205520377,0.0,9.011678099897113,0.0,5.096304627041209,auto,85.0,5,10.0,0.0,0.0,5.191252356592253,0.016751175744851354,0,0
1761250776.2633438,21.844987630844116,9.03764798705607,0.0,5.095157054765176,0.2542242869661162,0.0,-0.021484060771874723,0.0,0.013624955971025001,0.0,0.4359897709052835,0.0,0.2080974544579528,0.0,9.03764798705607,0.0,5.095157054765176,auto,85.0,5,10.0,0.0,0.0,5.185243177473992,0.013624955971025003,0,0
1761250776.3660495,21.947693347930908,9.06297266061244,0.0,5.094451539213085,0.2473931665644848,0.0,-0.02357851851561375,0.0,0.013418920427940729,0.0,0.35,0.0,0.2215281266761283,0.0,9.06297266061244,0.0,5.094451539213085,auto,85.0,5,10.0,0.0,0.0,5.179908949021238,0.013418920427940729,0,0
1761250776.4706213,22.052265167236328,9.087878343768168,0.0,5.0922498545502854,0.2409328005812633,0.0,-0.02657368721484247,0.0,0.015253798469200316,0.0,0.35,0.0,0.19009888832434238,0.0,9.087878343768168,0.0,5.0922498545502854,auto,85.0,5,10.0,0.0,0.0,5.173294356300877,0.015253798469200316,0,0
1761250776.5740602,22.155704021453857,9.1118042917693,0.0,5.090252694925193,0.2342373747487019,0.0,-0.025305233360651026,0.0,0.015441700829967547,0.0,0.35,0.0,0.19061352985443009,0.0,9.1118042917693,0.0,5.090252694925193,auto,85.0,5,10.0,0.0,0.0,5.167162094836258,0.015441700829967549,0,0
1761250776.6788924,22.260536193847656,9.135386287639339,0.0,5.0893360828411724,0.227658798532608,0.0,-0.014598901032475964,0.0,0.01984665944470779,0.0,0.47949105065934267,0.0,0.14030471666520147,0.0,9.135386287639339,0.0,5.0893360828411724,auto,85.0,5,10.0,0.0,0.0,5.162257126074913,0.01984665944470779,0,0
1761250776.7842422,22.365885972976685,9.158461535694947,0.0,5.0882925184509675,0.22267580692235275,0.0,-0.013375455624670025,0.0,0.022525168628264473,0.0,0.35,0.0,0.1397847723481313,0.0,9.158461535694947,0.0,5.0882925184509675,auto,85.0,5,10.0,0.0,0.0,5.157412892161049,0.022525168628264473,0,0
1761250776.891612,22.47325587272644,9.181378261764019,0.0,5.088065882964888,0.21691021611806466,0.0,-0.02078822732446285,0.0,0.024355896069123955,0.0,0.35,0.0,0.11523728284119392,0.0,9.181378261764019,0.0,5.088065882964888,auto,85.0,5,10.0,0.0,0.0,5.1534993916467835,0.024355896069123955,0,0
1761250776.996909,22.578552722930908,9.203261643403671,0.0,5.0872101361473225,0.2108662219210665,0.0,-0.028546198695562346,0.0,0.0206109739643215,0.0,0.35,0.0,0.13520589292666646,0.0,9.203261643403671,0.0,5.0872101361473225,auto,85.0,5,10.0,0.0,0.0,5.1492231431733355,0.0206109739643215,0,0
1761250777.1058908,22.68753457069397,9.225131013840668,0.0,5.08683518290866,0.20567050249333282,0.0,-0.016163219819200266,0.0,0.0253843644532954,0.0,0.4461449100822593,0.0,0.13979452340090548,0.0,9.225131013840668,0.0,5.08683518290866,auto,85.0,5,10.0,0.0,0.0,5.145513980526045,0.0253843644532954,0,0
1761250777.2089689,22.79061269760132,9.245528563902846,0.0,5.086911280119736,0.2006054557351826,0.0,-0.02469201502180525,0.0,0.017056955283347452,0.0,0.35,0.0,0.16662956668718062,0.0,9.245528563902846,0.0,5.086911280119736,auto,85.0,5,10.0,0.0,0.0,5.142557099313134,0.017056955283347452,0,0
1761250777.314535,22.896178722381592,9.265843235112195,0.0,5.08629959507481,0.1961419251825516,0.0,-0.010421771627320319,0.0,0.02122931890707866,0.0,0.35,0.0,0.14566371195465,0.0,9.265843235112195,0.0,5.08629959507481,auto,85.0,5,10.0,0.0,0.0,5.139010578534423,0.02122931890707866,0,0
1761250777.4232278,23.004871606826782,9.286042752233286,0.0,5.085649804931945,0.18819102508738605,0.0,-0.004094299287830307,0.0,0.02750778242166221,0.0,0.5258554179192502,0.0,0.06381884182223245,0.0,9.286042752233286,0.0,5.085649804931945,auto,85.0,5,10.0,0.0,0.0,5.135520313468048,0.02750778242166221,0,0
1761250777.5283692,23.110013008117676,9.305185146826426,0.0,5.084592886986555,0.18401075769455888,0.0,-0.029924764995707485,0.0,0.027010795276843486,0.0,0.35,0.0,0.0650643934097631,0.0,9.305185146826426,0.0,5.084592886986555,auto,85.0,5,10.0,0.0,0.0,5.131846890407476,0.027010795276843486,0,0
1761250777.6345236,23.216167449951172,9.323907287128758,0.0,5.084468591724723,0.18018421336932047,0.0,-0.026177003044394354,0.0,0.0260490042402606,0.0,0.35,0.0,0.07977064627565647,0.0,9.323907287128758,0.0,5.084468591724723,auto,85.0,5,10.0,0.0,0.0,5.129222379331274,0.026049004240260597,0,0
1761250777.740397,23.322040796279907,9.342091895363673,0.0,5.084461343082532,0.17470762632683645,0.0,-0.02425045868281179,0.0,0.02526991189622964,0.0,0.37243068109612415,0.0,0.07142075068030755,0.0,9.342091895363673,0.0,5.084461343082532,auto,85.0,5,10.0,0.0,0.0,5.126849931824296,0.025269911896229638,0,0
1761250777.8464713,23.428115129470825,9.359835918575339,0.0,5.084878881919369,0.17007516057389024,0.0,-0.021385472466300667,0.0,0.029531478992794444,0.0,0.35,0.0,0.03334122527984214,0.0,9.359835918575339,0.0,5.084878881919369,auto,85.0,5,10.0,0.0,0.0,5.12501739459837,0.029531478992794444,0,0
1761250777.9520998,23.533743619918823,9.377051072247268,0.0,5.084536800407147,0.165605576906104,0.0,-0.014976984826566014,0.0,0.030296668420362743,0.0,0.4554664162613505,0.0,0.024124794236082048,0.0,9.377051072247268,0.0,5.084536800407147,auto,85.0,5,10.0,0.0,0.0,5.122555987130138,0.030296668420362743,0,0
1761250778.0573046,23.638948440551758,9.393715460894905,0.0,5.083893856337806,0.1592395026137592,0.0,0.01138177688529459,0.0,0.032439315764472884,0.0,0.6079535968394669,0.0,-0.015770512051250088,0.0,9.393715460894905,0.0,5.083893856337806,auto,85.0,5,10.0,0.0,0.0,5.11991774200203,0.032439315764472884,0,0
1761250778.1635048,23.74514865875244,9.41012967093532,0.0,5.082742568273817,0.1564682644261583,0.0,-0.013047301959475557,0.0,0.03408881021497464,0.0,0.4934537045589879,0.0,-0.02135306019578702,0.0,9.41012967093532,0.0,5.082742568273817,auto,85.0,5,10.0,0.0,0.0,5.116856361131665,0.03408881021497464,0,0
1761250778.2691748,23.850818634033203,9.426034282551075,0.0,5.080815141159888,0.15270274221525285,0.0,-0.0364687610700347,0.0,0.03322310924247646,0.0,0.35,0.0,-0.03362721633235953,0.0,9.426034282551075,0.0,5.080815141159888,auto,85.0,5,10.0,0.0,0.0,5.113132028751676,0.033223109242476456,0,0
1761250778.3729928,23.954636573791504,9.441270380228302,0.0,5.078683210366209,0.14974926584685777,0.0,-0.04377942128925952,0.0,0.03241460330889423,0.0,0.35,0.0,-0.013760682171575434,0.0,9.441270380228302,0.0,5.078683210366209,auto,85.0,5,10.0,0.0,0.0,5.109324998399089,0.03241460330889423,0,0
1761250778.477968,24.059611797332764,9.456332888385807,0.0,5.078464886602463,0.14650779465783284,0.0,-0.026835745917390186,0.0,0.03518947620178313,0.0,0.35,0.0,-0.024710860686705693,0.0,9.456332888385807,0.0,5.078464886602463,auto,85.0,5,10.0,0.0,0.0,5.107482700186569,0.03518947620178313,0,0
1761250778.584859,24.166502714157104,9.471268197225102,0.0,5.077562703630537,0.14138937906579918,0.0,-0.02906340465925529,0.0,0.036681318081629825,0.0,0.3967516607537405,0.0,-0.05096279800101762,0.0,9.471268197225102,0.0,5.077562703630537,auto,85.0,5,10.0,0.0,0.0,5.105017172210633,0.036681318081629825,0,0
1761250778.6909816,24.27262544631958,9.485631564234785,0.0,5.07602960644559,0.13766756741885725,0.0,-0.032538616580188626,0.0,0.035590041010844065,0.0,0.35,0.0,-0.052333442009606636,0.0,9.485631564234785,0.0,5.07602960644559,auto,85.0,5,10.0,0.0,0.0,5.102024250552296,0.035590041010844065,0,0
1761250778.7964854,24.378129243850708,9.499549917049578,0.0,5.074599061241479,0.13226918829583745,0.0,0.01218207645273469,0.0,0.03511234901737263,0.0,0.6354534334111855,0.0,-0.06576117541684112,0.0,9.499549917049578,0.0,5.074599061241479,auto,85.0,5,10.0,0.0,0.0,5.099216206229932,0.03511234901737263,0,0
1761250778.9023254,24.48396921157837,9.509522020816519,0.0028232444021617613,5.113344804776599,0.005718456793570834,0.11612350619470008,0.905617897911513,0.16019532790578295,0.1538026710190164,0.010115192734643178,1.0,0.3,0.3,-0.037584497790238786,9.509522020816519,0.0028232444021617613,5.113344804776599,auto,85.0,20,0.0,10.0,0.0,14.714647370548702,0.22230636927331632,1,0
1761250779.0071752,24.58881902694702,9.484926964552828,0.04076339061154371,5.258789149717225,-0.5552837209310992,0.6901598455745747,1.8379718723177934,0.3928993106196617,0.3886718275189475,0.030231486866782717,1.0,0.10557056880392429,0.12461624402187965,-0.10043513404175478,9.484926964552828,0.04076339061154371,5.258789149717225,auto,85.0,20,0.0,10.0,0.0,14.724302926993463,0.5534885731345321,1,0
1761250779.1117039,24.693347692489624,9.387484533992176,0.1515164203599513,5.486056209706879,-1.2431849352744073,1.3425023636207651,2.4447560405959354,0.2604298105029792,0.2940431896865657,0.03965269689077229,0.8158049624625221,-0.3,-0.3,-0.10482495449346164,9.387484533992176,0.1515164203599513,5.486056209706879,auto,85.0,20,0.0,10.0,0.0,14.670184301175134,0.39478781639049954,1,0
1761250779.21477,24.796413898468018,9.242334389598739,0.30426022912787953,5.7611107609765435,-1.5473709256952255,1.618901421903633,2.9168112350999533,0.23735340329545193,0.20849436751762776,0.039623434250997056,1.0,0.17679028682690676,0.3,-0.0852994198387796,9.242334389598739,0.30426022912787953,5.7611107609765435,auto,85.0,20,0.0,10.0,0.0,14.581444094254538,0.3183968528179137,1,0
1761250779.3238251,24.905468940734863,9.055363145805059,0.4961769330860351,6.099051968786476,-1.8532203473993627,1.8486447479911685,3.338979593864445,0.05064432433963322,0.10966369652968687,0.03387246506279405,1.0,-0.3,-0.3,-0.0600364753140608,9.055363145805059,0.4961769330860351,6.099051968786476,auto,85.0,20,0.0,10.0,0.0,14.47482951566507,0.12545245240250757,1,0
1761250779.4285936,25.010237455368042,8.860813043483441,0.6887229977805486,6.463256855874383,-1.8341825113385006,1.847464828685712,3.618195325344865,0.10843265013895294,0.01747304778642962,0.026614617125061406,0.35,0.017974106331435206,0.3,-0.03992691046595679,8.860813043483441,0.6887229977805486,6.463256855874383,auto,85.0,20,0.0,10.0,0.0,14.387062813119098,0.11301010954696503,1,0
