timestamp,simulation_time,position_x,position_y,position_z,velocity_x,velocity_y,velocity_z,attitude_roll,attitude_pitch,attitude_yaw,control_throttle,control_roll,control_pitch,control_yaw,estimated_position_x,estimated_position_y,estimated_position_z,flight_mode,battery_level,setpoint_altitude,setpoint_position_x,setpoint_position_y,setpoint_position_z,position_error,attitude_error
1760994955.9488714,0.17605829238891602,-8.839605933034665e-05,-4.822493366481661e-05,9.930768279027918,-0.0009548869393917125,-0.002661239075332619,-0.7939702687082314,-0.02131081112397123,0.0006966664877699666,0.01599113065658263,0.62,-0.01629757872417373,0.0001765407666789768,0.04543031981489923,-0.06749895569910509,0.108258989369274,-2.6978846413478017,stabilize,85.0,10.0,0.0,0.0,-10.0,7.303229753257393,0.033426122973246514
1760994956.051906,0.27909302711486816,-7.231041748042804e-05,-0.0012108554348385999,9.824278980718685,0.0028604354171790506,-0.019638934753207344,-1.2626243807736244,-0.021395126563440715,-0.012833085557703568,0.02799551512572208,0.62,-0.010770740492650664,0.025071605512812567,-0.09565487065175643,0.1214695584518466,0.007502659770534212,2.3692825797735235,stabilize,85.0,10.0,0.0,0.0,-10.0,12.369881271937208,0.04294863311796232
1760994956.1590278,0.3862147331237793,0.00045437217793120203,-0.0038595771855397918,9.663156399323778,0.005718796463656638,-0.031554195938079815,-1.7437753323953908,-0.034602212007194356,-0.0015844682145191792,0.03137114044612013,0.62,0.022590743534986118,-0.005303908457345657,-0.07817480282575938,0.15253747834145623,-0.05870670543106919,5.787534621507,stabilize,85.0,10.0,0.0,0.0,-10.0,15.788380651125799,0.055619768231392454
1760994956.2663593,0.4935462474822998,0.0011661070163958116,-0.008261042377145977,9.4493010626824,0.00709820786874134,-0.04778065642662121,-2.2226472648766804,-0.016684987361591207,-0.00034903962769470556,0.020999640089025065,0.62,-0.017015982342582305,-0.0078015596733069445,0.05590400910953811,0.036606089163015346,0.022552120196225593,7.602418020624574,stabilize,85.0,10.0,0.0,0.0,-10.0,17.602470530487984,0.005080943415341189
1760994956.3670194,0.5942063331604004,0.0019294232982970396,-0.01355333260805241,9.202849285374235,0.008410028605013614,-0.05833452300487872,-2.673734968426025,-0.025260543928879973,-0.004442953267054153,0.011445780284407141,0.62,0.0022205664537274378,-4.783997644871739e-05,0.006905599667093306,0.038786483215550886,0.027112351447542957,8.493079855191532,stabilize,85.0,10.0,0.0,0.0,-10.0,18.493140403981474,0.02277053959634261
1760994956.4758046,0.7029914855957031,0.0030123641468127304,-0.020695367132035864,8.885678396990135,0.011387952180026896,-0.07290422899622372,-3.1569667011216604,-0.02520593386695186,-0.004114102814716858,-0.003071839276580226,0.62,-0.0016952495949912724,-0.0006595268785760096,-0.03839709230235722,-0.057080224846552834,0.168694069141832,8.4437628364847,stabilize,85.0,10.0,0.0,0.0,-10.0,18.44462261499341,0.03415704019505963
1760994956.5857446,0.8129315376281738,0.004369431948940275,-0.029394299349071847,8.515950568185074,0.013950576836715644,-0.0869619823957401,-3.631875087644026,-0.02754153798567669,-0.00816172653345402,-0.010342414607874254,0.62,0.0033126117523830326,0.0052171317095925426,-0.03135531070330936,-0.054929560408411814,0.1745585375043437,8.78989206939192,stabilize,85.0,10.0,0.0,0.0,-10.0,18.790783164067953,0.005616349867693906
1760994956.692441,0.9196279048919678,0.006247156788532473,-0.03956843311160376,8.099421041699262,0.021958862718585916,-0.10162108707301566,-4.101161283904984,-0.026663148978365935,-0.016689892368800675,-0.010815015323385704,0.62,-0.013280561759224669,0.005818035116453705,0.0774250262235093,0.24744899498089062,0.17953615878684326,8.611768824015977,stabilize,85.0,10.0,0.0,0.0,-10.0,18.614279545446877,0.04966421396841162
1760994956.8010192,1.0282061100006104,0.009044889352576156,-0.05154562699637945,7.62865540461818,0.029857750244540415,-0.11907256840551317,-4.568927848125236,-0.026182104747343414,-0.01931565556697178,-0.009415984487427483,0.62,0.014184597346826483,0.0033140158947263477,-0.04524228807622205,0.2997094289546216,0.4747409093223879,8.076948733440862,stabilize,85.0,10.0,0.0,0.0,-10.0,18.08566504677773,0.019126260473472403
1760994956.9087238,1.1359107494354248,0.012934310075671227,-0.06490871856201574,7.112347733579185,0.04275989318668864,-0.12926227412154967,-5.019035482634358,-0.030939212868144765,-0.02399903391983346,-0.02178262908312729,0.62,0.00012873730838079776,0.012075595913649581,0.15,0.2515709027952325,0.01236823874805747,7.696090071107899,stabilize,85.0,10.0,0.0,0.0,-10.0,17.69788249190356,0.06955266675807177
1760994957.0174515,1.244638442993164,0.018236689049838523,-0.08014335216788697,6.542209977180069,0.05517317783213915,-0.14907019777545405,-5.469743265399339,-0.017032025000044696,-0.02913849633050876,-0.028191338979440123,0.62,-0.02800255215325709,-0.0009861606181521484,-0.0031914421510702965,0.5161222169855764,0.35632026865856603,7.296311468009411,stabilize,85.0,10.0,0.0,0.0,-10.0,17.307678546677394,0.017204768797176497
1760994957.122743,1.3499298095703125,0.024959314031515203,-0.09632184155069887,5.943478770221294,0.0725430233466263,-0.16092056752879136,-5.902278957151399,-0.039279990016733435,-0.033585635337247746,-0.027510532351432276,0.62,-0.0006679987525111381,-0.0325562765365502,-0.025357062699473677,0.7790459443470816,-0.22330440427809478,6.8656238637568805,stabilize,85.0,10.0,0.0,0.0,-10.0,16.885083528194322,0.00629835402303373
1760994957.2304394,1.4576263427734375,0.03399714812543521,-0.11494580141295593,5.284305061727698,0.09700154188711091,-0.1845425861283975,-6.33840727697287,-0.0384201075638024,-0.049255078193190006,-0.03090096968350669,0.62,0.004017986898537322,0.005764203247741493,0.010940366841516322,0.9335651693026309,0.02789301450301862,6.026110805827362,stabilize,85.0,10.0,0.0,0.0,-10.0,16.053303382987867,0.021512780143024712
1760994957.337453,1.5646398067474365,0.04557474592457023,-0.13570593721242225,4.583221551752014,0.11802956971190219,-0.20343804686188927,-6.761840424584748,-0.03981010502248944,-0.03783258182356814,-0.032584542829784645,0.62,0.00295128994739684,-0.0098444679322532,0.061874212673477175,0.7310350500891993,-0.13378475781712876,5.567612643852571,stabilize,85.0,10.0,0.0,0.0,-10.0,15.585341639980866,0.04410306892691507
1760994957.444189,1.6713759899139404,0.059361336513785855,-0.15856471062948904,3.8391887593833616,0.14106813418462505,-0.22396717546371825,-7.179136970856544,-0.034493440357139624,-0.04506999894818219,-0.022761602470557037,0.62,-0.014170350081312042,0.004941172770639461,0.07185892725501929,0.7325115067347153,-0.1319203890403584,5.298570688465734,stabilize,85.0,10.0,0.0,0.0,-10.0,15.31666547282816,0.053848794887508634
1760994957.5519772,1.7791640758514404,0.07563681415821111,-0.18358835132387594,3.0469025794964715,0.16192493665844507,-0.2429836905124101,-7.5905124671282485,-0.03871307016159691,-0.041440439827893735,-0.00964026762792866,0.62,0.009009497158766918,-0.011042343955213677,0.006680355863664895,0.7327550895356484,-0.1278725722034788,4.8906450813400255,stabilize,85.0,10.0,0.0,0.0,-10.0,14.909211661063713,0.02155697383309818
1760994957.6604652,1.8876521587371826,0.09441415734673433,-0.2108017786501516,2.2052409832426925,0.1857767943288707,-0.2606760109025313,-7.996068949962874,-0.03774396429005395,-0.04178748337096329,0.004114234730819499,0.62,-0.010321619624115694,-0.006602061268840694,0.034546214969109625,0.7315143103646254,-0.12175489184978408,4.491484327087879,stabilize,85.0,10.0,0.0,0.0,-10.0,14.510446424634605,0.02944648155422658
1760994957.7684233,1.995610237121582,0.11577468878198463,-0.24052098093534793,1.3121285478817086,0.20569479730943244,-0.2876084330257135,-8.392742177632531,-0.06210076359865552,-0.030863346087056834,0.017191729232090495,0.62,0.014936917812615254,0.00399070550970285,-0.033164401185047106,0.27999765338701105,-0.596448233146819,3.4433401968042747,stabilize,85.0,10.0,0.0,0.0,-10.0,13.459477880948421,0.02718986146950878
1760994957.877392,2.104578971862793,0.13897070976081835,-0.2734295749771357,0.5,0.22239488863016002,-0.3152018912539272,-0.0,-0.05132186555281209,-0.0478511085551236,0.020210538517719766,0.62,-0.02238439260199245,0.042132771600769905,-0.045557766725840415,0.3176550448851876,-0.44289834820454416,2.422911634817481,stabilize,85.0,10.0,0.0,0.0,-10.0,12.434862168953337,0.04373880834780283
1760994957.9836373,2.2108242511749268,0.16386426659337197,-0.30863438298210044,0.5,0.2434937429576243,-0.34837221246363953,-0.0,-0.05958454557753088,-0.02872249909907236,0.013361672404567324,0.62,0.005551932110210811,-0.03208641201814619,-0.02564177730626182,0.491583183368536,-0.4426052364089801,1.9385235199401358,stabilize,85.0,10.0,0.0,0.0,-10.0,11.956834750787149,0.03546715768259532
1760994958.0921743,2.3193612098693848,0.1913846617049965,-0.3479562139098363,0.5,0.26836394818917,-0.37992612093682987,-0.0,-0.05865372852780837,-0.04896737449225269,0.005302868402034608,0.62,0.005781373216698828,0.027341324963496595,-0.025478699454062923,0.4127189736918339,-0.4448414013662278,1.4391044459401192,stabilize,85.0,10.0,0.0,0.0,-10.0,11.455187966539079,0.03287514014634507
1760994958.201982,2.429168939590454,0.22208577762590745,-0.3915016565556646,0.5,0.28851660275427304,-0.41195300398388673,-0.0,-0.051588362470179505,-0.032797024093251734,-0.005547265270725528,0.62,-0.01388427738315468,-0.01350594626217268,-0.02190832163514686,0.4297338552609991,-0.46547896746968115,1.4388782172559773,stabilize,85.0,10.0,0.0,0.0,-10.0,11.456407671025303,0.03478421596308112
1760994958.3106244,2.537811279296875,0.25480506679378306,-0.4381670304595176,0.5,0.311726468086936,-0.4436009911370816,-0.0,-0.055189324769674905,-0.04090629706653491,-0.01828929419164142,0.62,-0.00028920073198606213,0.009832712757139525,0.04356081045470735,0.44488470741751585,-0.4836492177684414,1.4187569831339415,stabilize,85.0,10.0,0.0,0.0,-10.0,11.437650545833797,0.020747286430068564
1760994958.4149392,2.6421260833740234,0.28830524104289623,-0.4858477014493251,0.5,0.33004763997681663,-0.46850372195726964,-0.0,-0.03754297375739551,-0.033542601797571084,-0.026548346901347754,0.62,-0.0289466717442066,0.0022480468504999327,0.15,0.40919436977030116,-0.001477570458413565,1.484926394580334,stabilize,85.0,10,0.0,0.0,-10.0,11.492213733845807,0.10882432159666743
1760994958.5232837,2.7504706382751465,0.3250113916636483,-0.5380941943022743,0.5,0.3468355008459051,-0.4986857094467109,-0.0,-0.060722679078728,-0.02687362437320329,-0.028495106709208955,0.62,0.029640355458794322,-0.006297471132247254,-0.09432963667817924,0.4089637426963127,-0.456285076215399,1.3564009617475246,stabilize,85.0,10,0.0,0.0,-10.0,11.372919159898975,0.04401908176681139
1760994958.6325705,2.859757423400879,0.3635449060067765,-0.5939779016736033,0.5,0.36277503477922773,-0.528290533748278,-0.0,-0.057633565754612315,-0.03606612770048073,-0.039956857203255994,0.62,6.718665510494436e-05,-0.000455061069156303,0.04676137620920933,0.4941135008281813,-0.6087596300533114,1.2397103965289429,stabilize,85.0,10,0.0,0.0,-10.0,11.267023841135872,0.01928880381510251
1760994958.7407904,2.967977285385132,0.40405218135576265,-0.6533737153529828,0.5,0.3827664977997164,-0.5634071186419883,-0.0,-0.05217668109394953,-0.0393533111658081,-0.045100453808681724,0.62,-0.01870556201638064,0.00687413611511095,-0.03974476725954635,0.5131819625033728,-0.6369569069592262,1.401826329594991,stabilize,85.0,10,0.0,0.0,-10.0,11.431129142749088,0.015207461618587995
1760994958.8507714,3.077958345413208,0.4473322413186478,-0.7171574723894127,0.5,0.4061586368761689,-0.599675433733934,-0.0,-0.07932418954789769,-0.05923793483326657,-0.04843840818578966,0.62,0.04740595635366629,0.02067338924760577,0.05064218148126754,0.9981620986430876,-1.4236572997423809,1.336669183921259,stabilize,85.0,10,0.0,0.0,-10.0,11.469228215880406,0.05732054453676555
1760994958.9606524,3.1878392696380615,0.4937073798726198,-0.785362578632077,0.5,0.4358685354345781,-0.6392806957495055,-0.0,-0.0641584935690941,-0.040462678706987824,-0.0462771289190954,0.62,-0.02380168085236241,-0.02647176583236695,0.11629310819439154,1.0306018128133967,-1.6880041454709722,1.2502558400864325,stabilize,85.0,10,0.0,0.0,-10.0,11.42277350555023,0.08033775581776634
1760994959.0694776,3.2966644763946533,0.5424038470993969,-0.8572945619442544,0.5,0.46136719436573476,-0.6833703234328947,-0.0,-0.07090503769001526,-0.05422061367669023,-0.03268413712159064,0.62,-0.018886655111717488,0.06675769940815798,-0.020250010722838784,0.4176105249542955,-2.024974406957389,1.267833804521813,stabilize,85.0,10,0.0,0.0,-10.0,11.455959084498755,0.05031780425250747
1760994959.1774108,3.404597759246826,0.5931034251577478,-0.933091564348279,0.5,0.47425846603142074,-0.7218974411333446,-0.0,-0.07803996992706505,-0.02187701385020161,-0.019140538619603915,0.62,0.015033165799496012,-0.028583132522994444,-0.03661005724584718,0.44384792501205794,-1.8454107312851367,1.302286275809227,stabilize,85.0,10,0.0,0.0,-10.0,11.460550458334254,0.04076918139679545
1760994959.285614,3.512800931930542,0.6454189938121296,-1.0135782098318395,0.5,0.4926523425240164,-0.764154432534286,-0.0,-0.06640077962817667,-0.02247608598644385,-0.01159743352741202,0.62,-0.02038737070246707,-0.01284387615315356,-0.001833648893070118,0.3812779678515674,-1.8181632171252735,1.061116560809262,stabilize,85.0,10,0.0,0.0,-10.0,11.21603271859909,0.030719397143393612
1760994959.3945613,3.621748208999634,0.6994210394180084,-1.0985066007781672,0.5,0.5056996964095988,-0.8028763342124089,-0.0,-0.07234268428326471,-0.03979133378814929,-0.0009097287533270202,0.62,0.01994583885938517,0.02392538779245123,0.09102059262071668,0.5922928347744909,-1.7043002314557583,0.9377383436945365,stabilize,85.0,10,0.0,0.0,-10.0,11.085556826618637,0.06402957897668636
1760994959.5086346,3.735821485519409,0.7585731440875473,-1.192682000830333,0.5,0.5244127829250778,-0.8393572204421726,-0.0,-0.06141095242469858,-0.024696239763133076,0.006708088599054088,0.62,-0.018164112444766522,-0.03534063292602396,-0.010687672442400382,0.6306561674007225,-1.7582282377281728,1.067393343030071,stabilize,85.0,10,0.0,0.0,-10.0,11.223915945282716,0.029416141109004836
1760994959.6170478,3.8442347049713135,0.8163670685598471,-1.2857238064166006,0.5,0.5408143490501899,-0.8771700137635356,-0.0,-0.06085363077455721,-0.012782438041984657,0.014980092915864726,0.62,-0.0013947521494379908,-0.012838973239928839,-0.029178201158721308,-0.062180859667919273,-1.4140131079855387,0.9092433929430366,stabilize,85.0,10,0.0,0.0,-10.0,11.000676839873774,0.03208104467023114
1760994959.725185,3.952371835708618,0.8751242210031331,-1.3821688203786353,0.5,0.5487140087848882,-0.9062525473952326,-0.0,-0.05593306943533778,-0.03402497851203868,0.022561808466231213,0.62,0.0018697147164449892,0.028555218439374995,0.07585309566284777,0.13639496464680562,-1.3191389416476382,0.9864761761134128,stabilize,85.0,10,0.0,0.0,-10.0,11.066227446698349,0.04816026208150522
1760994959.8332193,4.06040620803833,0.9353771151016074,-1.4817050890044314,0.5,0.5636056197259007,-0.9359164859010795,-0.0,-0.05076413614761079,-0.008205590697759986,0.036823372846166096,0.62,-0.005694329923315416,-0.03970129397660296,-0.1086134989047702,-0.0806135220691491,-1.3535221532579167,0.9892683191832751,stabilize,85.0,10,0.0,0.0,-10.0,11.072603079235954,0.04900517398974139
1760994959.94046,4.167646884918213,0.9960003136034642,-1.5831114882437751,0.5,0.5748705366769226,-0.9653974197199839,-0.0,-0.06299459586515531,-0.026769213299565966,0.042527635246615014,0.62,0.015584035305795985,0.01772101130205944,-0.04641643764896697,0.07506420559766575,-1.3458046710418459,0.955150095691398,stabilize,85.0,10,0.0,0.0,-10.0,11.037759667010661,0.046234400680607815
1760994960.04068,4.267866849899292,1.0544391669835333,-1.6818550614366203,0.5,0.5840584572136637,-0.9944268415341164,-0.0,-0.057826966553185546,-0.013231708703492603,0.04412845567462504,0.62,-0.024427780401218502,-0.003751899219472053,-0.10052874608290768,-0.10578012525256851,-1.5928373358356618,0.923115497531638,stabilize,85.0,10,0.0,0.0,-10.0,11.039147267146424,0.06652201113583833
1760994960.1480517,4.375238656997681,1.1177871139796347,-1.7905263413472985,0.5,0.5983690139344363,-1.0303263171186847,-0.0,-0.06360616349724345,-0.03443734323562449,0.03828309036915228,0.62,0.00852041085610152,0.037784713578974165,0.03763227069686371,0.4469431561630384,-1.3672186791626313,0.9396901257913827,stabilize,85.0,10,0.0,0.0,-10.0,11.033850875819814,0.039126559078239115
1760994960.256246,4.48343300819397,1.183259364176941,-1.903637732570669,0.5,0.6094152360064078,-1.0603705375432915,-0.0,-0.05981158885354721,-0.016139495168428594,0.0320380888546316,0.62,0.013224548281491909,-0.025833576027567764,-0.07131337340213327,0.4929620704850027,-1.4435450171701094,0.9780667625950438,stabilize,85.0,10,0.0,0.0,-10.0,11.083536604510652,0.062334726467851855
1760994960.5619054,4.789092302322388,1.333234928922569,-2.1633810456676343,0.5,0.2969333356453991,-0.4079815919848234,-0.0,2.1967425400119693,-2.665037541760203,-0.0009417937147643898,0.62,0.12175574519674312,0.2,0.016254515873874085,0.6918513940206009,-1.6595893676534528,2.187520315763692,stabilize,85.0,10,0.0,0.0,-10.0,12.319437757778939,0.13571538256058377
1760994960.66651,4.893697023391724,1.3422477589598225,-2.1922306730429284,0.5,-0.14076136977497725,-0.24523114808488025,-0.0,-2.90329678758309,-0.5502484207019694,-0.014382317880543555,0.62,-0.2,-0.2,-0.011040264753442688,0.7171775335626247,-1.7212814828494192,1.657105781843446,stabilize,85.0,10,0.0,0.0,-10.0,11.805306805286136,2.3456481507736453
1760994960.7734833,5.0006701946258545,1.3247329149709706,-2.2322378658519613,0.5,-0.07914412563189023,-0.5288452326423073,-0.0,-2.5371082063076793,0.8086161104487525,-0.025931024184446358,0.62,-0.2,0.2,0.03664428137062098,0.4773107082871761,-1.9416350424875521,1.2010739168368685,stabilize,85.0,10,0.0,0.0,-10.0,11.378129417479151,3.2631797975731316
1760994960.8820734,5.109260320663452,1.339218599128749,-2.304395795353011,0.5,0.3560479687992479,-0.7665196505762513,-0.0,-3.056022692581967,2.628115979393103,-0.02637394330206239,0.62,-0.2,0.2,0.07723712133153394,0.7568609015959831,-2.2383902329494814,1.4106770321700428,stabilize,85.0,10,0.0,0.0,-10.0,11.652758454195352,1.5455410670237808
1760994960.9893546,5.216541528701782,1.3732748958753158,-2.379331499132044,0.5,0.15730886413344086,-0.5350622837062817,-0.0,2.3060161000296477,-1.622905885061572,-0.013387202894578799,0.62,0.2,-0.2,-0.05501045062999987,1.2790469681915588,-2.8717368920136446,1.3703969259353117,stabilize,85.0,10,0.0,0.0,-10.0,11.79698097722936,0.9869741605426002
1760994961.0966525,5.323839426040649,1.3732843828490364,-2.4095939211031134,0.5,-0.11023627391754241,-0.024784299354975454,-0.0,2.1665476007166133,-0.44880202894974613,-0.0018418414509963085,0.62,0.2,-0.2,-0.10884050897664574,1.076391078185981,-2.8954567903906994,1.4850169841531717,stabilize,85.0,10,0.0,0.0,-10.0,11.89318724751716,2.19234613482602
1760994961.2050557,5.4322426319122314,1.355598425295271,-2.3877105875341167,0.5,-0.2031527740562554,0.40799266709844967,-0.0,2.4449359973555134,-0.15752430726980993,0.006064639959022053,0.62,-0.2,-0.2,0.12171651538588424,1.2722140310657646,-3.183600104620846,1.5534622569936707,stabilize,85.0,10,0.0,0.0,-10.0,12.05140358177253,2.5450850768559605
1760994961.3131838,5.54037070274353,1.3272092465238563,-2.3205037857959145,0.5,-0.34964323091977856,0.8543238051929695,-0.0,2.1613591026045404,-0.7779027472235136,0.01717876735106598,0.62,0.2,-0.2,0.00837501236120695,2.761042480586269,-3.0062369780307985,1.5500826819433169,stabilize,85.0,10,0.0,0.0,-10.0,12.250111277348001,1.958597504579574
1760994961.4224665,5.649653434753418,1.2712034606131333,-2.201321549737015,0.5,-0.7047706700313731,1.32721446792847,-0.0,2.2760869172373934,-2.0800341316860345,0.029080765898326935,0.62,-0.18799580351244657,0.2,-0.14280964094315132,3.1761840802236265,-3.2696888611052373,1.511765016321673,stabilize,85.0,10,0.0,0.0,-10.0,12.381427395535185,0.6654732012253132
1760994961.5322154,5.759402275085449,1.1789702791439116,-2.0294528964782503,0.5,-0.9420771637190163,1.8133500536587563,-0.0,2.1571697290360614,-2.6721174914323673,0.031364695266995236,0.62,0.083873468586345,0.2,0.10322469571512566,3.57190947422514,-3.458015033624564,1.7885267916440248,stabilize,85.0,10,0.0,0.0,-10.0,12.793973940185348,0.047268137896888086
1760994961.6406162,5.86780309677124,1.0664050540228505,-1.8059554648504024,0.5,-1.142328993367926,2.2860821145565855,-0.0,2.1793583757841373,-2.353611762054589,0.034960429549298976,0.62,-0.016687667601896522,-0.2,-0.05528813097776424,2.3368508740781566,-2.953811148272162,1.4820717106036958,stabilize,85.0,10,0.0,0.0,-10.0,12.084032566771013,0.3113762981004894
1760994961.749523,5.976709842681885,0.9278535467342317,-1.530453339228397,0.5,-1.3983675659306214,2.7709800794352546,-0.0,2.1842421228423667,-2.4273412702232093,0.031346652812157184,0.62,-0.03307345844360618,-0.16983782915376103,-0.15,1.983017445534898,-2.459237297359599,1.4674436446680117,stabilize,85.0,10,0.0,0.0,-10.0,11.894640390430352,0.3028587753605382
1760994961.858328,6.085515022277832,0.7652210102125842,-1.2036189140109395,0.5,-1.5786302522611204,3.241039238792473,-0.0,2.141964895259782,-2.617506664796219,0.022098008645333157,0.62,0.07841478329543011,0.1666737298664593,-0.056306388005331644,1.532961447484264,-2.544657416269839,1.5413905536964319,stabilize,85.0,10,0.0,0.0,-10.0,11.917589860311663,0.09383297151047168
1760994961.966636,6.193822860717773,0.5844365699012738,-0.8273958645467216,0.5,-1.7610722776485206,3.702018631880842,-0.0,2.1826898504509575,-2.605460690146877,0.0077279263364789606,0.62,-0.04114553627394517,-0.006259174472509288,-0.052094116637285075,1.3627426895044727,-2.099912206636495,1.7232982336801679,stabilize,85.0,10,0.0,0.0,-10.0,11.987594437133222,0.1148325208554027
1760994962.0754235,6.302610397338867,0.3850025807092795,-0.39962542227855224,0.5,-1.903630443848103,4.16024279033789,-0.0,2.1841963348828157,-2.609830066390308,-0.01731207647153906,0.62,-0.004969042906742103,-0.11197777249814599,-0.07268473703071199,1.504318249139089,-1.2177301604316424,1.7133069875204567,stabilize,85.0,10,0.0,0.0,-10.0,11.872127051300172,0.10846731365725859
1760994962.1844666,6.411653518676758,0.16970345769025477,0.07853316721541928,0.5,-2.0372576802923485,4.60779056540211,-0.0,2.1896873223079485,-2.6867392129786736,-0.043393947298988815,0.62,0.017856411802769208,0.0980431168297579,0.09006348636515468,0.8370611392168467,-0.3969816581124155,1.4588535352506486,stabilize,85.0,10,0.0,0.0,-10.0,11.496242435247744,0.029642415834912325
1760994962.2920089,6.519195795059204,-0.05550356256068924,0.5973623817390513,0.5,-2.1534050111077296,5.039108193080734,-0.0,2.224110734642569,-2.651782624304261,-0.058651714513758335,0.62,0.00018470019481612015,-0.01033657293628272,0.05058249274164757,-0.08814648423399957,0.866620552214717,1.4114115473878992,stabilize,85.0,10,0.0,0.0,-10.0,11.444610718065585,0.06163764091508091
1760994962.4021974,6.629384279251099,-0.2982151763146315,1.173195671864821,0.5,-2.27235158507141,5.459964967903418,-0.0,2.2331933938991106,-2.648228084582112,-0.06328054232439367,0.62,0.025138813063389272,-0.03786016742066158,0.1116620379024128,-0.1273546328041712,1.8096863369078986,1.4716867817476142,stabilize,85.0,10,0.0,0.0,-10.0,11.614249069957589,0.08583077179341525
1760994962.5109005,6.73808741569519,-0.5529252346467929,1.7920422617091076,0.5,-2.39210064168313,5.868027153996253,-0.0,2.262848856563889,-2.6648162686779093,-0.0557667344954024,0.62,-0.018383495433556378,0.021983906999981984,-0.03528263555644498,-0.553851044828258,2.7329534561277384,1.638937129761819,stabilize,85.0,10,0.0,0.0,-10.0,11.968318306419086,0.07016535839732002
1760994962.622157,6.84934401512146,-0.8248334554029872,2.4640616231284946,0.5,-2.5202683658545406,6.267426518640909,-0.0,2.270611717405193,-2.6542842825894843,-0.044038242359218216,0.62,-0.004859287698992581,-0.0033541043112788344,0.0519244708546918,-1.079142578753271,3.249172725367308,1.4797959741577564,stabilize,85.0,10,0.0,0.0,-10.0,11.97945690391838,0.09489510535934334
1760994962.7292473,6.95643424987793,-1.1029620357386687,3.158807037143769,0.5,-2.650181453495662,6.642058393213682,-0.0,2.2833848867206425,-2.658718307991094,-0.019715786609833388,0.62,0.012382103256141162,0.0019467263323941584,-0.09721182975661778,-1.2582152820154404,4.187299436531327,1.553607921408249,stabilize,85.0,10,0.0,0.0,-10.0,12.35323594321343,0.08631603632334912
1760994962.8375685,7.064755439758301,-1.3978461881083997,3.897770961102994,0.5,-2.796191588335923,6.998644187720008,-0.0,2.2961962904299336,-2.6464948164496076,0.0021866489953943744,0.62,0.012700514322841704,0.008436918118843503,0.016480938086965793,-1.8329187512637408,5.019252114406534,1.6289081525428843,stabilize,85.0,10,0.0,0.0,-10.0,12.797811834723428,0.10833094749613341
1760994962.9462857,7.17347264289856,-1.7102906640130933,4.677583751784126,0.5,-2.953729091255401,7.346123765016387,-0.0,2.29897754262256,-2.6348765457275993,0.018999079889529206,0.62,-0.010325792477095773,0.0048923767507077125,-0.14141045996069207,-2.3975252788220103,6.214826128213306,1.8456270095905847,stabilize,85.0,10,0.0,0.0,-10.0,13.590109290099743,0.1339338469164806
1760994963.05549,7.282676935195923,-2.0415845452827828,5.4984230318028855,0.5,-3.1135372906385883,7.685756924603007,-0.0,2.3016613489099633,-2.6346274688764413,0.02208878380857134,0.62,-0.009343054891215832,0.007726517816852002,-0.15,-2.615016657079746,6.73055119774455,1.650714166190188,stabilize,85.0,10,0.0,0.0,-10.0,13.706851284103504,0.14644796719501468
1760994963.1633587,7.390545606613159,-2.3858287548474197,6.345089099747449,0.5,-3.267898375811494,8.011473153338445,-0.0,2.293962223209926,-2.627578455697662,0.016265633611059604,0.62,0.011619508195803485,-0.004076015344687481,0.02492158951056694,-3.160982604225075,7.593764525628481,1.7363155609271028,stabilize,85.0,10,0.0,0.0,-10.0,14.331719144630444,0.11655116610061142
1760994963.2634394,7.490626335144043,-2.7199078046930683,7.1616851976112414,0.5,-3.4093888760312288,8.30612589115027,-0.0,2.3092448172828233,-2.6144121504801645,0.013551558115916858,0.62,-0.020678844476257403,0.007363814294747487,-0.06280243420553569,-3.516328731697387,8.609351086455309,1.6408211020744556,stabilize,85.0,10,0.0,0.0,-10.0,14.899470118420712,0.13449071700036655
1760994963.3722906,7.599477529525757,-3.0994018900268534,8.082763167981554,0.5,-3.5621662009283592,8.61649217971708,-0.0,2.309154150333457,-2.6051303114201607,0.002516572959528178,0.62,-0.003942089847253281,0.010718822881920291,-0.017715320016497983,-4.208995493125679,9.633618268778353,1.554306775056082,stabilize,85.0,10,0.0,0.0,-10.0,15.621275526082984,0.13195269990091568
1760994963.4820342,7.709221124649048,-3.496760754687579,9.040765331643119,0.5,-3.7122733387691063,8.92318965981661,-0.0,2.3047604236061736,-2.6010088228382187,-0.004063036661117345,0.62,0.019706513642757342,0.00495147678302011,-0.12613979841961578,-4.560592460217434,11.06071951031339,1.3374879861438582,stabilize,85.0,10,0.0,0.0,-10.0,16.482631874490668,0.14289950297338486
1760994963.5919287,7.81911563873291,-3.912630596233712,10.03786112643875,0.5,-3.856401661866259,9.220403560593237,-0.0,2.317879841414946,-2.5842631344732263,-0.013895359180649748,0.62,-0.007028697173883766,-0.024060920796578497,-0.06273584722275591,-5.281954291123088,12.075705252455247,1.355410988480329,stabilize,85.0,10,0.0,0.0,-10.0,17.397329024737925,0.15285385396603143
1760994963.7021465,7.929333448410034,-4.345426120794583,11.07013673846309,0.5,-3.9946842311097583,9.51098031514048,-0.0,2.3153943313068845,-2.592681933827045,-0.027883186997232787,0.62,0.0025017450795112514,0.014553352392277459,0.01806986945816722,-5.349184600134759,12.809721788401408,1.386340762231529,stabilize,85.0,10,0.0,0.0,-10.0,17.95415005329464,0.13585932219271793
1760994963.810246,8.03743290901184,-4.786383539324159,12.11841292296645,0.5,-4.124709424437025,9.790965715308927,-0.0,2.322030602333156,-2.5914453097332215,-0.03305344562864257,0.62,-0.005827150291540213,-0.0006999264540434977,0.08450578924878588,-5.808612692479619,13.911376080382743,1.4744690854205356,stabilize,85.0,10,0.0,0.0,-10.0,18.94544289937166,0.1507685534257945
1760994963.9169054,8.144092321395874,-5.232882907342314,13.176882929270965,0.5,-4.247524280858809,10.054659753271903,-0.0,2.3246200068244547,-2.5915293628458924,-0.027626352703003964,0.62,0.0014004391557500546,-0.007656011403911774,0.00809372733045374,-6.547151439330909,15.351866045751496,1.5606836385701321,stabilize,85.0,10,0.0,0.0,-10.0,20.302571000918423,0.14361936380100285
1760994964.0263045,8.253491401672363,-5.704481478187436,14.291162712770802,0.5,-4.3739127375376565,10.314818995897625,-0.0,2.3168995206255483,-2.5929512709872315,-0.015483332345387584,0.62,0.007192485969535251,-0.012048019593409343,-0.03961152353171633,-7.37227435977838,16.931214267780174,1.550818010805583,stabilize,85.0,10,0.0,0.0,-10.0,21.781594122930475,0.14223606055709903
1760994964.12873,8.355916976928711,-6.156190322374557,15.354389524538545,0.5,-4.4913680170628725,10.548323576016156,-0.0,2.3189620228471926,-2.5902516679048664,-0.0002186158270485344,0.62,-0.008473915945001142,-0.004562662771985243,-0.06282734147893357,-8.045199173224665,17.96480754281735,1.7279514054448197,stabilize,85.0,10,0.0,0.0,-10.0,22.912974140337983,0.14261736097836386
1760994964.2366562,8.46384310722351,-6.650276977577675,16.511359809282236,0.5,-4.621594699915665,10.789369565922128,-0.0,2.3163619305213725,-2.5933344890373133,0.013450124007267698,0.62,-0.0029478077986266928,0.011353164678416457,-0.13281429538496653,-8.944346890825996,19.654608897626165,1.8373201695378163,stabilize,85.0,10,0.0,0.0,-10.0,24.625741430832516,0.14653290640468616
1760994964.3466692,8.573856115341187,-7.165897937936861,17.711189061985344,0.5,-4.751902313301986,11.021592047015275,-0.0,2.3142110098240996,-2.5903794135805027,0.019450243997637787,0.62,-0.00015672413633397255,-0.00324853900532798,-0.04727951766142803,-9.931170981963072,21.466265916712015,1.9983244970384035,stabilize,85.0,10,0.0,0.0,-10.0,26.521472813858004,0.1435228354815204
1760994964.454496,8.681682825088501,-7.68505513830215,18.911481003866925,0.5,-4.876442960733765,11.240868357216511,-0.0,2.3147518230721835,-2.599244573413947,0.018381745783383533,0.62,0.0019613640719072134,0.020210930856410417,-0.047903544946834964,-10.972297330733367,23.334831301608112,2.1901021179818416,stabilize,85.0,10,0.0,0.0,-10.0,28.521995902028905,0.14091725402458063
1760994964.5633636,8.790550470352173,-8.222626431942782,20.14720455262689,0.5,-4.998827077025834,11.459789299881304,-0.0,2.3194722562142815,-2.5897975502111605,0.005784528789582937,0.62,-0.015112424418116548,-0.006447466674580521,0.15,-11.563595808984063,24.192184164978066,2.3031516876992617,stabilize,85.0,10,0.0,0.0,-10.0,29.50162816110844,0.15723708859226213
1760994964.673268,8.900454998016357,-8.778265500350233,21.418313873127495,0.5,-5.111194577264939,11.669956454041078,-0.0,2.3183500260292162,-2.5891507885038374,-0.00035651899205372536,0.62,0.002096442784972935,-2.209861874414719e-05,0.09611193978219126,-11.957478926298636,25.700960729370927,2.207313285948033,stabilize,85.0,10,0.0,0.0,-10.0,30.863233504395257,0.14416249191506275
1760994964.7833016,9.010488510131836,-9.34681015421911,22.713692112223736,0.5,-5.222289736725042,11.874137323105865,-0.0,2.3241087528556843,-2.5965435298992947,-0.0002710886783331268,0.62,-0.0006792687122498793,0.010810339368387017,-0.15,-12.137928274982364,25.534608251081483,2.0708018118714073,stabilize,85.0,10,0.0,0.0,-10.0,30.741661921995906,0.1626866106861715
1760994964.8921719,9.119358777999878,-9.918246493514083,24.010766411274687,0.5,-5.3250207512193075,12.068016786899847,-0.0,2.318589714874694,-2.5907514559307923,-0.008355392072218854,0.62,0.011678142400637147,-0.010655396875222215,-0.13671252558894292,-12.332961908169029,26.69924408829304,1.9021375663147722,stabilize,85.0,10,0.0,0.0,-10.0,31.727156553370495,0.16120550188521238
1760994964.9988103,9.22599720954895,-10.493862986323881,25.31400732873987,0.5,-5.416548755608642,12.255921336828779,-0.0,2.321267498881256,-2.5979568421514996,-0.025238063901055666,0.62,-0.0064051868979566225,0.008096979427257425,0.09722548874797078,-13.017643430035328,27.524136336694497,1.740978366048589,stabilize,85.0,10,0.0,0.0,-10.0,32.63261703487033,0.14309017453459144
1760994965.1081476,9.335334539413452,-11.090673427288856,26.664116786844268,0.5,-5.499129576516944,12.439997253975415,-0.0,2.314323184381148,-2.5894385262185797,-0.036966544958575924,0.62,0.0053620990946552285,-7.441183039667013e-05,0.018616367001252934,-13.952875510329585,28.742941715668735,1.620640032322351,stabilize,85.0,10,0.0,0.0,-10.0,33.99821625082554,0.1385899349595418
1760994965.2081704,9.435357332229614,-11.64421580317775,27.916632255198323,0.5,-5.568021265304459,12.603466619376796,-0.0,2.3220478531661026,-2.5962438654158437,-0.0476611734153299,0.62,-0.006217735398046953,0.013769513464946507,0.016514328004205877,-14.246479969307863,29.982403031179494,1.5678755542446985,stabilize,85.0,10,0.0,0.0,-10.0,35.15284380926334,0.1385440184755022
1760994965.3188207,9.546007633209229,-12.259007337112568,29.30912430970614,0.5,-5.640732513529712,12.783026402993801,-0.0,2.3210342430937696,-2.5838202216305484,-0.0499098793756017,0.62,-0.0028752746408913727,-0.005833726662399717,0.14260590403467788,-14.502298541796383,30.842780201672785,1.380765239362199,stabilize,85.0,10,0.0,0.0,-10.0,35.932096668543615,0.16633347002122903
1760994965.4262855,9.653472423553467,-12.871502167476114,30.697391577085906,0.5,-5.711449458953707,12.946075540001898,-0.0,2.3221649112866336,-2.587735296765872,-0.039239694161888335,0.62,0.0036812663904571604,0.008622039587405277,0.0367657547858099,-15.41358419387466,32.598918167860674,1.5535320036718336,stabilize,85.0,10,0.0,0.0,-10.0,37.86491971702051,0.14338879210814467
1760994965.532476,9.759662866592407,-13.484700887412933,32.08689489135746,0.5,-5.783389906221134,13.099379513149296,-0.0,2.3133020596803378,-2.586208937006097,-0.024489154727859487,0.62,0.010654143870249716,-0.003421441406144205,0.06702116905209185,-16.37577713306613,34.422806664923364,1.5236875758131958,stabilize,85.0,10,0.0,0.0,-10.0,39.823247867891126,0.15089868642037046
1760994965.6421406,9.869327545166016,-14.120039524655034,33.52500018273555,0.5,-5.858949107220672,13.249031438498456,-0.0,2.3191418688175967,-2.5864249603484355,-0.00961391865509467,0.62,-0.009729894195560376,-0.011577159829735829,0.09258852584265505,-17.156524129681245,36.03604768398123,1.6910467613217677,stabilize,85.0,10,0.0,0.0,-10.0,41.58874399726344,0.15440344049973645
1760994965.7438428,9.97102975845337,-14.722759020911587,34.8861690961408,0.5,-5.9339806476433425,13.381733445904253,-0.0,2.3149309056025995,-2.5892969073813283,0.010592075571518473,0.62,0.0034249392548936462,0.0035349768018178565,0.06221379574870149,-17.243021143457984,37.16493451338136,1.7120704451763888,stabilize,85.0,10,0.0,0.0,-10.0,42.611345081450295,0.14656962964365228
1760994965.8525934,10.079780340194702,-15.369622324393614,36.34163872003036,0.5,-6.0190849215196,13.50988086203021,-0.0,2.316208644130789,-2.5905737932694435,0.02960483767810631,0.62,-0.0024490682241124864,0.004709277160340607,-0.0049170143259755095,-18.23289553653849,39.051707416136146,1.7304545626541377,stabilize,85.0,10,0.0,0.0,-10.0,44.66629485426703,0.14005736438759328
1760994965.9618251,10.189012050628662,-16.031868584633973,37.82397440575703,0.5,-6.107679728982312,13.629392536005449,-0.0,2.3214998462884204,-2.5855141596481204,0.04633374354158554,0.62,-0.00740541307236343,-0.012430113555909759,-0.0215308401330549,-18.894784803913424,41.27937780421398,1.7612874996047696,stabilize,85.0,10,0.0,0.0,-10.0,46.896991463606604,0.1439726727104305
1760994966.0705152,10.297702074050903,-16.70399675448905,39.31861896840073,0.5,-6.200092657226067,13.742227172187315,-0.0,2.315267557431331,-2.595969388487025,0.05490749624214659,0.62,0.005312320655679007,0.01696168907433124,-0.027469945122802028,-19.721627731219,42.02755604301947,1.7190606995711497,stabilize,85.0,10,0.0,0.0,-10.0,47.88104479852296,0.13712173133108943
1760994966.181918,10.409104824066162,-17.395918566894032,40.846857485832494,0.5,-6.294418909524841,13.852448433770707,-0.0,2.3181094833363782,-2.5791171435250138,0.051170079175549554,0.62,-0.0038432174071852646,-0.01866665702341002,0.09033293943939935,-20.20716773451679,43.535061895506125,1.6408457668411935,stabilize,85.0,10,0.0,0.0,-10.0,49.38765566681446,0.14576637461964762
1760994966.2897108,10.516897678375244,-18.083096505546436,42.35460857305373,0.5,-6.377423901575478,13.955380572247721,-0.0,2.314131363699432,-2.589406934946432,0.041491713130175724,0.62,0.007751751096716086,0.007864218480687999,0.03933884648326352,-20.778636137436116,45.113361556818475,1.50494658408934,stabilize,85.0,10,0.0,0.0,-10.0,50.98363371309407,0.13626754340107833
1760994966.3981664,10.625353336334229,-18.779021258280135,43.873510139640594,0.5,-6.455904928477095,14.053785613462498,-0.0,2.3137551642779317,-2.568381790350567,0.029234077665045738,0.62,0.010566929060437158,-0.00880591569577873,0.038017984460004,-21.535441539843667,46.47589904252143,1.5548212392319878,stabilize,85.0,10,0.0,0.0,-10.0,52.50998312699477,0.1402042287573576
1760994966.506033,10.733219861984253,-19.47934867809769,45.39468349553815,0.5,-6.527998753108442,14.149701324444342,-0.0,2.3226196270465,-2.5727542457503274,0.018495501133434837,0.62,-0.010165468531002197,0.006765668066026371,0.03551777360619712,-22.056303369053058,47.74853551534143,1.5535226664925759,stabilize,85.0,10,0.0,0.0,-10.0,53.850599329744526,0.1405570720161437
1760994966.6124227,10.839609622955322,-20.17749863098305,46.90500939919766,0.5,-6.595246460415637,14.241636297243014,-0.0,2.3184523245954485,-2.570677764290666,0.015587646846819769,0.62,0.0141132287203211,-0.0027600104828006196,0.04612951253353504,-22.806341859359947,49.443788785999956,1.7038623282940624,stabilize,85.0,10,0.0,0.0,-10.0,55.69378665452933,0.1399439401987103
1760994966.7125483,10.939735174179077,-20.840907416918895,48.33503188046887,0.5,-6.657029111506662,14.322671093121924,-0.0,2.3223891069844296,-2.56486160803368,0.01909479337211434,0.62,0.0029810796282718948,-0.008146651355812195,-0.15,-23.59073458591433,50.759488844763354,1.676194233420122,stabilize,85.0,10,0.0,0.0,-10.0,57.17850975551272,0.15241854927652396
1760994966.821863,11.049049854278564,-21.568791691981826,49.89781068330931,0.5,-6.724414902733096,14.409360349545208,-0.0,2.322977448692997,-2.571297854244902,0.015177438633330785,0.62,-0.006583611623182471,0.015236771287600816,0.004689948947238386,-24.73162890767606,52.79884157289241,1.6918562189915394,stabilize,85.0,10,0.0,0.0,-10.0,59.46486897077938,0.13870686477137645
1760994966.9289842,11.156171083450317,-22.296015614433742,51.45358071509247,0.5,-6.784392942470997,14.491664771653276,-0.0,2.3214582166193654,-2.564607598847681,0.005260164379102659,0.62,-0.0023035916936651104,-0.009905118263425855,0.06419170292103987,-25.929488976908278,54.8927645751176,1.7561750093447104,stabilize,85.0,10,0.0,0.0,-10.0,61.836572124861796,0.1437626314806431
1760994967.037183,11.26436996459961,-23.02941380223616,53.01821076629774,0.5,-6.836552084817819,14.569347874948713,-0.0,2.3245172725677765,-2.5710581699637003,-0.003376325777014016,0.62,-0.003829737438976376,0.0012480482115736742,0.03848330932326256,-25.98946572428456,56.309282067358524,1.767356810188245,stabilize,85.0,10,0.0,0.0,-10.0,63.124149593268896,0.1408705258930656
1760994967.1431606,11.370347499847412,-23.760032629056404,54.57389528822898,0.5,-6.882787405458743,14.645409993075566,-0.0,2.3226469096721925,-2.5719617921600997,-0.012514668654879255,0.62,0.01526535921771867,-0.0013440263219309217,-0.03002653007156829,-25.94652103320635,57.22054410425725,1.6796729291453305,stabilize,85.0,10,0.0,0.0,-10.0,63.90483065501135,0.13843782269379068
1760994967.2521603,11.479347229003906,-24.512625595492345,56.17430820404851,0.5,-6.926487637172788,14.719589540511716,-0.0,2.336255381284156,-2.5692860451825155,-0.020981996923450427,0.62,-0.011555435519976849,-0.004745819992252659,0.06634405349544736,-26.74375659349217,58.84211321489941,1.7699352822288053,stabilize,85.0,10,0.0,0.0,-10.0,65.6974442491856,0.14866622403553403
1760994967.3618236,11.58901047706604,-25.27082980468939,57.7846746805756,0.5,-6.966213815910184,14.78997134587507,-0.0,2.327691179537241,-2.5696711146620648,-0.02547122670250461,0.62,0.011001827296822739,0.002633480243904071,-0.034029858408573234,-27.405616025018922,60.32958084052035,1.7417835893420983,stabilize,85.0,10,0.0,0.0,-10.0,67.29484078265286,0.13779286251215833
1760994967.4697542,11.696941137313843,-26.028240761057823,59.39232503461819,0.5,-7.000707451391257,14.856331357250085,-0.0,2.335432088371077,-2.57447174638724,-0.03433919599295487,0.62,-0.014772239907445597,0.007164495930484574,-0.014775982709027363,-28.25420165156734,62.17865789374196,1.7419159576579082,stabilize,85.0,10,0.0,0.0,-10.0,69.29904760378119,0.14287159189768267
1760994967.579225,11.806411981582642,-26.792638958442673,61.014762056178576,0.5,-7.030988132155994,14.92657009863362,-0.0,2.336172590002893,-2.5736094286666735,-0.03855991265414955,0.62,-0.0022883073321673694,-0.00047153062838077163,0.13319197294311658,-28.55419707423191,63.4941314355899,1.5435168181856735,stabilize,85.0,10,0.0,0.0,-10.0,70.56982129668302,0.16023569464364867
1760994967.6880815,11.915268421173096,-27.556298353367175,62.63581807471663,0.5,-7.0615138169384055,14.988035325072325,-0.0,2.333031461639881,-2.5785223273532107,-0.029399297939072134,0.62,0.016506079130685476,0.00441528176049587,-0.04015789240499561,-29.53426687361353,65.00221550213116,1.708909461144583,stabilize,85.0,10,0.0,0.0,-10.0,72.3509467852122,0.13550593124300084
1760994967.7959352,12.023122072219849,-28.326620077451302,64.27041650303951,0.5,-7.094016269048506,15.045319633025374,-0.0,2.3447308600574823,-2.574935867405205,-0.020760086205839735,0.62,-0.019772383537969805,-0.003997455437256127,0.10802953607861401,-30.270670422820093,66.92844831547936,1.5584262321991482,stabilize,85.0,10,0.0,0.0,-10.0,74.35945063493931,0.16318263592608034
1760994967.904177,12.131363868713379,-29.096405162012744,65.90163362507117,0.5,-7.130092047663867,15.095152251945759,-0.0,2.3360056308618646,-2.5727419061049783,-0.006905989590700862,0.62,0.011419883893243487,-0.011332983799473085,0.07253093247755982,-30.802316831458693,68.13090653035023,1.4346513778116603,stabilize,85.0,10,0.0,0.0,-10.0,75.63963510597452,0.14746014060873786
1760994968.0121424,12.23932933807373,-29.868312160616554,67.53386604389075,0.5,-7.169100045853284,15.139809707508062,-0.0,2.341983752040855,-2.5813325977534802,0.002335182161478316,0.62,-0.010568907041956862,0.01131698246680031,0.1096932121987334,-31.80206090591888,69.67491822550134,1.479138892582514,stabilize,85.0,10,0.0,0.0,-10.0,77.4450510833925,0.15021222576233464
1760994968.1214545,12.348641395568848,-30.65056939862652,69.18352275021128,0.5,-7.212386619071587,15.184813172361121,-0.0,2.3421848842999045,-2.5768240376399536,0.02039640280283191,0.62,-0.0048741719471425745,0.005034099869101959,0.15,-32.63906538834784,71.16916370758493,1.3415881198795765,stabilize,85.0,10,0.0,0.0,-10.0,79.11377928871092,0.17747606277678296
1760994968.231897,12.459084033966064,-31.44281993599277,70.84741082550035,0.5,-7.265542441429041,15.218252926316016,-0.0,2.3380499328892594,-2.577735389598329,0.04599619646513803,0.62,0.012477561122152004,-2.252388132404986e-05,-0.05058236001199146,-33.23354363745781,73.24435869778878,1.4220848097413594,stabilize,85.0,10,0.0,0.0,-10.0,81.2383439340936,0.1382345504417902
1760994968.3404684,12.567655324935913,-32.242080395067305,72.51669971753138,0.5,-7.324521803158281,15.250637885891372,-0.0,2.3438987711432677,-2.5744800771032086,0.05457935968433604,0.62,-0.008778341690749671,-0.006206137315794453,-0.15,-33.80048455612422,74.98507951801466,1.5367653113696003,stabilize,85.0,10,0.0,0.0,-10.0,83.05619700179749,0.181766199994355
1760994968.4475024,12.674689292907715,-33.029116565793935,74.15061432743288,0.5,-7.37918840125664,15.279244243019711,-0.0,2.3413573410619857,-2.5837147434534775,0.04313638970865676,0.62,0.007112292891789856,0.005057092119961887,0.03093953574248919,-34.82020804330585,76.87351450388843,1.7856612456592666,stabilize,85.0,10,0.0,0.0,-10.0,85.21083224189329,0.13994093420137338
1760994968.5566916,12.783878564834595,-33.83729917051861,75.82027860201552,0.5,-7.423650541162722,15.30447736529051,-0.0,2.34882546870874,-2.5808144376756634,0.025418603926764576,0.62,-0.003044740630036037,-0.003642006730238581,-0.09185867151302862,-36.04018575414285,79.00867769684045,1.790691682780967,stabilize,85.0,10,0.0,0.0,-10.0,87.6372440858037,0.1639622697790625
1760994968.667062,12.894248962402344,-34.65870105139406,77.51095523503793,0.5,-7.458099871202503,15.333249330261417,-0.0,2.3422144588475327,-2.5883625843844773,0.0023189306053398033,0.62,0.007010362669916129,0.0123889547694478,0.03961452651951297,-37.342909510109344,81.23626968869118,1.8710398531577175,stabilize,85.0,10,0.0,0.0,-10.0,90.1928267148183,0.1355277128531581
1760994968.7754178,13.002604722976685,-35.46824155735979,79.17419137835098,0.5,-7.483421819154714,15.365311892712706,-0.0,2.351265273267579,-2.5811475988311003,-0.013884649057901837,0.62,-0.012932223344240861,-0.007118713301616373,0.02652500430925686,-37.64555784032986,81.72783037788389,1.5034571370160277,stabilize,85.0,10,0.0,0.0,-10.0,90.71359219813174,0.14472121273123426
1760994968.8845587,13.111745595932007,-36.28296193508817,80.84654559471095,0.5,-7.500715210896465,15.39758724387728,-0.0,2.3378376624741812,-2.58834092085109,-0.0247354595940639,0.62,0.007760898068842115,0.013365223797093862,0.09197454454707979,-38.832607439688466,83.81723600931876,1.4898827076307177,stabilize,85.0,10,0.0,0.0,-10.0,93.08768907563396,0.14196660086262905
1760994968.991713,13.218899965286255,-37.090343659524436,82.50432125500178,0.5,-7.513833987953536,15.43033676730651,-0.0,2.3434849999734313,-2.5767760715075325,-0.0348341082309063,0.62,-0.004762331853850723,-0.015054907082432562,0.08332830203272075,-39.61433198394271,85.2896590319509,1.559907204420603,stabilize,85.0,10,0.0,0.0,-10.0,94.74836510935313,0.14898408108569808
1760994969.099853,13.327039957046509,-37.90731002792756,84.18295967237123,0.5,-7.521569950758548,15.46633499946226,-0.0,2.339414294024576,-2.5920414448513243,-0.037418836067253734,0.62,0.0005989016202321195,0.011911582821401088,-0.018248232151263193,-40.71757064109412,86.55085950214787,1.6181437313310425,stabilize,85.0,10,0.0,0.0,-10.0,96.35327240542948,0.13682924074267533
1760994969.2086024,13.435789346694946,-38.721596575611294,85.85834593506377,0.5,-7.528970334834806,15.498275698860338,-0.0,2.336644987669153,-2.5805000149001387,-0.034032706718089265,0.62,0.0033134139660873406,-0.014296640024466328,0.009391599390814744,-41.91772417388424,88.66924809559302,1.8282422366627296,stabilize,85.0,10,0.0,0.0,-10.0,98.78885803654599,0.1452610955341744
1760994969.3164542,13.543641090393066,-39.538078437021824,87.53982712746041,0.5,-7.537519454619526,15.528601376062232,-0.0,2.3412592500058103,-2.5855387361745334,-0.026638078419884047,0.62,-0.007701281174204938,-0.004311404189614746,0.13314165625030822,-43.17727860144452,90.86494356453974,1.85705057728442,stabilize,85.0,10,0.0,0.0,-10.0,101.29809970974792,0.16178125698314427
1760994969.4255717,13.652758598327637,-40.35734527462027,89.22773465094004,0.5,-7.549453888556255,15.553374832086384,-0.0,2.342471139429639,-2.5913774577080173,-0.015301205546379657,0.62,0.0037307836187635618,-5.213194259059311e-05,-0.0592405626078453,-44.49695688882184,93.13903255005737,2.0055418808838477,stabilize,85.0,10,0.0,0.0,-10.0,103.91819663841348,0.1397168927667219
1760994969.533019,13.7602059841156,-41.17318819424824,90.9080327366826,0.5,-7.566393227662537,15.575588315494821,-0.0,2.347447974542781,-2.5868271846684374,-0.005808665082267154,0.62,-0.0007465056488319578,-0.008508835500739616,-0.05683037860925027,-45.5181583307829,95.18715866420412,1.9991104543356573,stabilize,85.0,10,0.0,0.0,-10.0,106.19075554908693,0.1445643492107318
1760994969.6416364,13.868823289871216,-41.99204487168558,92.59263471591828,0.5,-7.58418943959602,15.592728528433208,-0.0,2.3474285847090277,-2.587991912326461,0.000214309452038681,0.62,0.0014695540133815186,-0.0005086305795670293,0.011743615165268353,-45.89850551291159,96.62186835195725,2.0185562278901363,stabilize,85.0,10,0.0,0.0,-10.0,107.64248206885927,0.1393667527874849
1760994969.7445638,13.971750736236572,-42.77774283886594,94.20641394551997,0.5,-7.606024767593611,15.60591547355426,-0.0,2.349433615831762,-2.587731582410384,0.006206113307429394,0.62,-0.005511312880113801,-0.0003755304886972835,-0.08965048366728243,-46.94716762202268,98.37036713194084,2.1240332087194695,stabilize,85.0,10,0.0,0.0,-10.0,109.67113502945638,0.14789061069719542
1760994969.854141,14.08132791519165,-43.612311602494636,95.91719196944703,0.5,-7.6263845303640405,15.619136370819955,-0.0,2.347175341718716,-2.5871885795673104,0.007233258263677413,0.62,0.004891040796327371,-0.0002820202430515781,0.0775824825017625,-47.80850470396651,99.82667476752809,2.002104094065232,stabilize,85.0,10,0.0,0.0,-10.0,111.33314250417885,0.1409358884565608
1760994969.963131,14.190317869186401,-44.44087681416368,97.61217087268118,0.5,-7.64925944441847,15.629941870071796,-0.0,2.3428476072405076,-2.5874386174106383,0.011582903328371906,0.62,0.002648480285340619,-0.0007928367464793981,0.03641249457722069,-47.71831217212485,100.89705038897239,1.8988650447935485,stabilize,85.0,10,0.0,0.0,-10.0,112.24453253101196,0.14222415805199493
1760994970.0720057,14.299192667007446,-45.27486472503199,99.31459461688083,0.5,-7.672363882346615,15.642917623284955,-0.0,2.3475081832886664,-2.5717132821149984,0.014125744461720484,0.62,-0.002416796261584927,-0.016328246609161025,-0.06626906281923484,-48.977370799072936,103.08906206395044,1.9008815983517942,stabilize,85.0,10,0.0,0.0,-10.0,114.75089781972468,0.14754263785748248
1760994970.1803176,14.407504558563232,-46.1113142877377,101.01744856520715,0.5,-7.698542925625978,15.653084656295908,-0.0,2.340164558508727,-2.5809943466181053,0.01132827857516513,0.62,0.008387096626234727,0.016815485039629263,-0.05097142925968712,-49.76168035471846,104.44341945552094,1.9289141673097454,stabilize,85.0,10,0.0,0.0,-10.0,116.30542417487717,0.13813677019714637
1760994970.288757,14.515944004058838,-46.94736276878766,102.71556546294084,0.5,-7.721620406617226,15.66544550467921,-0.0,2.3456028422324198,-2.5765105999584876,0.011565186913641983,0.62,-0.0045352496806500865,0.0067072401823937075,-0.1038901623698891,-50.35545801787091,106.03511947606388,1.8366715743354796,stabilize,85.0,10,0.0,0.0,-10.0,117.97976736903402,0.1463606409815226
1760994970.3949678,14.622154712677002,-47.76870975227489,104.37991892899328,0.5,-7.744563320457891,15.674654894170352,-0.0,2.349449634984144,-2.572349903479336,0.0076928201597212574,0.62,0.0015741670509127896,-0.0021536350524381256,-0.016986454232442837,-50.99070498392666,107.5280981291593,1.7853806205458627,stabilize,85.0,10,0.0,0.0,-10.0,119.58778816586205,0.1409641059287906
1760994970.5035648,14.730751752853394,-48.60706852223535,106.07469918543882,0.5,-7.766544172949513,15.683223673158139,-0.0,2.3510866062720863,-2.575519506570409,0.00348349045590193,0.62,0.004551518981316945,0.0177383943674252,-0.025064898579738874,-52.264688124564714,109.71779440555082,1.8059487633956472,stabilize,85.0,10,0.0,0.0,-10.0,122.10230325501914,0.13524983416824457
1760994970.6118324,14.839019298553467,-49.449100825101716,107.7730845093032,0.5,-7.790143431096625,15.694715273978531,-0.0,2.3495785257602466,-2.5659886007923314,-0.0038929719821878825,0.62,0.00871729748506707,-0.014387526579307244,-0.15,-53.60356652854976,111.97873918987376,2.013807042352146,stabilize,85.0,10,0.0,0.0,-10.0,124.72735038789727,0.17502226549140307
1760994970.7208304,14.948017358779907,-50.29513287055885,109.476395915254,0.5,-7.805483493654764,15.704766063801399,-0.0,2.3594009534983686,-2.564276302537824,-0.018886537764199605,0.62,0.004156641304471144,-0.006571255149400742,-0.036130545502601606,-54.281283766227375,113.27481800407199,1.8246612329867633,stabilize,85.0,10,0.0,0.0,-10.0,126.16443545801738,0.14319323401267503
1760994970.8302977,15.05748462677002,-51.158361166131826,111.21192611801683,0.5,-7.819085962755049,15.711183801596862,-0.0,2.364302221738296,-2.5693120687077107,-0.03174218897423275,0.62,0.0005804305510361541,0.006496426215891626,-0.01593642541863035,-55.63463071829289,115.55649945742017,2.0564637862626753,stabilize,85.0,10,0.0,0.0,-10.0,128.81721554607145,0.13978242778738556
1760994970.9402015,15.167388439178467,-52.01819547235455,112.93928954616955,0.5,-7.827827711646919,15.722981882037061,-0.0,2.3606050014187345,-2.5625430912912797,-0.03648401240248622,0.62,0.004358458656240811,-0.02044528304345088,-0.06807493734899782,-57.04365894251955,117.89657548437096,2.136819418066505,stabilize,85.0,10,0.0,0.0,-10.0,131.53282450430095,0.14447808259268202
1760994971.0485241,15.275711059570312,-52.866445233765496,114.6429601179028,0.5,-7.8324812608549985,15.732638094711234,-0.0,2.3578683875448885,-2.5791324106784153,-0.03543825831714856,0.62,0.00702266036519136,0.020654940654154245,0.02560543403376582,-58.49251723433153,120.27299232219256,2.2938299945242817,stabilize,85.0,10,0.0,0.0,-10.0,134.3060144240645,0.136497361916178
1760994971.157457,15.384644031524658,-53.71991643397338,116.35725206229098,0.5,-7.83866790725197,15.741087023963477,-0.0,2.361902150683475,-2.567615518774657,-0.028348193178585494,0.62,0.002306404394766464,-0.009364951852279453,0.0808723763921401,-60.00839268060328,122.73334975129552,2.403235500189446,stabilize,85.0,10,0.0,0.0,-10.0,137.17989132579336,0.15209075767242147
1760994971.2590876,15.486274480819702,-54.51718157953193,117.95737584876953,0.5,-7.854018873439558,15.749410283961408,-0.0,2.34177746303884,-2.516242657420133,-0.013462927946828619,0.62,0.002155299883919716,-0.00656589051180124,0.15,-59.89011606135372,123.4796690240732,3.379961217120251,stabilize,85.0,10,0.0,0.0,-10.0,137.8879183478695,0.1728757826821195
1760994971.3695173,15.596704244613647,-55.378279417552676,119.68093946234578,0.5,-7.8902162792587225,15.760104886022383,-0.0,2.352048413702939,-2.535838398691907,0.016729440279967266,0.62,-0.023115854249613266,0.04808297522323153,0.041474819101364295,-59.509423626609724,123.57811319869501,2.7596482258043604,stabilize,85.0,10,0.0,0.0,-10.0,137.75242351758115,0.14827700845948394
1760994971.4763753,15.703562259674072,-56.23183935542889,121.38154305258631,0.5,-7.93557731363831,15.762471671977572,-0.0,2.335641837162643,-2.5037184820377756,0.0528891154185955,0.62,0.02284590583624135,-0.049472991406874264,-0.15,-59.92651017208714,125.07324771978209,2.2927112779852648,stabilize,85.0,10,0.0,0.0,-10.0,139.2322328598631,0.1753926442407874
1760994971.5862348,15.813421726226807,-57.10284668714198,123.10510552865593,0.5,-7.994031165872715,15.758478529399653,-0.0,2.3449219677603237,-2.525097106962179,0.07300272180319883,0.62,-0.010827320395428094,0.022425698491226376,-0.0037280054058858314,-60.00628358133054,125.64897842292005,1.7976621513273296,stabilize,85.0,10,0.0,0.0,-10.0,139.74120609256008,0.14018063276389992
1760994971.694299,15.921485900878906,-57.97396825143799,124.8154201507671,0.5,-8.05410253753329,15.746688915445654,-0.0,2.345960367292463,-2.5153900341036635,0.08336525456548655,0.62,-0.000833510724215788,-0.011174417109906461,-0.04630131438889629,-61.015628484073694,127.30608278774993,1.695593409594668,stabilize,85.0,10,0.0,0.0,-10.0,141.6563889814734,0.15215450144792256
1760994971.8043969,16.031583786010742,-58.864162103090266,126.54829149324857,0.5,-8.115829811198758,15.731857583802219,-0.0,2.344138428922956,-2.512911223690212,0.08055373820215773,0.62,0.009708097440397738,-0.011082490212982011,-0.11080172683096101,-61.79654439412086,129.23301029061395,1.718594370853602,stabilize,85.0,10,0.0,0.0,-10.0,143.7265086957068,0.1646717026016805
1760994971.91429,16.14147686958313,-59.759468125886556,128.27666597253074,0.5,-8.175131766356602,15.722036178276504,-0.0,2.352736953910281,-2.523020958306629,0.0609489950054954,0.62,-0.007972374506466831,0.02071534042382008,-0.02022126588615878,-63.15387279183218,131.43135553846236,1.8739377099694121,stabilize,85.0,10,0.0,0.0,-10.0,146.29970356779558,0.15840991246350594
1760994972.0231354,16.250322341918945,-60.651746912796476,129.9873977097,0.5,-8.219966221749196,15.714070830673768,-0.0,2.3524938686384664,-2.5105637896182613,0.037641183381606866,0.62,0.0038157417115920935,-0.019053357071629737,0.15,-64.24725249482965,133.36453005008016,1.939496210023145,stabilize,85.0,10,0.0,0.0,-10.0,148.51383403024207,0.14627190824486086
1760994972.1303596,16.35754656791687,-61.53512525690938,131.67198628370724,0.5,-8.255353784670245,15.708630353299982,-0.0,2.3491688092465774,-2.5208190221927924,0.02401933246773895,0.62,0.005144154346802279,0.010907993450793848,-0.07254762111819765,-64.39488101018648,133.4295755113574,1.5332001720441564,stabilize,85.0,10,0.0,0.0,-10.0,148.60406127581285,0.1430888757195242
1760994972.2392886,16.46647548675537,-62.4360793239162,133.3829854838843,0.5,-8.286731717139201,15.705569296542466,-0.0,2.357690048270058,-2.5121082748479124,0.013093650460907824,0.62,-0.02392608042355058,-0.01085888011500772,0.0015543512363526977,-65.03195905531705,135.31332738514683,1.5396544672544472,stabilize,85.0,10,0.0,0.0,-10.0,150.5722945692068,0.14901331238926746
1760994972.3502183,16.577405214309692,-63.35688320888524,135.12533343023293,0.5,-8.313432527403485,15.70961895706016,-0.0,2.3461155858265204,-2.5170696039656066,0.003382220695231989,0.62,0.012521133295349865,-0.00640133792907268,-0.14336570853931915,-66.36402445780813,137.46450275478017,1.6878370193849581,stabilize,85.0,10,0.0,0.0,-10.0,153.09238646662746,0.1585262933639356
1760994972.4591434,16.686330318450928,-64.25927070402601,136.82865234517573,0.5,-8.33173298679554,15.711048589715801,-0.0,2.353711026471219,-2.5189477765135377,-0.01078411439458703,0.62,-0.007672492236925724,0.009996694274027355,0.008047509251401866,-66.4728843000342,138.76001995062006,1.6446748503367696,stabilize,85.0,10,0.0,0.0,-10.0,154.3003108753585,0.13973896649191045
1760994972.5685387,16.79572558403015,-65.17575226489122,138.55564614754292,0.5,-8.345534228319377,15.718303866678681,-0.0,2.3479970697014445,-2.523142098750682,-0.01897189214231786,0.62,0.01280048272550351,0.01491260597982174,-0.08373479314136453,-67.19344311888696,140.2495931084855,1.491685967640114,stabilize,85.0,10,0.0,0.0,-10.0,155.93898169362814,0.1365564713789197
1760994972.678538,16.90572500228882,-66.09004856117795,140.27688071221604,0.5,-8.355204641603583,15.721842872754726,-0.0,2.3474185397830998,-2.517703933620377,-0.02302897886224288,0.62,-0.0013984833293764262,-0.016770033443571638,-0.06644062283747107,-68.34417235229836,142.04093724508624,1.6171427128868887,stabilize,85.0,10,0.0,0.0,-10.0,158.05540722415913,0.14742017846721955
1760994972.7920792,17.01926612854004,-67.03480410567232,142.05464412321828,0.5,-8.358964801736075,15.7313863542308,-0.0,2.3529628205743824,-2.5355768042442612,-0.026098530144429644,0.62,-0.007376673772966395,0.02932988865910721,-0.09352567969181882,-69.31468240928554,144.2178519146656,1.5810353871493255,stabilize,85.0,10,0.0,0.0,-10.0,160.42890758531937,0.1378254559184576
1760994972.8999255,17.12711238861084,-67.94511101399229,143.76732076162588,0.5,-8.366304738908905,15.735745107296944,-0.0,2.354548749455763,-2.5234997819526814,-0.035187709473262586,0.62,0.005196595270631007,-0.01174928324127281,0.07624630860145071,-69.84428625939023,145.27015626058187,1.36764989937415,stabilize,85.0,10,0.0,0.0,-10.0,161.58857041044783,0.14613829040810655
