timestamp,simulation_time,position_x,position_y,position_z,velocity_x,velocity_y,velocity_z,attitude_roll,attitude_pitch,attitude_yaw,control_throttle,control_roll,control_pitch,control_yaw,estimated_position_x,estimated_position_y,estimated_position_z,flight_mode,battery_level,setpoint_altitude,setpoint_position_x,setpoint_position_y,setpoint_position_z,position_error,attitude_error
1760989092.9590726,0.10051536560058594,0.00016865149579141635,-4.36003955408459e-05,10.034980515704047,0.005334404364963083,-0.0018178272673073773,0.6957339838008113,-0.0032308000096374213,-0.0050624219202168586,-0.005379676238360568,0.65,0.001523438875282244,0.007506381748407506,0.12519780690146304,-0.6923509713742988,1.056848091885939,7.96919629269699,stabilize,85.0,10.0,0.0,0.0,-10.0,18.013558592414803,0.03890981827005439
1760989093.119377,0.260819673538208,0.013019420972033733,0.008071310471095865,10.231730609013962,0.29341830537383046,0.2190580746947938,1.735208671814756,0.2646253255313053,-0.3285694326251709,-0.013021029428671154,0.65,0.034567603951758105,-0.04167477804568656,-0.028634959034430807,-0.7209197847059042,1.3432265834218837,7.373031347864577,stabilize,85.0,10.0,0.0,0.0,-10.0,17.43978787727296,0.02964876812598948
1760989093.2441683,0.38561105728149414,0.0916865962627886,0.06805040411566107,10.490814815696547,0.8101586287437271,0.5696528265307976,2.442210652642379,-0.23692131960071203,0.12826133842260673,-0.026097592136225204,0.65,-0.2,0.2,-0.0773929562839342,-0.6442019256661261,1.1498175675042834,7.394212269821286,stabilize,85.0,10.0,0.0,0.0,-10.0,17.444073407526545,0.30595583092414436
1760989093.359833,0.5012757778167725,0.1442354847944827,0.07700220865776965,10.793658995005536,0.004136933662631681,-0.5442842977237902,2.6562261308305986,-0.7234270453260562,0.6555642323893386,-0.035057801308362835,0.65,0.2,-0.2,0.15,-0.5990820115831573,1.1743270675543296,10.352711524974627,stabilize,85.0,10.0,0.0,0.0,-10.0,20.395362456623033,0.5862059237865657
1760989093.474728,0.6161708831787109,0.10785886649094273,-0.027860220833334864,11.10211144499075,-0.47268485114720715,-1.1387763828445527,3.1526480374386407,0.049358872225102865,-0.07547129473373948,-0.03520628175430888,0.65,-0.2,0.2,0.15,-0.9989183105411077,0.8324917347455483,10.606750710452896,stabilize,85.0,10.0,0.0,0.0,-10.0,20.647737288194676,0.4856233758037016
1760989093.5809991,0.7224419116973877,0.06362233911293569,-0.1485127252565575,11.499539054740662,-0.44134572209092815,-1.1210312940608853,3.917063286866278,-0.30660629195061995,0.31218936939136177,-0.020952260544942224,0.65,-0.2,0.09898452642060407,0.13650387018502871,-0.9623017277718695,0.8005901886910644,10.915474250370945,stabilize,85.0,10.0,0.0,0.0,-10.0,20.952900333448618,0.1155872106462802
1760989093.6852548,0.826697587966919,-0.021483004708752286,-0.3139367971445523,11.919487330308824,-1.2185673787654459,-2.165967802376438,4.031550709260285,-0.7697783033761998,0.6513226104689461,-0.007200933907030971,0.65,0.2,-0.2,0.15,-0.9155919237429545,0.7806873235874834,11.452971871990652,stabilize,85.0,10.0,0.0,0.0,-10.0,21.486688516578248,0.6176924314177193
1760989093.7947247,0.9361674785614014,-0.18791106618862172,-0.6070171065224192,12.381251918841878,-1.5956376730619564,-2.898279385125347,4.48384255666327,-0.01643379467788675,-0.10899097481518667,0.013702731086386331,0.65,-0.2,0.2,-0.029665396694873766,-0.8974556870717958,0.6770404316536621,11.7650738906297,stabilize,85.0,10.0,0.0,0.0,-10.0,21.794087545041247,0.4653133687785881
1760989093.9064384,1.0478811264038086,-0.35530102097428484,-0.9277113298836877,12.924181162893067,-1.5341228898384685,-2.9461390275186616,5.218921153063789,-0.33140759725993457,0.3231887048316068,0.04661202793699011,0.65,-0.2,0.05259611478126057,0.06177157979605793,-1.256483899673559,-0.7075948545635172,10.614361047093421,stabilize,85.0,10.0,0.0,0.0,-10.0,20.664736234664748,0.09201723353903946
1760989094.0209,1.1623427867889404,-0.5723040161477992,-1.3291100035149122,13.53121435090622,-2.259901314975815,-4.189002681546366,5.275787590678598,-0.7848046837949137,0.6090903726589961,0.07640971437431637,0.65,0.2,-0.2,-0.15,-0.9808122848587467,-0.4008945134247717,11.417594336208435,stabilize,85.0,10.0,0.0,0.0,-10.0,21.44378829170377,0.6235165182377328
1760989094.133387,1.2748298645019531,-0.8451741692276403,-1.8500316201675149,14.136609885616146,-2.4452619041719927,-4.877095443087556,5.7320570057212406,0.03246454414265303,-0.16971075849019515,0.09192672742292483,0.65,-0.2,0.2,-0.15,-0.5674747102048594,-1.2766547017409564,11.655306246328175,stabilize,85.0,10.0,0.0,0.0,-10.0,21.700326343086626,0.543083060336793
1760989094.2354572,1.3768999576568604,-1.0807497363749858,-2.335599105371239,14.754463456358446,-2.274931560683644,-4.690610687498229,6.379127058505605,-0.11589327077334419,0.2078260713021594,0.10342176046501281,0.65,-0.2,0.2,-0.07603005096441001,0.2077756253099733,-1.6133897252346423,12.479024359269228,stabilize,85.0,10.0,0.0,0.0,-10.0,22.537806753554904,0.27902818030197407
1760989094.342928,1.4843707084655762,-1.3631458173563151,-2.885540184363866,15.462474889507654,-2.9823988999499087,-5.633206125105681,6.52012429691758,-0.7478872598114594,0.7529225299089618,0.11341450537662523,0.65,0.2,-0.2,-0.03233718288380158,0.0843372600325703,-1.9957315925012469,14.63532267045078,stabilize,85.0,10.0,0.0,0.0,-10.0,24.716172447204755,0.6550024693129178
1760989094.446653,1.5880956649780273,-1.7033152240389733,-3.522875576720822,16.142817502559723,-3.450563438802179,-6.456934491555317,6.756166824978282,-0.09746467110226315,0.013182893794159406,0.11765654660655418,0.65,-0.2,0.2,-0.15,-1.0060759650147229,-3.7481533240737277,12.966044483695281,stabilize,85.0,10.0,0.0,0.0,-10.0,23.291630286762146,0.3167175641060891
1760989094.555562,1.697004795074463,-2.061870407274203,-4.210676032740624,16.91086868267293,-3.143416590393189,-6.202048629029585,7.408485007998778,-0.004096475612484073,-0.07034924896587058,0.11190105165928137,0.65,-0.2,0.2,0.0594649581454736,-1.2399563538839935,-4.298753582368674,16.016834585862547,stabilize,85.0,10.0,0.0,0.0,-10.0,26.39872072638366,0.5052923346176214
1760989094.6610763,1.8025190830230713,-2.407266560468943,-4.891799346471274,17.721281727785627,-3.5202245657537934,-6.889461066039133,7.716940620254198,-0.771556454521408,0.6942350416738654,0.0976826895242161,0.65,0.2,-0.2,0.15,-1.59512419803455,-3.7412188210264192,16.453165139105195,stabilize,85.0,10.0,0.0,0.0,-10.0,26.763988591963045,0.6061113973881153
1760989094.7703753,1.911818027496338,-2.825503712591901,-5.706243602867963,18.554921802335627,-4.1183104367564995,-7.951566529285323,7.7360797053806705,-0.2999976377862362,0.21577658689006232,0.07772067792358288,0.65,0.11195055227377004,-0.035303824607797685,0.02211405574462471,-2.190994906810022,-5.047886444156992,16.128683580672266,stabilize,85.0,10.0,0.0,0.0,-10.0,26.701867385890147,0.07899464238529956
1760989094.8830683,2.0245110988616943,-3.282879992848576,-6.602068053319275,19.466990895504658,-3.8562784118089084,-7.746223249772833,8.373153591049507,0.07879100163339638,-0.14438729401372774,0.05345586938085421,0.65,-0.2,0.2,0.15,-1.8637276176474389,-6.138405294784752,16.270465236116387,stabilize,85.0,10.0,0.0,0.0,-10.0,27.04238975974244,0.6053054189741582
1760989094.9912338,2.132676601409912,-3.7027729862539394,-7.445573218855897,20.396289451729423,-4.1429769954315905,-8.188801663149293,8.745279318363837,-0.7406205640381047,0.6614249309528629,0.041590701698913546,0.65,0.2,-0.2,0.026394226089888437,-2.1562755057035528,-6.837216262765236,19.329535329992236,stabilize,85.0,10.0,0.0,0.0,-10.0,30.19302391204931,0.5433427032482776
1760989095.0977705,2.239213228225708,-4.1805124405784335,-8.379227108832444,21.31687689501447,-4.798804228646304,-9.278901571526557,8.61120591839379,-0.5038803063593298,0.3781125083597602,0.03347627305132821,0.65,0.2,-0.2,-0.14849737085174652,-3.1024090646824747,-7.059108987410686,19.6850748882536,stabilize,85.0,10.0,0.0,0.0,-10.0,30.67017497214502,0.28987048911437885
1760989095.2033484,2.3447911739349365,-4.689770578506577,-9.371801551268693,22.25690887315899,-4.627396572842834,-9.22350623805325,9.132801501435255,0.15695907902213835,-0.2371818508756262,0.02113037663311372,0.65,-0.2,0.2,-0.12622624263380128,-3.543918266396284,-8.206093010724423,19.00934667090433,stabilize,85.0,10.0,0.0,0.0,-10.0,30.35525512085618,0.7093439967905192
1760989095.312334,2.4537768363952637,-5.180399646181433,-10.36420526906662,23.282281486258356,-4.599636980625865,-9.218397930574163,9.62941836849467,-0.5546166256986239,0.5116870614701076,0.014053443201793067,0.65,0.2,-0.2,0.08738540707735759,-4.192947831470758,-9.267840024464741,21.58879798561952,stabilize,85.0,10.0,0.0,0.0,-10.0,33.18622949979081,0.27479248275796325
1760989095.4208283,2.5622711181640625,-5.716420300712007,-11.415784003654718,24.31184425651138,-5.328562810524614,-10.292296371217544,9.396238894273491,-0.7203315082334287,0.6414939272430789,0.014442231599409711,0.65,0.2,-0.2,0.10965536086944566,-4.571250017297979,-10.139950477943115,23.161567666782638,stabilize,85.0,10.0,0.0,0.0,-10.0,34.97719960966557,0.5891861774391463
1760989095.5268264,2.668269157409668,-6.301494875921348,-12.535184855396672,25.319691450791705,-5.489637005570315,-10.561385632667674,9.740957467565517,0.11721672281029809,-0.19121728659241644,0.010388627178133616,0.65,-0.2,0.2,-0.05264530257178406,-6.129517395569313,-11.390218726168792,22.85593260901028,stabilize,85.0,10.0,0.0,0.0,-10.0,35.31034372164024,0.6082609098625976
1760989095.6353192,2.776762008666992,-6.871209686684429,-13.65463531318954,26.404123557266036,-5.11837486720654,-10.172970343993066,10.26035259508059,-0.1945153509389047,0.15717418985384893,0.007840308541306178,0.65,-0.2,0.2,0.14463781623713215,-7.205567713939668,-12.645929403288878,23.938485214211255,stabilize,85.0,10.0,0.0,0.0,-10.0,36.92777430591197,0.2527603570726795
1760989095.7437155,2.8851583003997803,-7.4585538538375555,-14.799413254999875,27.526767242394587,-5.735329418931523,-11.015031476401633,10.19243478998679,-0.8321056881337303,0.7340217205001055,0.01336913393917857,0.65,0.2,-0.2,-0.05815555071160805,-6.836444125446491,-13.854889710392628,24.512965682044296,stabilize,85.0,10.0,0.0,0.0,-10.0,37.813221726500146,0.6949878294794497
1760989095.8532255,2.9946682453155518,-8.116969112424725,-16.054349449513317,28.63768753350432,-6.128525973205685,-11.677017722913607,10.279610339909501,-0.07209732660675781,-0.047108970004733186,0.025383372855602028,0.65,-0.2,0.2,-0.12930232925514842,-7.282666737138758,-15.128024862276574,24.668465790089336,stabilize,85.0,10.0,0.0,0.0,-10.0,38.52008425842914,0.353950029393906
1760989095.962265,3.103707790374756,-8.761249720505766,-17.30363880483602,29.785906110440024,-5.700181728803103,-11.212593860154007,10.779250539019193,0.015318768322931373,-0.020375011818461644,0.034470721774844726,0.65,-0.2,0.2,-0.008649518215449997,-8.249687754907674,-16.007481737044458,26.6542467405105,stabilize,85.0,10.0,0.0,0.0,-10.0,40.839082062768135,0.4995559049292621
1760989096.0696332,3.211076021194458,-9.389427511143236,-18.521016420801505,30.959028855636603,-6.147166062732809,-11.711877408268899,10.891267368331704,-0.8005932889422389,0.754068709200924,0.04039783916067177,0.65,0.2,-0.2,-0.05595120328490569,-8.63603700990483,-18.165846714220454,28.326124574479934,stabilize,85.0,10.0,0.0,0.0,-10.0,43.283610604702965,0.6638796541815036
1760989096.177482,3.31892466545105,-10.081886008156774,-19.83287475771493,32.11073543733837,-6.686725488692229,-12.618898937587,10.69788601618986,-0.3742625787722199,0.2144009466225101,0.043081644279036956,0.65,0.2,-0.05942893277433202,0.0018045944952258391,-9.36836385758275,-19.958338460446093,29.742965186878596,stabilize,85.0,10.0,0.0,0.0,-10.0,45.44892515027421,0.10572103532294945
1760989096.2820246,3.4234673976898193,-10.770488794715012,-21.149180163020937,33.257502594808265,-6.306927658021845,-12.279832872444125,11.132126816614697,0.15771157912238468,-0.22129408530903047,0.05129901157607967,0.65,-0.2,0.2,-0.12065330036253706,-10.211143981160127,-21.050236821856096,30.31230158217787,stabilize,85.0,10.0,0.0,0.0,-10.0,46.60967271406944,0.704083828378059
1760989096.390322,3.5317647457122803,-11.443305814086708,-22.46431555483753,34.4864252506748,-6.345443659654076,-12.276163017792932,11.4699753006988,-0.6394448195549304,0.6124657564196753,0.06488875178569262,0.65,0.2,-0.2,0.046540643208722435,-10.745844532211324,-22.198740342799947,33.411989511410226,stabilize,85.0,10.0,0.0,0.0,-10.0,49.928529728566026,0.4101889651994308
1760989096.4948397,3.636282444000244,-12.136573850527599,-23.799134581143353,35.6662134408706,-6.899143872417086,-13.278474269495351,11.096740330162916,-0.7188578981587098,0.5960257526351938,0.0833285516402581,0.65,0.2,-0.2,-0.14325676365098372,-11.247397239299705,-23.31323936387399,34.24975066217842,stabilize,85.0,10.0,0.0,0.0,-10.0,51.26452484867923,0.5731184494344814
1760989096.6036139,3.745056629180908,-12.891568043684673,-25.257617710880172,36.87728144046662,-6.835847086227056,-13.361519349614612,11.38180235450482,0.16577445787644723,-0.2496703035344355,0.09925528211562092,0.65,-0.2,0.2,0.03599310487869512,-12.421182876537857,-25.628778356851207,34.81031264758975,stabilize,85.0,10.0,0.0,0.0,-10.0,53.095048579803965,0.678133084668213
1760989096.7091312,3.850574016571045,-13.58759904277839,-26.636085169807167,38.104318960580805,-6.404761222519575,-12.74065458327714,11.784212312507382,-0.11899633337596822,0.15530167624902308,0.10824760689516268,0.65,-0.2,0.2,-0.15,-12.932091411984288,-26.793147909689036,36.61914843590293,stabilize,85.0,10.0,0.0,0.0,-10.0,55.30331603156489,0.333957558015297
1760989096.8176763,3.9591190814971924,-14.303399208923041,-28.04087109799968,39.37929934916087,-6.900644221849178,-13.467753674159784,11.634439089407907,-0.8533437909203468,0.8102237415632029,0.11359578643539421,0.65,0.2,-0.2,-0.01912040164004685,-13.886530766864354,-27.75004257151369,34.934733672293,stabilize,85.0,10.0,0.0,0.0,-10.0,54.60797459767021,0.7732706902352411
1760989096.9248812,4.06632399559021,-15.071247559473683,-29.54228345265525,40.61497533168179,-7.259890173051114,-14.221676008099445,11.489479995902402,-0.19577624612045655,0.06856576634045536,0.11534262518041265,0.65,-0.2,0.2,0.10285270973803322,-14.47271836686037,-29.06095041249451,39.15742752836146,stabilize,85.0,10.0,0.0,0.0,-10.0,58.91053468616654,0.15905063498978178
1760989097.0281932,4.169636011123657,-15.79924175135921,-30.987206135757337,41.82236296113762,-6.764630671315075,-13.638610940862083,11.86608797956226,0.17187148833661428,-0.2297890947385327,0.11043546208625313,0.65,-0.2,0.2,-0.15,-14.870444161470733,-29.504340517451702,36.67631372319487,stabilize,85.0,10.0,0.0,0.0,-10.0,57.18666349521776,0.74682094655662
1760989097.135354,4.276796817779541,-16.51050655542104,-32.4258255482235,43.10766378940042,-6.789290219826385,-13.626533450909022,12.1315153450659,-0.6704525907565914,0.6392539961007193,0.09859593308745898,0.65,0.2,-0.2,-0.06768378631822608,-15.465140987027844,-30.77899745890509,41.445616449385945,stabilize,85.0,10.0,0.0,0.0,-10.0,61.91258936744016,0.4735817645180455
1760989097.241935,4.38337779045105,-17.266430964209775,-33.93843709595484,44.38200937656249,-7.31941601526576,-14.623198214733378,11.665582813872238,-0.7103173811613461,0.6215082365292562,0.0842682471106131,0.65,0.2,-0.2,-0.15,-16.039483063516524,-32.06198537425833,43.135651069867514,stabilize,85.0,10.0,0.0,0.0,-10.0,64.09862196414757,0.5995665209017159
1760989097.3502424,4.491685152053833,-18.067705543548115,-35.53796617709587,45.653199242274546,-7.25331670947326,-14.615098066513815,11.914297507834993,0.16219531303822463,-0.25290709842314485,0.0706185629982558,0.65,-0.2,0.2,0.15,-17.097155499491087,-33.37051545710694,41.74038956370025,stabilize,85.0,10.0,0.0,0.0,-10.0,63.89813722050317,0.6939534681213745
1760989097.4632292,4.604671955108643,-18.845770788214363,-37.133575292145714,47.00822238200194,-6.78394373670134,-14.039749028157726,12.302716190733594,-0.2850860802521219,0.2235144748469558,0.06639179270392845,0.65,-0.2,0.2,-0.15,-18.0528375168307,-35.250718744263345,43.95822336452271,stabilize,85.0,10.0,0.0,0.0,-10.0,66.93286175752516,0.18613360620847416
1760989097.570226,4.7116687297821045,-19.60265004032572,-38.68539253481905,48.32982703198587,-7.272696461463081,-14.838564710869651,12.012365831960718,-0.8760137994055125,0.7732241354024851,0.058857496367134686,0.65,0.2,-0.2,0.15,-19.0478831568019,-36.75583446946856,42.439055838799064,stabilize,85.0,10.0,0.0,0.0,-10.0,66.81068625277574,0.7551810213772607
1760989097.6778014,4.819244146347046,-20.40830468543238,-40.32268995902701,49.60785442367767,-7.569120924137535,-15.368954838541429,11.941245325223418,-0.08271096667553487,-0.03031038099766773,0.05559734906778176,0.65,-0.2,0.2,-0.035755411789119694,-20.203737506228457,-39.071458185881475,42.04690503887766,stabilize,85.0,10.0,0.0,0.0,-10.0,68.14433342632104,0.33809502977103056
1760989097.7863069,4.9277496337890625,-21.196910863051833,-41.94792217677806,50.91780625635054,-7.018030312863379,-14.683563705472384,12.310696301006814,0.08042684755341387,-0.11000736559866342,0.047648012932163974,0.65,-0.2,0.2,-0.15,-20.925643595922953,-41.48455407877454,45.14939178899414,stabilize,85.0,10.0,0.0,0.0,-10.0,72.11314860491348,0.623718961753096
1760989097.8933127,5.03475546836853,-21.95228530116433,-43.516056862516756,52.24883747246989,-7.2934747443940795,-14.89607621373405,12.393921312771344,-0.7810956305462113,0.7631619451057553,0.036240726232359424,0.65,0.2,-0.2,-0.07559494763811714,-21.591908418958564,-42.906359180013254,50.40486172837104,stabilize,85.0,10.0,0.0,0.0,-10.0,77.17456503071867,0.6295653847055269
1760989097.995421,5.136863708496094,-22.73075818789122,-45.08914525685108,53.49463517761932,-7.863232874447438,-15.709239875421613,11.958223891743735,-0.5614994141048684,0.4969194782289891,0.024789186446495193,0.65,0.2,-0.2,-0.1414138370597751,-22.174772736946647,-44.62169725677236,50.4846683861088,stabilize,85.0,10.0,0.0,0.0,-10.0,78.36588238377608,0.40117775455315635
1760989098.1043088,5.245751619338989,-23.58275063061724,-46.78763884982987,54.804998621757576,-7.646537561257363,-15.394469782752005,12.268185238881365,0.18418767147219176,-0.24030260069034995,0.015229838888163021,0.65,-0.2,0.2,0.06251152260677058,-22.45982728456819,-45.34639852982301,47.68819836284556,stabilize,85.0,10.0,0.0,0.0,-10.0,76.73765654246411,0.7254227404901593
1760989098.2113523,5.352795124053955,-24.380783706067096,-48.41080277136732,56.143434003643925,-7.394085277069861,-15.001612807123989,12.594826574648,-0.48267522437462906,0.43564313423465617,0.019257610972143496,0.65,0.2,-0.2,-0.04064711771090433,-22.938460062830895,-47.468749452731295,48.95109580245617,stabilize,85.0,10.0,0.0,0.0,-10.0,79.08657800771653,0.14603939671585764