timestamp,simulation_time,position_x,position_y,position_z,velocity_x,velocity_y,velocity_z,attitude_roll,attitude_pitch,attitude_yaw,control_throttle,control_roll,control_pitch,control_yaw,flight_mode
1761301695.1299126,0.10464191436767578,0.0,0.0,-0.0,0.0,0.0,-0.0,0.0,0.0,0.0,0.0,0.0,0.0,0.0,manual
1761301695.235459,0.2101883888244629,0.0,0.0,-0.0,0.0,0.0,-0.0,0.0,0.0,0.0,0.0,0.0,0.0,0.0,manual
1761301695.3404055,0.31513476371765137,0.0,0.0,-0.0,0.0,0.0,-0.0,0.0,0.0,0.0,0.0,0.0,0.0,0.0,manual
1761301695.444454,0.41918325424194336,0.0,0.0,-0.0,0.0,0.0,-0.0,0.0,0.0,0.0,0.0,0.0,0.0,0.0,manual
1761301695.548883,0.5236122608184814,0.0,0.0,-0.0,0.0,0.0,-0.0,0.0,0.0,0.0,0.0,0.0,0.0,0.0,manual
1761301695.6536741,0.6284034252166748,0.0,0.0,-0.0,0.0,0.0,-0.0,0.0,0.0,0.0,0.0,0.0,0.0,0.0,manual
1761301695.7589405,0.7336697578430176,0.0,0.0,-0.0,0.0,0.0,-0.0,0.0,0.0,0.0,0.0,0.0,0.0,0.0,manual
1761301695.862797,0.8375263214111328,0.0,0.0,-0.0,0.0,0.0,-0.0,0.0,0.0,0.0,0.0,0.0,0.0,0.0,manual
1761301695.965819,0.9405481815338135,0.0,0.0,-0.0,0.0,0.0,-0.0,0.0,0.0,0.0,0.0,0.0,0.0,0.0,manual
1761301696.070425,1.045154333114624,0.0,0.0,-0.0,0.0,0.0,-0.0,0.0,0.0,0.0,0.0,0.0,0.0,0.0,manual
1761301696.1741014,1.1488306522369385,0.0,0.0,-0.0,0.0,0.0,-0.0,0.0,0.0,0.0,0.0,0.0,0.0,0.0,manual
1761301696.2782547,1.2529840469360352,0.0,0.0,-0.0,0.0,0.0,-0.0,0.0,0.0,0.0,0.0,0.0,0.0,0.0,manual
1761301696.3872108,1.3619401454925537,0.0,0.0,-0.0,0.0,0.0,-0.0,0.0,0.0,0.0,0.0,0.0,0.0,0.0,manual
1761301696.4993308,1.47406005859375,0.0,0.0,-0.0,0.0,0.0,-0.0,0.0,0.0,0.0,0.0,0.0,0.0,0.0,manual
1761301696.6033275,1.578056812286377,0.0,0.0,-0.0,0.0,0.0,-0.0,0.0,0.0,0.0,0.0,0.0,0.0,0.0,manual
1761301696.708813,1.683542251586914,0.0,0.0,-0.0,0.0,0.0,-0.0,0.0,0.0,0.0,0.0,0.0,0.0,0.0,manual
1761301696.8129086,1.7876379489898682,0.0,0.0,-0.0,0.0,0.0,-0.0,0.0,0.0,0.0,0.0,0.0,0.0,0.0,manual
1761301696.9174995,1.8922288417816162,0.0,0.0,-0.0,0.0,0.0,-0.0,0.0,0.0,0.0,0.0,0.0,0.0,0.0,manual
1761301697.0231407,1.9978699684143066,0.0,0.0,0.06772727153443456,0.0,0.0,1.4265591734323773,0.0,0.0,0.0,1.0,0.0,0.0,0.0,stabilize
1761301697.1284745,2.103203773498535,0.0,0.0,0.24093662974012414,0.0,0.0,1.7030011252573882,0.0,0.0,0.0,0.4572638397292659,0.0,0.0,0.0,stabilize
1761301697.2321134,2.2068426609039307,0.0,0.0,0.418061759449885,0.0,0.0,1.6970742636375964,0.0,0.0,0.0,0.43053575556926915,0.0,0.0,0.0,stabilize
1761301697.3404927,2.3152220249176025,0.0,0.0,0.5973591611813039,0.0,0.0,1.603835272255225,0.0,0.0,0.0,0.3950995285214073,0.0,0.0,0.0,stabilize
1761301697.4450579,2.4197871685028076,0.0,0.0,0.7587355862088558,0.0,0.0,1.4792933042740453,0.0,0.0,0.0,0.38483578602150437,0.0,0.0,0.0,stabilize
1761301697.5527925,2.527521848678589,0.0,0.0,0.9105087379163462,0.0,0.0,1.3371362314175574,0.0,0.0,0.0,0.3799962847138076,0.0,0.0,0.0,stabilize
1761301697.6582797,2.6330089569091797,0.0,0.0,1.0442079214345008,0.0,0.0,1.1984636892593354,0.0,0.0,0.0,0.38088937487359464,0.0,0.0,0.0,stabilize
1761301697.7635317,2.7382609844207764,0.0,0.0,1.1633206549437722,0.0,0.0,1.0665470335990768,0.0,0.0,0.0,0.3841245689532201,0.0,0.0,0.0,stabilize
1761301697.8689356,2.8436648845672607,0.0,0.0,1.26921235793494,0.0,0.0,0.9445253944344454,0.0,0.0,0.0,0.3887163293417467,0.0,0.0,0.0,stabilize
1761301697.9717424,2.946471691131592,0.0,0.0,1.3606643494910193,0.0,0.0,0.836379188574525,0.0,0.0,0.0,0.3937872530195563,0.0,0.0,0.0,stabilize
1761301698.075291,3.050020217895508,0.0,0.0,1.4421026829299635,0.0,0.0,0.7383546835006625,0.0,0.0,0.0,0.3987780373457114,0.0,0.0,0.0,stabilize
1761301698.1822944,3.1570236682891846,0.0,0.0,1.5161819910130672,0.0,0.0,0.6480581950273503,0.0,0.0,0.0,0.4036666952772079,0.0,0.0,0.0,stabilize
1761301698.2862914,3.2610206604003906,0.0,0.0,1.5794528535914556,0.0,0.0,0.5702683368159366,0.0,0.0,0.0,0.40793363497983004,0.0,0.0,0.0,stabilize
1761301698.3917701,3.366499423980713,0.0,0.0,1.6358486787421496,0.0,0.0,0.5005022457130667,0.0,0.0,0.0,0.41194842843035906,0.0,0.0,0.0,stabilize
1761301698.508208,3.4829373359680176,0.0,0.0,1.6857415173902148,0.0,0.0,0.438441218929665,0.0,0.0,0.0,0.4153256930463164,0.0,0.0,0.0,stabilize
1761301698.6045117,3.5792410373687744,0.0,0.0,1.729404345203667,0.0,0.0,0.3840280785173387,0.0,0.0,0.0,0.41889291290897746,0.0,0.0,0.0,stabilize
1761301698.7091131,3.683842420578003,0.0,0.0,1.7670556425140531,0.0,0.0,0.3368915410818538,0.0,0.0,0.0,0.4215003807099666,0.0,0.0,0.0,stabilize
1761301698.8136847,3.7884140014648438,0.0,0.0,1.800071795604736,0.0,0.0,0.29545712445025907,0.0,0.0,0.0,0.42400731757644794,0.0,0.0,0.0,stabilize
1761301698.9196143,3.894343614578247,0.0,0.0,1.8293734405190563,0.0,0.0,0.258584129615657,0.0,0.0,0.0,0.4261701083731638,0.0,0.0,0.0,stabilize
1761301699.0232458,3.9979751110076904,0.0,0.0,1.854493470800754,0.0,0.0,0.2268936020348287,0.0,0.0,0.0,0.4281070155507182,0.0,0.0,0.0,stabilize
1761301699.1280682,4.102797508239746,0.0,0.0,1.8766662307890654,0.0,0.0,0.19883608001812658,0.0,0.0,0.0,0.42967985417718396,0.0,0.0,0.0,stabilize
1761301699.2322242,4.206953525543213,0.0,0.0,1.8961558936681921,0.0,0.0,0.17410798050636306,0.0,0.0,0.0,0.43114088176083265,0.0,0.0,0.0,stabilize
1761301699.3425996,4.317328929901123,0.0,0.0,1.9140847246015065,0.0,0.0,0.15130794699799976,0.0,0.0,0.0,0.4327543389213622,0.0,0.0,0.0,stabilize
1761301699.4492865,4.424015760421753,0.0,0.0,1.929174812067195,0.0,0.0,0.13202330010425967,0.0,0.0,0.0,0.43383504750889657,0.0,0.0,0.0,stabilize
1761301699.553823,4.528552293777466,0.0,0.0,1.9420908007126856,0.0,0.0,0.11544495931442521,0.0,0.0,0.0,0.43470672646661795,0.0,0.0,0.0,stabilize
1761301699.6582496,4.632978916168213,0.0,0.0,1.9533715569110544,0.0,0.0,0.10090921547090777,0.0,0.0,0.0,0.43555467983801754,0.0,0.0,0.0,stabilize
1761301699.7615755,4.736304759979248,0.0,0.0,1.9631319937655247,0.0,0.0,0.08828028618464924,0.0,0.0,0.0,0.4363569637638749,0.0,0.0,0.0,stabilize
1761301699.8669152,4.841644525527954,0.0,0.0,1.971822227323938,0.0,0.0,0.07696177172987165,0.0,0.0,0.0,0.43703636779941146,0.0,0.0,0.0,stabilize
1761301699.970943,4.945672273635864,0.0,0.0,1.9793075760806516,0.0,0.0,0.06715777786091463,0.0,0.0,0.0,0.43763256539163,0.0,0.0,0.0,stabilize
1761301700.071188,5.045917272567749,0.0,0.0,1.985613658311734,0.0,0.0,0.05883902696249115,0.0,0.0,0.0,0.4381105393675379,0.0,0.0,0.0,stabilize
1761301700.1759894,5.150718688964844,0.0,0.0,1.9913701833825523,0.0,0.0,0.05118620815910005,0.0,0.0,0.0,0.43861421171257975,0.0,0.0,0.0,stabilize
1761301700.2804306,5.255159854888916,0.0,0.0,1.9963586976966061,0.0,0.0,0.04448698081716655,0.0,0.0,0.0,0.4389566287038443,0.0,0.0,0.0,stabilize
1761301700.384142,5.358871221542358,0.0,0.0,2.000663519243135,0.0,0.0,0.03864755020638381,0.0,0.0,0.0,0.4393247751584344,0.0,0.0,0.0,stabilize
1761301700.488368,5.463097333908081,0.0,0.0,2.004417708461576,0.0,0.0,0.03349173916393338,0.0,0.0,0.0,0.43962085221092095,0.0,0.0,0.0,stabilize
1761301700.5951567,5.569885969161987,0.0,0.0,2.007742551161607,0.0,0.0,0.028872820895838074,0.0,0.0,0.0,0.43992722939497464,0.0,0.0,0.0,stabilize
1761301700.7010567,5.675786018371582,0.0,0.0,2.010583133393649,0.0,0.0,0.02485611712329902,0.0,0.0,0.0,0.4401529839058303,0.0,0.0,0.0,stabilize
1761301700.8069048,5.781634092330933,0.0,0.0,2.013024597706043,0.0,0.0,0.021349836503066606,0.0,0.0,0.0,0.44039257643732155,0.0,0.0,0.0,stabilize
1761301700.913775,5.888504266738892,0.0,0.0,2.015136624399018,0.0,0.0,0.018246161546524756,0.0,0.0,0.0,0.4405867404625891,0.0,0.0,0.0,stabilize
1761301701.0170999,5.99182915687561,0.0,0.0,2.0168833590190167,0.0,0.0,0.015619426712502991,0.0,0.0,0.0,0.4407349148916826,0.0,0.0,0.0,stabilize
1761301701.1244764,6.099205732345581,0.0,0.0,2.0184291313012634,0.0,0.0,0.013223676556053708,0.0,0.0,0.0,0.440827786104527,0.0,0.0,0.0,stabilize
1761301701.230814,6.205543279647827,0.0,0.0,2.019723515343653,0.0,0.0,0.011159417922915768,0.0,0.0,0.0,0.4409929557741056,0.0,0.0,0.0,stabilize
1761301701.335748,6.310477256774902,0.0,0.0,2.020799039520042,0.0,0.0,0.00937718308858385,0.0,0.0,0.0,0.44112164411029564,0.0,0.0,0.0,stabilize
1761301701.441438,6.416167259216309,0.0,0.0,2.021705024014178,0.0,0.0,0.007802923064967877,0.0,0.0,0.0,0.4412246785448685,0.0,0.0,0.0,stabilize
1761301701.5482688,6.522998094558716,0.0,0.0,2.0224627942820255,0.0,0.0,0.006412009922932924,0.0,0.0,0.0,0.4412706650270689,0.0,0.0,0.0,stabilize
1761301701.6528616,6.627590894699097,0.0,0.0,2.0230704577943146,0.0,0.0,0.005232195695211029,0.0,0.0,0.0,0.4413998385949716,0.0,0.0,0.0,stabilize
1761301701.7582517,6.732980966567993,0.0,0.0,2.0235653123165807,0.0,0.0,0.004181750612123545,0.0,0.0,0.0,0.4414220848779418,0.0,0.0,0.0,stabilize
1761301701.8637562,6.838485479354858,0.0,0.0,2.023957580507581,0.0,0.0,0.0032707552744799485,0.0,0.0,0.0,0.44150059243924944,0.0,0.0,0.0,stabilize
1761301701.9671404,6.941869735717773,0.0,0.0,2.0242547037126926,0.0,0.0,0.0024922869731481855,0.0,0.0,0.0,0.4415479194880447,0.0,0.0,0.0,stabilize
1761301702.0729427,7.0476720333099365,0.0,0.0,2.0244806456184796,0.0,0.0,0.0017961947245102275,0.0,0.0,0.0,0.44161262065190077,0.0,0.0,0.0,stabilize
1761301702.1767795,7.151508808135986,0.0,0.0,2.024635505654383,0.0,0.0,0.001199736099754743,0.0,0.0,0.0,0.4416216520369295,0.0,0.0,0.0,stabilize
1761301702.2833834,7.258112668991089,0.0,0.0,2.0247343487791087,0.0,0.0,0.0006704464804207508,0.0,0.0,0.0,0.44168097199230644,0.0,0.0,0.0,stabilize
1761301702.3939428,7.368672132492065,0.0,0.0,2.024781055892759,0.0,0.0,0.00019281316035510583,0.0,0.0,0.0,0.44170770274969606,0.0,0.0,0.0,stabilize
1761301702.499226,7.473955392837524,0.0,0.0,2.0247801709651685,0.0,0.0,-0.00019791348587229026,0.0,0.0,0.0,0.44175826994927014,0.0,0.0,0.0,stabilize
1761301702.6051917,7.579921007156372,0.0,0.0,2.024740381986279,0.0,0.0,-0.0005426220631569186,0.0,0.0,0.0,0.44174326430646355,0.0,0.0,0.0,stabilize
1761301702.7108047,7.6855340003967285,0.0,0.0,2.024667203557163,0.0,0.0,-0.0008372752872092719,0.0,0.0,0.0,0.4417698730246319,0.0,0.0,0.0,stabilize
1761301702.8171465,7.791875839233398,0.0,0.0,2.024564342325948,0.0,0.0,-0.0010907791366354485,0.0,0.0,0.0,0.4417815365322207,0.0,0.0,0.0,stabilize
1761301702.9234245,7.898153781890869,0.0,0.0,2.0244364262387595,0.0,0.0,-0.0013098009907496469,0.0,0.0,0.0,0.44181002903089917,0.0,0.0,0.0,stabilize
1761301703.0270934,8.001822710037231,0.0,0.0,2.024290962848181,0.0,0.0,-0.0014915620238584442,0.0,0.0,0.0,0.44181905820314116,0.0,0.0,0.0,stabilize
1761301703.1333942,8.108123540878296,0.0,0.0,2.0241235059698917,0.0,0.0,-0.0016530746346415871,0.0,0.0,0.0,0.44181866632882294,0.0,0.0,0.0,stabilize
1761301703.2373452,8.212074518203735,0.0,0.0,2.0239446113703066,0.0,0.0,-0.0017856751486971904,0.0,0.0,0.0,0.4418302253355849,0.0,0.0,0.0,stabilize
1761301703.3436747,8.318403959274292,0.0,0.0,2.0237483300243215,0.0,0.0,-0.0019010339304990824,0.0,0.0,0.0,0.4418575083619052,0.0,0.0,0.0,stabilize
1761301703.4488153,8.423544645309448,0.0,0.0,2.0235432190397105,0.0,0.0,-0.002001490620459762,0.0,0.0,0.0,0.44183491480989145,0.0,0.0,0.0,stabilize
1761301703.5612586,8.535987854003906,0.0,0.0,2.023315531351917,0.0,0.0,-0.002110375401191632,0.0,0.0,0.0,0.44177167696961356,0.0,0.0,0.0,stabilize
1761301703.661866,8.636595249176025,0.0,0.0,2.0231010618022114,0.0,0.0,-0.002141911492197034,0.0,0.0,0.0,0.4418628765780332,0.0,0.0,0.0,stabilize
1761301703.7673922,8.742121458053589,0.0,0.0,2.0228719104876176,0.0,0.0,-0.002194842861345448,0.0,0.0,0.0,0.44189542233885065,0.0,0.0,0.0,stabilize
1761301703.8708198,8.8455491065979,0.0,0.0,2.02264234848662,0.0,0.0,-0.0022402593679511666,0.0,0.0,0.0,0.4418716538473973,0.0,0.0,0.0,stabilize
1761301703.976369,8.951098203659058,0.0,0.0,2.0224039332215487,0.0,0.0,-0.0022768275072392783,0.0,0.0,0.0,0.4418653742226424,0.0,0.0,0.0,stabilize
1761301704.0769594,9.05168867111206,0.0,0.0,2.022173659873462,0.0,0.0,-0.0022977608846146223,0.0,0.0,0.0,0.44189459620415533,0.0,0.0,0.0,stabilize
1761301704.1806214,9.155350685119629,0.0,0.0,2.0219343819244604,0.0,0.0,-0.0023170536025879807,0.0,0.0,0.0,0.44188876485835155,0.0,0.0,0.0,stabilize
1761301704.2842352,9.258964538574219,0.0,0.0,2.0216934958949584,0.0,0.0,-0.002332941721870209,0.0,0.0,0.0,0.44187746924365584,0.0,0.0,0.0,stabilize
1761301704.3886533,9.363382577896118,0.0,0.0,2.021449589252534,0.0,0.0,-0.002337150066551174,0.0,0.0,0.0,0.4419109577948138,0.0,0.0,0.0,stabilize
1761301704.4933355,9.468064785003662,0.0,0.0,2.0212044822158868,0.0,0.0,-0.002344573867823955,0.0,0.0,0.0,0.4418780149515166,0.0,0.0,0.0,stabilize
1761301704.596709,9.571438312530518,0.0,0.0,2.0209623477703764,0.0,0.0,-0.0023435893264019425,0.0,0.0,0.0,0.4418824687308985,0.0,0.0,0.0,stabilize
1761301704.7007287,9.675457954406738,0.0,0.0,2.0207189545535473,0.0,0.0,-0.0023356514571607635,0.0,0.0,0.0,0.441913615907588,0.0,0.0,0.0,stabilize
1761301704.8048804,9.779609680175781,0.0,0.0,2.0204758584172398,0.0,0.0,-0.002331422046766784,0.0,0.0,0.0,0.4418910401554738,0.0,0.0,0.0,stabilize
1761301704.911497,9.886226415634155,0.0,0.0,2.0202278501814663,0.0,0.0,-0.0023214741970061536,0.0,0.0,0.0,0.4418900615126905,0.0,0.0,0.0,stabilize
1761301705.0162873,9.991016626358032,0.0,0.0,2.0199853290320933,0.0,0.0,-0.0023086465632414493,0.0,0.0,0.0,0.4418863841326807,0.0,0.0,0.0,stabilize
1761301705.1214657,10.096194982528687,0.0,0.0,2.019743305246462,0.0,0.0,-0.002292751269757291,0.0,0.0,0.0,0.44191308642115784,0.0,0.0,0.0,stabilize
1761301705.227006,10.201735258102417,0.0,0.0,2.0195020376093007,0.0,0.0,-0.002275994414700419,0.0,0.0,0.0,0.44191458761500435,0.0,0.0,0.0,stabilize
1761301705.3323252,10.30705451965332,0.0,0.0,2.0192630575036805,0.0,0.0,-0.00226056084481864,0.0,0.0,0.0,0.44189115287695135,0.0,0.0,0.0,stabilize
1761301705.436775,10.41150426864624,0.0,0.0,2.01902794879232,0.0,0.0,-0.002242203999294288,0.0,0.0,0.0,0.4419015233591921,0.0,0.0,0.0,stabilize
1761301705.5462728,10.521002054214478,0.0,0.0,2.0187835032744297,0.0,0.0,-0.002222686832082494,0.0,0.0,0.0,0.44188028954669545,0.0,0.0,0.0,stabilize
1761301705.650423,10.625152349472046,0.0,0.0,2.018553298789695,0.0,0.0,-0.0022021230978774443,0.0,0.0,0.0,0.44189231973626075,0.0,0.0,0.0,stabilize
1761301705.7532923,10.728021621704102,0.0,0.0,2.018328023150351,0.0,0.0,-0.0021798398998045276,0.0,0.0,0.0,0.4419007931344821,0.0,0.0,0.0,stabilize
1761301705.8568523,10.831581592559814,0.0,0.0,2.0181033631764063,0.0,0.0,-0.002160155246576123,0.0,0.0,0.0,0.4418948195845684,0.0,0.0,0.0,stabilize
1761301705.9611726,10.935901880264282,0.0,0.0,2.0178792734579147,0.0,0.0,-0.002138016733285585,0.0,0.0,0.0,0.4418883720538054,0.0,0.0,0.0,stabilize
1761301706.0658135,11.040542840957642,0.0,0.0,2.01765680144972,0.0,0.0,-0.002114743824056926,0.0,0.0,0.0,0.44189678752515404,0.0,0.0,0.0,stabilize
1761301706.1728222,11.147551536560059,0.0,0.0,2.0174316782952855,0.0,0.0,-0.0020925474881496927,0.0,0.0,0.0,0.4418997141169613,0.0,0.0,0.0,stabilize
1761301706.2765253,11.251254558563232,0.0,0.0,2.0172159612833633,0.0,0.0,-0.0020684518917005166,0.0,0.0,0.0,0.4419023527579188,0.0,0.0,0.0,stabilize
1761301706.3818552,11.356584548950195,0.0,0.0,2.0169992352794144,0.0,0.0,-0.0020462480616170496,0.0,0.0,0.0,0.4418947060346349,0.0,0.0,0.0,stabilize
1761301706.4860828,11.460812091827393,0.0,0.0,2.0167872139883123,0.0,0.0,-0.0020241098436086014,0.0,0.0,0.0,0.44189634687711854,0.0,0.0,0.0,stabilize
1761301706.593351,11.568080186843872,0.0,0.0,2.016571456456793,0.0,0.0,-0.002003213594775721,0.0,0.0,0.0,0.4418381865199499,0.0,0.0,0.0,stabilize
1761301706.6982684,11.67299771308899,0.0,0.0,2.0163630589319124,0.0,0.0,-0.001972780219941849,0.0,0.0,0.0,0.44192206887716534,0.0,0.0,0.0,stabilize
1761301706.8042765,11.779005765914917,0.0,0.0,2.0161549056533223,0.0,0.0,-0.0019508070996406151,0.0,0.0,0.0,0.44191499808406737,0.0,0.0,0.0,stabilize
1761301706.9105163,11.885245561599731,0.0,0.0,2.015948760317603,0.0,0.0,-0.0019291661087604576,0.0,0.0,0.0,0.44189016771909884,0.0,0.0,0.0,stabilize
1761301707.0171354,11.991864681243896,0.0,0.0,2.0157443353436477,0.0,0.0,-0.0018982717178923365,0.0,0.0,0.0,0.4419773684697328,0.0,0.0,0.0,stabilize
1761301707.123299,12.098028182983398,0.0,0.0,2.0155432993801354,0.0,0.0,-0.001881243467638693,0.0,0.0,0.0,0.44191035620368274,0.0,0.0,0.0,stabilize
1761301707.2281947,12.202924013137817,0.0,0.0,2.0153470616501337,0.0,0.0,-0.0018621486440039458,0.0,0.0,0.0,0.4418921449782401,0.0,0.0,0.0,stabilize
1761301707.331574,12.306303262710571,0.0,0.0,2.0151560063781324,0.0,0.0,-0.0018373131278237073,0.0,0.0,0.0,0.44189743952266713,0.0,0.0,0.0,stabilize
1761301707.4368453,12.411574602127075,0.0,0.0,2.0149637641128244,0.0,0.0,-0.001813326993352049,0.0,0.0,0.0,0.44191620573116286,0.0,0.0,0.0,stabilize
1761301707.541595,12.516324281692505,0.0,0.0,2.014774844301153,0.0,0.0,-0.0017941759010394725,0.0,0.0,0.0,0.44189347919642885,0.0,0.0,0.0,stabilize
1761301707.646008,12.620737314224243,0.0,0.0,2.014588840787218,0.0,0.0,-0.0017705732020840267,0.0,0.0,0.0,0.4419049206549578,0.0,0.0,0.0,stabilize
1761301707.7501795,12.724908828735352,0.0,0.0,2.0144055397854284,0.0,0.0,-0.0017476190569511757,0.0,0.0,0.0,0.4419129320869291,0.0,0.0,0.0,stabilize
1761301707.8557146,12.830443859100342,0.0,0.0,2.014222110866889,0.0,0.0,-0.0017258114791721079,0.0,0.0,0.0,0.44190799675906867,0.0,0.0,0.0,stabilize
1761301707.9623353,12.93706464767456,0.0,0.0,2.0140391015224406,0.0,0.0,-0.0017066313897724874,0.0,0.0,0.0,0.4418913362654662,0.0,0.0,0.0,stabilize
1761301708.0683556,13.043084859848022,0.0,0.0,2.0138594265481244,0.0,0.0,-0.0016829954894614372,0.0,0.0,0.0,0.4419093217298306,0.0,0.0,0.0,stabilize
1761301708.1739154,13.14864468574524,0.0,0.0,2.013682791038456,0.0,0.0,-0.0016617185310413795,0.0,0.0,0.0,0.441908241680949,0.0,0.0,0.0,stabilize
1761301708.2792916,13.254020929336548,0.0,0.0,2.013508686777091,0.0,0.0,-0.0016425049660971002,0.0,0.0,0.0,0.4418865206174379,0.0,0.0,0.0,stabilize
1761301708.3843727,13.359102010726929,0.0,0.0,2.0133372660729654,0.0,0.0,-0.001623534666248417,0.0,0.0,0.0,0.44188620518654786,0.0,0.0,0.0,stabilize
1761301708.4899435,13.464672803878784,0.0,0.0,2.013167207502014,0.0,0.0,-0.0016009355495847431,0.0,0.0,0.0,0.44190150475742823,0.0,0.0,0.0,stabilize
1761301708.5950668,13.569796085357666,0.0,0.0,2.013000006630324,0.0,0.0,-0.0015794969632886113,0.0,0.0,0.0,0.4419169380149013,0.0,0.0,0.0,stabilize
1761301708.700981,13.675710201263428,0.0,0.0,2.012835250543983,0.0,0.0,-0.001560185795194434,0.0,0.0,0.0,0.44191040050594776,0.0,0.0,0.0,stabilize
1761301708.8066494,13.781378746032715,0.0,0.0,2.012669823555995,0.0,0.0,-0.001542357135440085,0.0,0.0,0.0,0.4418906647046377,0.0,0.0,0.0,stabilize
1761301708.9122565,13.886985778808594,0.0,0.0,2.012508154017951,0.0,0.0,-0.0015222684215327386,0.0,0.0,0.0,0.44189437702217677,0.0,0.0,0.0,stabilize
1761301709.0172553,13.991984605789185,0.0,0.0,2.012349452105174,0.0,0.0,-0.0015017422752914933,0.0,0.0,0.0,0.44189836447817565,0.0,0.0,0.0,stabilize
1761301709.1187334,14.093462705612183,0.0,0.0,2.0121963854855105,0.0,0.0,-0.0013572991384157864,0.0,0.0,0.0,0.4424511296902664,0.0,0.0,0.0,stabilize
1761301709.2269173,14.201646566390991,0.0,0.0,2.0120369391319564,0.0,0.0,-0.0015086969611332402,0.0,0.0,0.0,0.44182954279023984,0.0,0.0,0.0,stabilize
1761301709.3342652,14.30899453163147,0.0,0.0,2.011880645033783,0.0,0.0,-0.0014454376538167771,0.0,0.0,0.0,0.44179804462138755,0.0,0.0,0.0,stabilize
1761301709.4463093,14.421038627624512,0.0,0.0,2.011719253803214,0.0,0.0,-0.0014252306998449678,0.0,0.0,0.0,0.44175523956397234,0.0,0.0,0.0,stabilize
1761301709.554513,14.529242277145386,0.0,0.0,2.011567554745606,0.0,0.0,-0.0013967428952868558,0.0,0.0,0.0,0.44189050469487723,0.0,0.0,0.0,stabilize
1761301709.6588385,14.633567810058594,0.0,0.0,2.0114234392103887,0.0,0.0,-0.001387936886659983,0.0,0.0,0.0,0.4419014832082072,0.0,0.0,0.0,stabilize
1761301709.7700765,14.744805812835693,0.0,0.0,2.0112684535535807,0.0,0.0,-0.001355569990459818,0.0,0.0,0.0,0.4420090662904393,0.0,0.0,0.0,stabilize
1761301709.9361975,14.910926818847656,0.0,0.0,2.01100968562631,0.0,0.0,-0.0020471569268949623,0.0,0.0,0.0,0.4415547757275575,0.0,0.0,0.0,stabilize
1761301710.053132,15.02786135673523,0.0,0.0,2.0108877689896216,0.0,0.0,-0.0011030379910000813,0.0,0.0,0.0,0.4416514819073176,0.0,0.0,0.0,stabilize
1761301710.1602294,15.134958744049072,0.0,0.0,2.0107684028758883,0.0,0.0,-0.0011829848720622948,0.0,0.0,0.0,0.4416446880944648,0.0,0.0,0.0,stabilize
1761301710.2608202,15.235549449920654,0.0,0.0,2.0106470328510837,0.0,0.0,-0.0012367618859072725,0.0,0.0,0.0,0.44181244617558296,0.0,0.0,0.0,stabilize
1761301710.405849,15.38057827949524,0.0,0.0,2.0104644500948496,0.0,0.0,-0.0013519675678925283,0.0,0.0,0.0,0.4418284555488462,0.0,0.0,0.0,stabilize
1761301710.5192437,15.493973016738892,0.0,0.0,2.0103191407881096,0.0,0.0,-0.0013497641952687366,0.0,0.0,0.0,0.44173752801246224,0.0,0.0,0.0,stabilize
1761301710.628822,15.603551387786865,0.0,0.0,2.0101750355211228,0.0,0.0,-0.0014825465322425018,0.0,0.0,0.0,0.4416532092662039,0.0,0.0,0.0,stabilize
1761301710.7318246,15.706553936004639,0.0,0.0,2.010034432596116,0.0,0.0,-0.0014772583737151168,0.0,0.0,0.0,0.4419468313784068,0.0,0.0,0.0,stabilize
1761301710.907916,15.88264536857605,0.0,0.0,2.0097509143398575,0.0,0.0,-0.002045675197582227,0.0,0.0,0.0,0.4416114008366115,0.0,0.0,0.0,stabilize
1761301711.0120912,15.986820459365845,0.0,0.0,2.0061519984343783,0.0,0.0,-0.11352260564459116,0.0,0.0,0.0,0.35,0.0,0.0,0.0,auto
1761301711.116562,16.091291189193726,0.0,0.0,1.9843667073144104,0.0,0.0,-0.30348240625781914,0.0,0.0,0.0,0.35,0.0,0.0,0.0,auto
1761301711.222062,16.196791410446167,0.0,0.0,1.9422502392041576,0.0,0.0,-0.49482493035147407,0.0,0.0,0.0,0.35,0.0,0.0,0.0,auto
1761301711.330844,16.305573225021362,0.0,0.0,1.8777276648724308,0.0,0.0,-0.6912810776307947,0.0,0.0,0.0,0.35,0.0,0.0,0.0,auto
1761301711.4343534,16.409082651138306,0.0,0.0,1.796544763170141,0.0,0.0,-0.8771266261286421,0.0,0.0,0.0,0.35,0.0,0.0,0.0,auto
1761301711.5413127,16.51604199409485,0.0,0.0,1.6935837296871483,0.0,0.0,-1.065979852911135,0.0,0.0,0.0,0.35,0.0,0.0,0.0,auto
1761301711.6450253,16.619754552841187,0.0,0.0,1.5722655571541477,0.0,0.0,-1.2509357211889496,0.0,0.0,0.0,0.35,0.0,0.0,0.0,auto
1761301711.7508695,16.72559881210327,0.0,0.0,1.4333695407449214,0.0,0.0,-1.3325328770452272,0.0,0.0,0.0,0.4427450093083423,0.0,0.0,0.0,auto
1761301711.856385,16.831114292144775,0.0,0.0,1.2943906913665506,0.0,0.0,-1.2923316626863712,0.0,0.0,0.0,0.46489201913902545,0.0,0.0,0.0,auto
1761301711.9606743,16.93540358543396,0.0,0.0,1.1637675004042474,0.0,0.0,-1.2087302774432103,0.0,0.0,0.0,0.47908511449624896,0.0,0.0,0.0,auto
1761301712.0663555,17.04108476638794,0.0,0.0,1.0414079217383698,0.0,0.0,-1.1052554009407185,0.0,0.0,0.0,0.4872256311588972,0.0,0.0,0.0,auto
1761301712.172749,17.147478342056274,0.0,0.0,0.9295994290583001,0.0,0.0,-0.9963867334511401,0.0,0.0,0.0,0.48834732329503444,0.0,0.0,0.0,auto
1761301712.276694,17.251423358917236,0.0,0.0,0.8289004315567114,0.0,0.0,-0.9336405242791478,0.0,0.0,0.0,0.47172975525418526,0.0,0.0,0.0,auto
1761301712.380904,17.35563325881958,0.0,0.0,0.7362340038265532,0.0,0.0,-0.8449429835584196,0.0,0.0,0.0,0.4816061242321736,0.0,0.0,0.0,auto
1761301712.4857895,17.460518836975098,0.0,0.0,0.6522277717662694,0.0,0.0,-0.7573741165852121,0.0,0.0,0.0,0.4794565900833435,0.0,0.0,0.0,auto
1761301712.5907404,17.56546974182129,0.0,0.0,0.5771499776042371,0.0,0.0,-0.6743425975390722,0.0,0.0,0.0,0.4772502125071963,0.0,0.0,0.0,auto
1761301712.6949446,17.669673919677734,0.0,0.0,0.5108971417829874,0.0,0.0,-0.5983964329629904,0.0,0.0,0.0,0.4742345672816529,0.0,0.0,0.0,auto
1761301712.802443,17.777172327041626,0.0,0.0,0.49180696676984065,0.0,0.0,0.5646642772216086,0.0,0.0,0.0,1.0,0.0,0.0,0.0,auto
1761301712.9069872,17.88171648979187,0.0,0.0,0.6328755496544769,0.0,0.0,2.131126662098851,0.0,0.0,0.0,1.0,0.0,0.0,0.0,auto
1761301713.0124085,17.98713779449463,0.0,0.0,0.936761337631228,0.0,0.0,3.4647719933655066,0.0,0.0,0.0,0.8431588840985926,0.0,0.0,0.0,auto
1761301713.1146736,18.08940291404724,1.5243061889972617e-05,0.0,1.30210719763701,0.002452714146797438,0.0,3.627007027941303,0.0,-0.032640667511668664,0.0,0.35300113839143743,0.0,-0.3,0.0,auto
1761301713.218806,18.193535327911377,0.006799795458901804,0.0,1.679323055292107,0.1685397570982905,0.0,3.5795774379060865,0.0,-0.29798292022308553,0.0,0.3827317494834632,0.0,-0.3,0.0,auto
1761301713.3223305,18.297059774398804,0.04216090315207318,0.0,2.0398536721174128,0.5450036640536959,0.0,3.369619684034118,0.0,-0.5072394954654212,0.0,0.3975871939569542,0.0,0.10940837780382241,0.0,auto
1761301713.427842,18.402571201324463,0.12239964996419782,0.0,2.381149956345005,0.9713507215173669,0.0,3.092982242381444,0.0,-0.5149357708074638,0.0,0.3789340935662559,0.0,0.006516603142235643,0.0,auto
1761301713.5377753,18.51250457763672,0.2536179737399625,0.0,2.704206676093567,1.4116562779596917,0.0,2.7822238058519426,0.0,-0.5156366399443163,0.0,0.37926504361938884,0.0,-0.01709308482546354,0.0,auto
1761301713.642668,18.61739730834961,0.42369858141637234,0.0,2.980686131267947,1.8295839908744962,0.0,2.4942269211352466,0.0,-0.4868893997873488,0.0,0.3546547791145757,0.0,0.20131928739942928,0.0,auto
1761301713.7478812,18.722610473632812,0.633321277546565,0.0,3.228305474245896,2.1340108489909086,0.0,2.2168268839072898,0.0,-0.3482100656997001,0.0,0.3531011924537303,0.0,0.04360319436690826,0.0,auto
1761301713.8543677,18.829097032546997,0.8731886709681246,0.0,3.4506380026905505,2.3554000675428144,0.0,1.9619661488601337,0.0,-0.25233964802761,0.0,0.35,0.0,0.0008788698782814935,0.0,auto
1761301713.9592402,18.933969497680664,1.12886354442711,0.0,3.6440853511493683,2.5117711052568454,0.0,1.7315924861396785,0.0,-0.19121629261212733,0.0,0.3551548563430824,0.0,0.00975230077230533,0.0,auto
1761301714.0648723,19.03960156440735,1.400473249022595,0.0,3.8158597873861138,2.6252809129112165,0.0,1.5246426129340644,0.0,-0.14903066706627652,0.0,0.3625140862465318,0.0,0.01978123481874654,0.0,auto
1761301714.1694162,19.144145488739014,1.6793593347778746,0.0,3.9655361904766693,2.706056258259182,0.0,1.3423692790261512,0.0,-0.11812778307864731,0.0,0.37039390358357593,0.0,0.01776985055246979,0.0,auto
1761301714.2754276,19.25015687942505,1.9695263127124616,0.0,4.0989869081829795,2.7649278287088737,0.0,1.1786776480430008,0.0,-0.09443538853933983,0.0,0.37843487687529115,0.0,0.010622652603447982,0.0,auto
1761301714.3860297,19.360759019851685,2.277893677353186,0.0,4.220856907326193,2.808520785646854,0.0,1.0283781699441923,0.0,-0.0766563177282135,0.0,0.38579066149882363,0.0,0.0051628156924352535,0.0,auto
1761301714.4907575,19.465486764907837,2.5736472728280075,0.0,4.321876384765275,2.837683045228549,0.0,0.903653051556886,0.0,-0.06212324531118216,0.0,0.3918930608929089,0.0,0.05415583867892023,0.0,auto
1761301714.5996149,19.574344158172607,2.882540163342828,0.0,4.413883521650647,2.8277471626570083,0.0,0.7892338026235518,0.0,-0.007105748406562031,0.0,0.3975185996737215,0.0,0.007516043175898836,0.0,auto
1761301714.705942,19.680671215057373,3.1811774465797233,0.0,4.492496924621177,2.783535755615389,0.0,0.691465487051934,0.0,0.026311951577074635,0.0,0.4035607467021589,0.0,-0.006416006848410805,0.0,auto
1761301714.8115478,19.786277055740356,3.471820103296437,0.0,4.560918959895654,2.71755392576223,0.0,0.6061541830749373,0.0,0.04591878929723095,0.0,0.4084120346566684,0.0,-0.0016756383412577546,0.0,auto
1761301714.915048,19.889777183532715,3.7490916208722096,0.0,4.619772315612192,2.63891993576079,0.0,0.5326541926204099,0.0,0.05726627862057796,0.0,0.4127697953703071,0.0,0.004627473859371142,0.0,auto
1761301715.0245817,19.999310970306396,4.033134682747466,0.0,4.674295378513076,2.546662549880949,0.0,0.46441038019668385,0.0,0.06505832989320669,0.0,0.41616542070498747,0.0,0.005562546747283752,0.0,auto
1761301715.1290534,20.103782653808594,4.29436571386504,0.0,4.719777145175812,2.4539710719832875,0.0,0.40746554198911256,0.0,0.06954766741933979,0.0,0.41996972168012503,0.0,0.0035534706283506996,0.0,auto
1761301715.234244,20.20897340774536,4.546265896667877,0.0,4.759742089010593,2.3593676137444684,0.0,0.3572934663511622,0.0,0.07217568472546178,0.0,0.4227816219749886,0.0,0.0009678906438499595,0.0,auto
1761301715.3388693,20.3135986328125,4.78936053341123,0.0,4.794934845440284,2.2643544301274243,0.0,0.31303190580803464,0.0,0.07322379363710455,0.0,0.4252815377952915,0.0,-0.0004486750539115592,0.0,auto
1761301715.4429235,20.41765284538269,5.020134658478558,0.0,4.825462086550013,2.171549783047837,0.0,0.27454990270074947,0.0,0.07303136371497411,0.0,0.4274980859370028,0.0,-0.0008067996623487432,0.0,auto
1761301715.5488303,20.5235595703125,5.245201794632663,0.0,4.852677556051446,2.0791387052511223,0.0,0.24016006578762927,0.0,0.0720420263163332,0.0,0.4293954428382707,0.0,-0.0007631846052043735,0.0,auto
1761301715.6543841,20.62911343574524,5.459913436646272,0.0,4.876405372993879,1.989620242068565,0.0,0.21009045906410978,0.0,0.07056157308164446,0.0,0.4309770686411059,0.0,-0.0007462625336628195,0.0,auto
1761301715.7596247,20.73435401916504,5.6647315314887186,0.0,4.897100365777892,1.9032651691820777,0.0,0.18378618256246787,0.0,0.06878488334147816,0.0,0.4324265357100275,0.0,-0.0007703593887107821,0.0,auto
1761301715.8688948,20.843624114990234,5.8679499053445054,0.0,4.915844769854278,1.8168516409235702,0.0,0.15985599149386998,0.0,0.06679650625418847,0.0,0.433604830616952,0.0,-0.001108050017293301,0.0,auto
1761301715.9746652,20.949394464492798,6.055837964935093,0.0,4.93165777663868,1.7364465579660526,0.0,0.13959174143024894,0.0,0.0646494978672367,0.0,0.434665142085539,0.0,-0.001124842967770329,0.0,auto
1761301716.0811493,21.05587863922119,6.236578312180184,0.0,4.945548917960972,1.6587933389171214,0.0,0.12170270140512675,0.0,0.062422513453687364,0.0,0.435428646316054,0.0,-0.0008982365220703536,0.0,auto
1761301716.1844203,21.159149646759033,6.404127808495729,0.0,4.957315033799316,1.586567765300632,0.0,0.10647888861049838,0.0,0.060254300371637586,0.0,0.4363378816224641,0.0,-0.0009039195450915322,0.0,auto
1761301716.288791,21.26352024078369,6.566041521494824,0.0,4.96770727605654,1.5165983141438346,0.0,0.09295444968405567,0.0,0.05811868079880229,0.0,0.43709589479107,0.0,-0.0009178603752576041,0.0,auto
1761301716.392947,21.367676258087158,6.720495681379133,0.0,4.976757813322204,1.4497035364488313,0.0,0.08108984971558193,0.0,0.056015690799204834,0.0,0.43770394444738825,0.0,-0.0009476922302871162,0.0,auto
1761301716.5029988,21.477728128433228,6.874907173362393,0.0,4.984993998521852,1.382696656325582,0.0,0.07014238402598445,0.0,0.053861035666438524,0.0,0.4380127359221512,0.0,-0.0012600058883507075,0.0,auto
1761301716.6056235,21.580352783203125,7.015009585467905,0.0,4.9917913071279125,1.3217686084345581,0.0,0.061167506367563344,0.0,0.05187230710611022,0.0,0.43875362349054253,0.0,-0.0010099835673977027,0.0,auto
1761301716.710475,21.68520426750183,7.150484816230202,0.0,4.99777334885097,1.26278950643268,0.0,0.05311040340281889,0.0,0.04992615741116612,0.0,0.43908532093675656,0.0,-0.001055342713178277,0.0,auto
1761301716.8145974,21.789326667785645,7.279030335234307,0.0,5.0029308824756065,1.2067443128868671,0.0,0.04609941732011403,0.0,0.04801879322046365,0.0,0.43945595001958365,0.0,-0.0009138409971015322,0.0,auto
1761301716.9192302,21.893959522247314,7.4024552592678,0.0,5.007423828076904,1.152858322321118,0.0,0.039911820750301794,0.0,0.04615493274508214,0.0,0.4398116866158554,0.0,-0.0008254722862227546,0.0,auto
1761301717.0240014,21.998730659484863,7.520517461946463,0.0,5.011314648511861,1.101243791516105,0.0,0.03447536176384078,0.0,0.044354697058128785,0.0,0.44004166577702003,0.0,-0.000784165605151198,0.0,auto
1761301717.12707,22.101799249649048,7.631499298389323,0.0,5.014621160326632,1.0526656011519662,0.0,0.02978275305743664,0.0,0.04264063948803836,0.0,0.4403113189332342,0.0,-0.0007899366452704486,0.0,auto
1761301717.2307446,22.20547389984131,7.738192721014485,0.0,5.017489173659266,1.0059138174633115,0.0,0.025633927339634145,0.0,0.04097517712914,0.0,0.44052498182092886,0.0,-0.0007745746027099615,0.0,auto
1761301717.3368924,22.31162166595459,7.842520846729922,0.0,5.020008001618886,0.960148065412809,0.0,0.02191449104998507,0.0,0.039319800135570675,0.0,0.44075680462058314,0.0,-0.0006952118050404014,0.0,auto
1761301717.441895,22.416624307632446,7.941049946485422,0.0,5.022135575199883,0.9168756641311002,0.0,0.01868388548652671,0.0,0.03773356770205651,0.0,0.4408780252752153,0.0,-0.0006907268509201587,0.0,auto
1761301717.5458684,22.52059769630432,8.034235106922354,0.0,5.023929643656585,0.8759083756981881,0.0,0.015885708709039215,0.0,0.03622891741620043,0.0,0.440996485337863,0.0,-0.0006795045844637422,0.0,auto
1761301717.6466198,22.621349096298218,8.120556789973042,0.0,5.025407114354697,0.8379102320634081,0.0,0.013510160772359359,0.0,0.03486235869745042,0.0,0.4411748377217314,0.0,-0.0009044566716727477,0.0,auto
1761301717.7502875,22.725016832351685,8.20546805359926,0.0,5.026693061695648,0.8005138457647638,0.0,0.01134899139592022,0.0,0.03343316111751715,0.0,0.44123055115592574,0.0,-0.0007368871169824658,0.0,auto
1761301717.8549578,22.829687118530273,8.287354242032842,0.0,5.027778996909758,0.7644160329419648,0.0,0.009444450312410431,0.0,0.03204251115570019,0.0,0.44133553772573775,0.0,-0.0005702874837414872,0.0,auto
1761301717.9607813,22.935510635375977,8.366387706851722,0.0,5.028687000538878,0.7295410976946264,0.0,0.007763882312450224,0.0,0.03069255499165602,0.0,0.4414747806037282,0.0,-0.00047557548097092005,0.0,auto
1761301718.0677068,23.042436122894287,8.442581066653828,0.0,5.029435114746919,0.6958854036870813,0.0,0.006274836134798599,0.0,0.0294094518465155,0.0,0.44150169331599903,0.0,-0.0005516408834128326,0.0,auto
1761301718.1707382,23.145467519760132,8.512671030312093,0.0,5.030015556767369,0.6649017918463578,0.0,0.0050206041456339915,0.0,0.028202129462558914,0.0,0.4415313038049685,0.0,-0.0005542496806879597,0.0,auto
1761301718.274924,23.249653339385986,8.580372444681625,0.0,5.030479796230624,0.6349518504983317,0.0,0.003912541678207648,0.0,0.027032264077771553,0.0,0.4415777289318072,0.0,-0.0005568671409929146,0.0,auto
1761301718.378837,23.35356640815735,8.644857695506968,0.0,5.0308354645248885,0.6064013393545181,0.0,0.002948530387801186,0.0,0.025906317277081536,0.0,0.44162102156018707,0.0,-0.0005402197251020167,0.0,auto
1761301718.4822698,23.45699906349182,8.706164058122878,0.0,5.031096506555926,0.5792374600687448,0.0,0.002114229911698484,0.0,0.02482832441481204,0.0,0.4416756721847655,0.0,-0.0005134347840300747,0.0,auto
1761301718.5869741,23.56170344352722,8.765426676737036,0.0,5.031278259609451,0.5529601272365255,0.0,0.0013761408375268715,0.0,0.023781094397733182,0.0,0.4417138539159002,0.0,-0.0005031679556828638,0.0,auto
1761301718.6913464,23.666075706481934,8.821824504360068,0.0,5.0313875316198,0.5279353650767957,0.0,0.0007327730039285442,0.0,0.022772347514283708,0.0,0.4417306134934255,0.0,-0.00047709815083014884,0.0,auto
1761301718.7965152,23.771244525909424,8.876070518520208,0.0,5.031434421778433,0.5038490521298731,0.0,0.00016956371485626852,0.0,0.021793562994195048,0.0,0.44174922275824785,0.0,-0.00044033563218934024,0.0,auto
1761301718.9025285,23.877257823944092,8.928246798306443,0.0,5.031425951567704,0.48066524559114776,0.0,-0.00032035190417476064,0.0,0.020849087134325376,0.0,0.4417797143286063,0.0,-0.0004222253189428539,0.0,auto
1761301719.0094512,23.984180450439453,8.978206943248276,0.0,5.031368733591637,0.45845244563680687,0.0,-0.0007445121390971439,0.0,0.019937196658547776,0.0,0.44180446698569636,0.0,-0.0003865431635993658,0.0,auto
1761301719.1106088,24.08533811569214,9.02377631973774,0.0,5.031274195502183,0.438180856097594,0.0,-0.0010830176055059222,0.0,0.01910797625768625,0.0,0.44195936500296856,0.0,-0.00029665447274006425,0.0,auto
1761301719.2165427,24.191272020339966,9.069116617590096,0.0,5.0311410054502,0.417992767449844,0.0,-0.0014102460257381785,0.0,0.018258030153867896,0.0,0.4418410024305061,0.0,-0.00029205719656553156,0.0,auto
1761301719.3205714,24.295300722122192,9.111607930733468,0.0,5.0309798622242345,0.3990670100742731,0.0,-0.001679395830124942,0.0,0.017473015974964222,0.0,0.4418660726492545,0.0,-0.00033683574182510905,0.0,auto
1761301719.426165,24.40089440345764,9.152771114636034,0.0,5.0307897922204825,0.3807249013207513,0.0,-0.0019097855200436262,0.0,0.016714600297020155,0.0,0.4418893815713547,0.0,-0.00034620087278944853,0.0,auto
1761301719.5322394,24.50696873664856,9.192216353488702,0.0,5.0305759567107895,0.36313951925594845,0.0,-0.0021038699225986663,0.0,0.01597960342937812,0.0,0.44193919348031285,0.0,-0.0003077110404742538,0.0,auto
1761301719.6368403,24.61156964302063,9.229328447025038,0.0,5.030346165106926,0.34658372646645624,0.0,-0.0022780073895298184,0.0,0.015277407236267792,0.0,0.4418739485614662,0.0,-0.00029127748003185953,0.0,auto
1761301719.7436945,24.71842384338379,9.265493283947073,0.0,5.030094567512703,0.3304443647148557,0.0,-0.0024255673539980396,0.0,0.014594225257660165,0.0,0.44187953647618716,0.0,-0.0002897839070020454,0.0,auto
1761301719.8511276,24.825856924057007,9.300156018595105,0.0,5.029827254140012,0.3149680283267277,0.0,-0.0025478167989529768,0.0,0.01393770544450692,0.0,0.4418835180072923,0.0,-0.000279332259349972,0.0,auto
1761301719.9563437,24.93107295036316,9.332529033087098,0.0,5.029553944168038,0.30050678410856635,0.0,-0.0026459908568571633,0.0,0.013322573897640709,0.0,0.4418775350063645,0.0,-0.0002733165143118461,0.0,auto
1761301720.061666,25.03639531135559,9.36344590821345,0.0,5.029270828100338,0.2866910388415609,0.0,-0.0027276529227806307,0.0,0.012731643461268694,0.0,0.44190518408344853,0.0,-0.0002666949950804413,0.0,auto
1761301720.1664631,25.14119243621826,9.392797407708658,0.0,5.028981397904124,0.2735691169338461,0.0,-0.002796715613459532,0.0,0.012167626234194808,0.0,0.4418738892857694,0.0,-0.00025401448861925595,0.0,auto
1761301720.2713187,25.246047973632812,9.420820495729041,0.0,5.028685567807478,0.2610359719411995,0.0,-0.002846503258385544,0.0,0.011629594187230613,0.0,0.44189208999809354,0.0,-0.0002447838463584389,0.0,auto
1761301720.381388,25.356117248535156,9.448856632255977,0.0,5.028369509898703,0.24849037116587885,0.0,-0.002887676059743937,0.0,0.011102545253086954,0.0,0.44188294812925727,0.0,-0.0002936711200659451,0.0,auto
1761301720.4846895,25.459418773651123,9.473941622739908,0.0,5.028069538191424,0.23726397532917853,0.0,-0.0029175172814397817,0.0,0.010603578572716871,0.0,0.4419234327043762,0.0,-0.00022001598746962915,0.0,auto
1761301720.59056,25.56528925895691,9.498474785372588,0.0,5.0277590351467,0.226280897173628,0.0,-0.0029386459405562055,0.0,0.010119919037119183,0.0,0.44195125810490876,0.0,-0.00017496501616864486,0.0,auto
1761301720.696203,25.670932292938232,9.518524900632986,0.002876521517500743,5.067154379622847,0.08745549365450206,0.11798736050922179,0.9170219014069974,0.1614070994932291,0.17154948370556175,0.01039462786309528,1.0,0.3,0.3,-0.023657770515174016,auto
1761301720.7995813,25.77431058883667,9.501112678479222,0.040304626381759565,5.211485945179969,-0.4938825232780067,0.6780790777719876,1.820396940295705,0.3967147835724624,0.40726777607835474,0.032630101157349316,1.0,0.3,0.3,-0.07645580172501766,auto
1761301720.905094,25.879823207855225,9.397938751874467,0.1641788794958629,5.445674248876321,-1.4968899145227803,1.7162886876194874,2.604948150789055,0.508392795513951,0.5127692704350101,0.04374938504291668,1.0,-0.09102277526149921,-0.07718656210104591,-0.09676852057578991,auto
1761301721.0075903,25.982319593429565,9.20219552429229,0.3785612049265893,5.737566246276183,-2.3451224679444986,2.453470813344637,3.206721435188634,0.29959374773747466,0.3854561654927554,0.04833939946378074,1.0,-0.3,-0.3,-0.09916949616968546,auto
1761301721.1111443,26.0858736038208,8.925459670609182,0.6558069427688649,6.117814362817649,-2.8370641286787093,2.750452641588498,4.032607317579946,0.09996270865287965,0.14101491318648493,0.05888649974857534,0.6945987420833784,-0.03201454301711722,-0.3,-0.12,auto
1761301721.2161663,26.190895557403564,8.624367040673128,0.9482534346214142,6.565667470179103,-2.877372105177701,2.8146211612306984,4.462620118743363,0.0816198916558004,0.07695295178821691,0.05072574364347793,0.6874506147777764,-0.05508191213934874,-0.061853168924170115,-0.10208617160486304,auto
1761301721.3206851,26.295414447784424,8.323051165777006,1.2434578720772802,7.045008341251959,-2.8784091917707215,2.835732332358408,4.69734011904063,0.07772817260789641,0.059390301805621735,0.034359323220943046,0.5819887877348817,-0.06724088229155203,0.0028902572829494644,-0.06257022742079513,auto
1761301721.4261546,26.40088391304016,8.019436579916157,1.5429178526946794,7.548676384550814,-2.8717852333222957,2.841977550494645,4.841187121828838,0.07348682012435685,0.05227484555744949,0.021542142490680146,0.5505030750952893,-0.04168609931298432,0.03388728309859354,-0.03725605026404042,auto
1761301721.532771,26.507500410079956,7.71346549722858,1.8461094477263262,8.069728844236732,-2.8638849971102824,2.8428463819529246,4.925691447253332,0.06832023685076054,0.051332285809712865,0.013189244222578049,0.5300260530724737,-0.009969047799653465,0.03758761420331658,-0.022922887030476572,auto
1761301721.636418,26.61114740371704,7.416910056878381,2.140887800231974,8.582996700364559,-2.856862317161389,2.842271978197828,4.974089350686039,0.06331529659476498,0.0490774671240262,0.00812604098487302,0.5171028372216523,0.015367709485214263,-0.02923820448161145,-0.014847160280256531,auto
1761301721.7402833,26.715012550354004,7.1220545069446715,2.4361693828795756,9.101266667706035,-2.8128711229952885,2.8417934900903616,5.002850204642163,0.06143483723660747,0.01337584828626024,0.004892167375832567,0.5123483664311236,0.018457201788131948,-0.0027684312473050163,-0.009754292556821618,auto
1761301721.8480744,26.822803735733032,6.822553088894297,2.7421784838074696,9.641559608541094,-2.739325929342742,2.8263272335494594,5.0200391900566625,0.01996067409214665,-0.007057196339005618,0.0027172210178027087,0.5067837652395012,0.028640606602958182,0.006708408396193357,-0.00625773483899331,auto
1761301721.9529834,26.9277126789093,6.53953795536784,3.035897193769678,10.16876612114985,-2.6538104876550737,2.7707021764844435,5.029628227685282,0.0005714669617047545,-0.018396108849406807,0.0013612879681195976,0.5037400829259526,-0.0035083300875625384,0.007481909700236581,-0.004114157479515213,auto
1761301722.057979,27.032708406448364,6.265710011072568,3.3227900281317035,10.697185537234704,-2.561421762296326,2.6939188328414416,5.035276539449655,-0.010347706829394336,-0.024448781706627412,0.0004813818135186842,0.5021241204129256,-0.018831380845017436,0.002864333380783815,-0.0027300014419048306,auto
1761301722.1649857,27.13971495628357,5.9968169455935065,3.6062570849816056,11.236178830821702,-2.464367853133355,2.6042515566752944,5.038465257737771,-0.01818099604079899,-0.027787257203267926,-0.0001012276956183808,0.5012071949668104,-0.01756154910873753,-0.0004715475199702214,-0.001766206195383705,auto
1761301722.269022,27.243751287460327,5.7466171317783745,3.8710868833079273,11.757822831913881,-2.370194856054114,2.5123941886030434,5.040180627733197,-0.023781645031124874,-0.0294361431915236,-0.00046888796684808106,0.5002187066176265,-0.009831973147678925,-0.0025189128271445355,-0.0011778209913551796,auto
1761301722.3740282,27.34875750541687,5.5015175501812195,4.131210006392534,12.289762069091672,-2.2754121754079706,2.417093567660737,5.041087840790211,-0.028103865337016486,-0.03049352574220113,-0.0007151930593208746,0.49941009315559476,-0.002844752965932748,-0.0022583280185278615,-0.0007639456818776444,auto
1761301722.4789867,27.453716039657593,5.267551155558993,4.379959804623331,12.818892375919095,-2.18329045394408,2.32265044410613,5.041511037601956,-0.03078197343134809,-0.03106499560879371,-0.0008751066423566611,0.4986229788071862,0.0013072364201391772,-0.0011688426697369896,-0.0004972291255052843,auto
1761301722.5865784,27.561307668685913,5.037602858677255,4.62473082967861,13.3613256299109,-2.0916251662898118,2.227426825544567,5.041642510589684,-0.032090530546329835,-0.031268959287436775,-0.000981290898745003,0.49789914599345464,0.0024609194958289137,-5.623247584036047e-05,-0.0003178125267590278,auto
1761301722.69101,27.66573929786682,4.823686394615569,4.852619249639745,13.887831242197676,-2.0055931421212048,2.1372519675218187,5.041599363900228,-0.03243803199933363,-0.031142734130839397,-0.001047513976217199,0.49726343237623155,0.0018098303951620944,0.0004978744486188188,-0.00020183679704949357,auto
1761301722.7936125,27.768341779708862,4.622116094073296,5.067468379004488,14.405104836969077,-1.9240156189613522,2.0512209610531746,5.041452097708887,-0.03218514641576114,-0.030760775552992923,-0.0010892794577589497,0.49666937514988285,0.0006315684008197182,0.000620235456347685,-0.0001265451836614955,auto
1761301722.8985791,27.873308420181274,4.424405340866678,5.278279656230906,14.934277942441943,-1.8436041840557738,1.9660703811899176,5.041231881854921,-0.03168352532967884,-0.030198398346960476,-0.0011161442913693199,0.496107020571324,5.0715692200807854e-05,0.0005766109155489188,-7.497001453811759e-05,auto
1761301723.001657,27.976386308670044,4.238312860079287,5.476751835327314,15.453904542481526,-1.7676117736776091,1.8853881860647217,5.040973796498318,-0.031050761789825233,-0.02951284077146626,-0.0011320835569896023,0.49559029828031215,-0.00010110598372890095,0.0003988584354508342,-4.114428720396311e-05,auto
1761301723.1055586,28.08028793334961,4.058487928293734,5.668571555527429,15.976981087630856,-1.695807855646496,1.809023683147572,4.977722340258683,-0.03042590541015323,-0.028822259894916203,-0.0011411776921529456,0.35,-0.0026810641816139903,-0.00228862403113007,-1.8221094392586572e-05,auto
1761301723.210228,28.184957265853882,3.8843015492562043,5.8543946497729555,16.482153864782966,-1.6325286951489852,1.7416449844700526,4.677141894747914,-0.034188716460723585,-0.032258648925223656,-0.0011466737017254553,0.35,0.0009539198039620658,0.0008492715803939549,-4.495793944423887e-07,auto
1761301723.3178854,28.292614698410034,3.714350602205826,6.035710391973941,16.963002835495868,-1.5698543987414382,1.6748717338152055,4.3848464006556185,-0.036519151846044436,-0.034396344306372555,-0.0011484708944637797,0.35,0.00040161727330326007,0.00030388659957365457,1.0508530382248281e-05,auto
1761301723.420769,28.395498275756836,3.5536200577215094,6.207196446635327,17.406236088168153,-1.5097788025760972,1.6108356929483432,4.108514161785513,-0.03815667931131979,-0.035916185206488406,-0.0011477734552510768,0.35,-0.0008559640224058707,-0.0008135803352815646,1.7020342031385222e-05,auto
1761301723.52479,28.49951934814453,3.3996151407296025,6.371511599368993,17.819722203062206,-1.4515551709405965,1.54875121236222,3.843106488084503,-0.03952635358049051,-0.03719365915378696,-0.0011456566677526857,0.35,-0.0008929558569806595,-0.000814951547433405,2.131012257312018e-05,auto
1761301723.63474,28.609469413757324,3.2433167334031445,6.538277115634323,18.22729856707866,-1.3918295877258091,1.4850500076564528,3.572325809465719,-0.04084757653878543,-0.03842401791019681,-0.0011424955210735327,0.35,-0.000419580610804709,-0.00037747430332834653,2.4326583115859205e-05,auto
1761301723.7396088,28.714338064193726,3.1002683739892523,6.690907190063659,18.58875584641377,-1.3366193355175924,1.4261555123145861,3.3225046235946225,-0.04162935848051826,-0.039150714514439154,-0.0011389003389804305,0.35,-0.0005842556413902957,-0.0005432060711179479,2.6290108751014925e-05,auto
1761301723.8449228,28.81965208053589,2.9623472122972063,6.838067774088924,18.925783565204608,-1.282909998881854,1.368856568780046,3.079120275304817,-0.042257907735010126,-0.039735898009112446,-0.0011349160840380041,0.35,-0.0003841307419698903,-0.00036164758838549667,2.7667368689829278e-05,auto
1761301723.949839,28.92456841468811,2.83048084940566,6.978768602480234,19.236412652943628,-1.231116260440039,1.3135977969177803,2.8434098860553454,-0.042687944792495575,-0.04013724607760903,-0.0011306949695110164,0.35,-0.00020317309830075045,-0.0001918728937987781,2.8557556814071336e-05,auto
1761301724.055385,29.03011441230774,2.703216040772231,7.114559980731831,19.52428207011056,-1.180719913052739,1.2598279454171812,2.6124263706419923,-0.042921022669645786,-0.040355108538898364,-0.0011262815389608267,0.35,-6.058015991925824e-05,-5.6583849955394475e-05,2.9215542378709125e-05,auto
1761301724.159461,29.134190320968628,2.582845672731418,7.24299525155281,19.784558745877085,-1.1326798186039986,1.2085712500573145,2.3900966618586215,-0.042983352642298384,-0.04041316259146967,-0.0011218234289089464,0.35,7.3874704656613615e-06,7.72555329590437e-06,2.952978472741766e-05,auto
1761301724.2636998,29.238429069519043,2.4672135607162566,7.366375013494623,20.0223071606222,-1.0861907468905874,1.1589694096849663,2.172284786818042,-0.04290025956233341,-0.040334743899537645,-0.0011172928272892692,0.35,0.000142944290673177,0.00013453757062288103,2.9826491892130362e-05,auto
1761301724.3680146,29.34274387359619,2.3562645670919102,7.484758082757312,20.23773184186655,-1.0412713628446852,1.1110401562056582,1.9586837361558478,-0.04268580568092504,-0.04011439745839582,-0.001112718388370127,0.35,0.00017897892133319468,0.0001958637294520278,2.9871167404573106e-05,auto
1761301724.4717553,29.446484565734863,2.2504907396514406,7.5976183214406685,20.43007779159523,-0.998187728082532,1.0650582580644712,1.7501292785583038,-0.0422927095442607,-0.039757504442583996,-0.0011081509066164694,0.35,0.00021104359863397717,0.00023795810603899586,3.003861968869546e-05,auto
1761301724.5759,29.550629377365112,2.148719351638676,7.706207228324344,20.60159372772691,-0.9564869487736994,1.0205575116019647,1.5442080209229152,-0.04184097747862629,-0.03933269540826078,-0.001103553459479512,0.35,0.00027178704023757185,0.00026157468987161934,2.9955337911056738e-05,auto
1761301724.6808252,29.65555453300476,2.0504970348976213,7.811008923717408,20.752871972927984,-0.9160000126888821,0.9773566737635614,1.339818561193223,-0.04129854031365459,-0.03882170772737603,-0.0010989213779456222,0.35,0.0003355126528696802,0.00030575161041978774,2.995562128005172e-05,auto
1761301724.7857609,29.76049017906189,1.9564354269342412,7.911371134163724,20.88286114883993,-0.8769932371409925,0.9357381822834594,1.138101532459786,-0.04067236228144582,-0.03823424549150982,-0.001094294819754023,0.35,0.00034298169706509587,0.00031629531776138607,2.989737188949107e-05,auto
1761301724.8930485,29.867777824401855,1.8644179443488478,8.009552507385687,20.994010642258583,-0.838591800209329,0.8947676601290032,0.9342620456066286,-0.03997222571343102,-0.0375776837236477,-0.001089572061173273,0.35,0.0004645733079165791,0.0004359270185822086,2.9836088489820405e-05,auto
1761301724.9977999,29.97252917289734,1.778899798698172,8.100799602639833,21.08115149244414,-0.8026777850285451,0.8564526940897168,0.7382197522673976,-0.03920424773224752,-0.03685662763446639,-0.001085002886770598,0.35,0.00046873406363393585,0.00044212446521635666,2.9832916542573037e-05,auto
1761301725.1029716,30.07770085334778,1.6959232050895083,8.189335493223407,21.148747890228112,-0.767597862567854,0.8190291040528029,0.5410700162439783,-0.03836150620943045,-0.03606439165375912,-0.0010803820226218427,0.35,0.0004001244613223266,0.00037732222878225207,2.9687421905926773e-05,auto
1761301725.20988,30.184609413146973,1.615698583374387,8.27493580887934,21.195997891715557,-0.7334277544451839,0.7825774125911745,0.34307746766961406,-0.037442448753211156,-0.03519997063559081,-0.0010757232993647474,0.35,0.00043182175354035006,0.0004063793963392089,2.9649170219055953e-05,auto
1761301725.313367,30.2880961894989,1.54145808321904,8.354151883101398,21.221634116547467,-0.7015459654785003,0.7485678563033341,0.15253822759852392,-0.03648782824666055,-0.034301969761281,-0.001071233906749511,0.35,0.0005084360643356666,0.00047810741415698195,2.952835303310674e-05,auto
1761301725.4181721,30.39290142059326,1.469574239481978,8.43085433154638,21.227550635592987,-0.6703981559951745,0.7153421452790576,-0.039486037884125844,-0.03544869695215327,-0.03332444390226457,-0.0010667071768531201,0.35,0.000596211421732596,0.0005606450642166838,2.9504107866207873e-05,auto
1761301725.5261707,30.50090003013611,1.3988542611437211,8.506316019777772,21.212641182606408,-0.6394334628657493,0.6823125444751212,-0.23647152794828333,-0.034285582906520964,-0.03223030944558202,-0.001062060231094379,0.35,0.0005484536202075154,0.0005162577174147441,2.935787811583095e-05,auto
1761301725.6304123,30.605141639709473,1.3334945491098358,8.576058892158265,21.1788425760317,-0.6226749309431331,0.6644252627752169,-0.40907080022481557,0.018672771908587415,0.017597554248089196,-0.0015934982675139006,0.35,-0.09616462124530645,-0.09044301723268657,0.0013238938934481373,auto
1761301725.7349238,30.70965313911438,1.2684066697144227,8.645508894533506,21.12683906387474,-0.6194046974460182,0.6608984118045956,-0.5890043001266118,0.0017030183406421331,0.0016250159194744346,-0.0023288295856240056,0.35,0.011713944460431749,0.011068508123687981,0.003025032205573398,auto
1761301725.8390572,30.813786506652832,1.2039147642759185,8.714319746179946,21.05587926302155,-0.6174410233582083,0.6587720732505148,-0.7739072921347758,-0.003165574869485285,-0.002944284061399441,-0.0023382340047834256,0.35,0.02282526742670064,0.021456901254478734,0.002763943156544094,auto
1761301725.9423325,30.917061805725098,1.1402866443903878,8.782205586152655,20.968955994143688,-0.6147160427040005,0.6558317504133931,-0.8753318671185478,-0.0016766786739444534,-0.0015379444193461583,-0.0020690770797671646,0.42512723040641043,0.007091656515373772,0.006640093056308063,0.002020957716558833,auto
1761301726.047657,31.02238631248474,1.0757330850439297,8.85107488249211,20.87649099543329,-0.6114569610857832,0.6523164866018668,-0.8718693903424848,-0.0003725026122234273,-0.00031197444134362437,-0.0017645442686732918,0.447686659612427,-0.0005705866271555663,-0.0005530468032188289,0.0013650731013930184,auto
1761301726.1515872,31.1263165473938,1.012364795213048,8.918675572193484,20.788032674964477,-0.6082275644038785,0.6488316427060176,-0.8265447105191998,0.00011586983400377432,0.0001455381115824363,-0.0015246302229376904,0.46792442162125214,-0.0018493408262100271,-0.001743468528141884,0.0009025474189524329,auto
1761301726.255591,31.23032021522522,0.9492715457465065,8.98597867905689,20.70521013572994,-0.6051461583246088,0.6455040743937657,-0.7637515299056774,0.0001290257988100005,0.00015669638579363817,-0.0013526718265000326,0.47265041545581754,-0.0011308444357641463,-0.001062225886649055,0.0006057112615840572,auto
1761301726.3620632,31.336792469024658,0.8849993964878106,9.054534984663984,20.62765802267197,-0.6021712736469564,0.6422891795920262,-0.6920338519147111,3.278067829898063e-05,6.575471222914177e-05,-0.0012315618253822213,0.47490519934538417,-0.0003679190020131868,-0.0003441121040715071,0.00040739578684389783,auto
1761301726.466388,31.44111728668213,0.8223223312021382,9.121385598821115,20.559118994604077,-0.5994046092024231,0.6392975385436122,-0.6220309641680719,-3.438827355322557e-05,2.4899378156029487e-06,-0.0011507136994969877,0.4721418270205247,5.289193743938857e-06,6.1227554980646195e-06,0.00028101165418460624,auto
1761301726.576527,31.55125641822815,0.7570535604545368,9.190995973758984,20.49508108617699,-0.5966417697013328,0.6363085705790987,-0.552407782425444,-5.479839774499007e-05,-1.6706238340853732e-05,-0.0010929903743225895,0.46932592802319895,9.468106463787526e-05,8.933125012055342e-05,0.0001984250962570502,auto
1761301726.680473,31.655202388763428,0.6945741331935013,9.25762712778674,20.440444096421153,-0.5940940121994991,0.6335510817664671,-0.490091180471099,-6.142652599304146e-05,-2.2959915802222165e-05,-0.0010547648246638263,0.4677526419024567,6.520702976462588e-05,6.130725531790395e-05,0.00013736745094716131,auto
1761301726.7840905,31.758819818496704,0.6331421127041656,9.323137137714804,20.39259255725779,-0.5916659592697554,0.6309222443018506,-0.434450520248303,-5.826652901249067e-05,-2.0046206970658173e-05,-0.0010281088997341373,0.46543706568715976,2.729531242688903e-05,2.5534471958110603e-05,0.00010083106973080297,auto
1761301726.8885593,31.863288640975952,0.5714560621728144,9.388913909970094,20.34988878318628,-0.5892933644178739,0.6283526830777919,-0.38400894227648336,-5.4253646306456565e-05,-1.635886511553988e-05,-0.0010086493422327724,0.4629860438782684,3.204387872245283e-06,2.9051957714228894e-06,7.55733167123254e-05,auto
1761301726.9913323,31.96606159210205,0.5110098731465814,9.453364581996311,20.31274336304506,-0.587022397415488,0.6258925698426359,-0.33969502159223935,-5.229121703817064e-05,-1.4607044633445424e-05,-0.0009944229467564005,0.46074364933934736,-4.573764917377767e-06,-4.366087487099944e-06,5.895959385704514e-05,auto
1761301727.0995688,32.07429814338684,0.44759942124870344,9.520971619817256,20.278262862079618,-0.5846881767401353,0.6233634052263053,-0.2982958011836126,-5.194133072194453e-05,-1.4374082435733475e-05,-0.0009829749475721299,0.45856342882018575,-3.6352473002267757e-06,-3.469857002731701e-06,4.694280468229471e-05,auto
1761301727.203695,32.17842435836792,0.39008421983692426,9.582432035925436,20.251214380807724,-0.4832376786846171,0.5178108285341039,-0.24394428483960734,-0.17875130104525144,-0.16919398035456057,-0.007918786727117974,0.428368196707231,0.2293894962035095,0.24129520895518192,0.017010555186145776,auto
1761301727.3082187,32.28294801712036,0.34597558860069577,9.629403217581302,20.226494256624893,-0.3744339159944354,0.3977478549113312,-0.22698513426397576,-0.10323530246483575,-0.10190856166177722,-0.01245661601581733,0.4562295107754352,-0.008611546486933325,0.01412845553364531,0.02641227599998859,auto
1761301727.413958,32.38868737220764,0.31566300336336317,9.66471740816295,20.232369967540258,-0.14016084065957876,0.3056767496563748,0.5605999332402525,0.04808329699868694,-0.2072983706574494,-0.0194059121572294,1.0,0.3,-0.3,0.03928006913241801,auto
1761301727.518911,32.493640184402466,0.33245702706160557,9.710023836002375,20.3428524451287,0.5355870176467509,0.6353069550519792,1.4990761058180893,0.28735822336082417,-0.44431108957934046,-0.038865305722882874,1.0,0.3,-0.2295006935961128,0.0855966884343989,auto
1761301727.622009,32.59673833847046,0.43685633288077513,9.81194998983881,20.536266891242384,1.4971627968756065,1.3729098407133347,2.22906266750665,0.3680274588216948,-0.5170117015115875,-0.04553249579936726,1.0,-0.3,0.03758126512998981,0.09650655509916772,auto
1761301727.725542,32.70027136802673,0.6422674692540553,9.981236018715173,20.802361674053948,2.428562961053408,1.814950209395083,2.9373663066205005,0.13248558546529818,-0.3971540372278435,-0.049323362668960105,1.0,-0.3,0.3,0.1000532024183931,auto
1761301727.8268542,32.80158352851868,0.9185583625510931,10.169374131826991,21.14484320789086,2.945314233457231,1.874114024200867,3.8510197343747525,0.050923442179254604,-0.15668557273408124,-0.054692763244363514,1.0,-0.08891095380272314,0.3,0.11356601296438867,auto
1761301727.9331517,32.907881021499634,1.23500400727841,10.368782785561045,21.582851904411232,2.959521999056755,1.8533563609785455,4.351211193429511,-0.007045046033662187,-0.021770391067225094,-0.047270655100844716,0.6258238909515902,0.09648643542886337,-0.13161089179717667,0.09361685795212955,auto
1761301728.0397456,33.014474868774414,1.5497030486370906,10.564010940585844,22.06351354142838,2.931206081563734,1.7991151221392727,4.642656634953787,-0.018999556083287766,-0.01938848643715423,-0.03135872372448218,0.573844446318255,0.08558358691061829,-0.13128173142582217,0.055970867021183535,auto
1761301728.1467125,33.12144184112549,1.8623281821531128,10.75345512392344,22.569860460467545,2.9075659437589056,1.7367928837740116,4.811836027308137,-0.02633938869426163,-0.023698831460409034,-0.01873546067587527,0.5466243911268225,0.07391626474908897,-0.1086195575395498,0.030603206072361343,auto
1761301728.2518046,33.22653388977051,2.1670229207541936,10.93274050975801,23.081051799304262,2.890410400551406,1.6731787451099667,4.909268106240033,-0.02826953516206605,-0.03266193991183727,-0.011052449689409707,0.5268939734582627,0.04741527102329608,-0.06269884310268947,0.0176924607103044,auto
