timestamp,simulation_time,position_x,position_y,position_z,velocity_x,velocity_y,velocity_z,attitude_roll,attitude_pitch,attitude_yaw,control_throttle,control_roll,control_pitch,control_yaw,estimated_position_x,estimated_position_y,estimated_position_z,flight_mode,battery_level,setpoint_altitude,setpoint_position_x,setpoint_position_y,setpoint_position_z,position_error,attitude_error,waypoint_index,mission_complete
1761250303.6565447,0.10841202735900879,0.0,0.0,-0.0,0.0,0.0,-0.0,0.0,0.0,0.0,0.0,0.0,0.0,0.0,0.0,0.0,-0.0,manual,85.0,0.0,0.0,0.0,0.0,0.0,0.0,0,0
1761250303.7611203,0.21298766136169434,0.0,0.0,-0.0,0.0,0.0,-0.0,0.0,0.0,0.0,0.0,0.0,0.0,0.0,0.0,0.0,-0.0,manual,85.0,0.0,0.0,0.0,0.0,0.0,0.0,0,0
1761250303.8651366,0.3170039653778076,0.0,0.0,-0.0,0.0,0.0,-0.0,0.0,0.0,0.0,0.0,0.0,0.0,0.0,0.0,0.0,-0.0,manual,85.0,0.0,0.0,0.0,0.0,0.0,0.0,0,0
1761250303.9672778,0.4191451072692871,0.0,0.0,-0.0,0.0,0.0,-0.0,0.0,0.0,0.0,0.0,0.0,0.0,0.0,0.0,0.0,-0.0,manual,85.0,0.0,0.0,0.0,0.0,0.0,0.0,0,0
1761250304.0700042,0.5218715667724609,0.0,0.0,-0.0,0.0,0.0,-0.0,0.0,0.0,0.0,0.0,0.0,0.0,0.0,0.0,0.0,-0.0,manual,85.0,0.0,0.0,0.0,0.0,0.0,0.0,0,0
1761250304.1740599,0.625927209854126,0.0,0.0,-0.0,0.0,0.0,-0.0,0.0,0.0,0.0,0.0,0.0,0.0,0.0,0.0,0.0,-0.0,manual,85.0,0.0,0.0,0.0,0.0,0.0,0.0,0,0
1761250304.2769294,0.7287967205047607,0.0,0.0,-0.0,0.0,0.0,-0.0,0.0,0.0,0.0,0.0,0.0,0.0,0.0,0.0,0.0,-0.0,manual,85.0,0.0,0.0,0.0,0.0,0.0,0.0,0,0
1761250304.381489,0.8333563804626465,0.0,0.0,-0.0,0.0,0.0,-0.0,0.0,0.0,0.0,0.0,0.0,0.0,0.0,0.0,0.0,-0.0,manual,85.0,0.0,0.0,0.0,0.0,0.0,0.0,0,0
1761250304.4860325,0.9378998279571533,0.0,0.0,-0.0,0.0,0.0,-0.0,0.0,0.0,0.0,0.0,0.0,0.0,0.0,0.0,0.0,-0.0,manual,85.0,0.0,0.0,0.0,0.0,0.0,0.0,0,0
1761250304.5889604,1.040827751159668,0.0,0.0,-0.0,0.0,0.0,-0.0,0.0,0.0,0.0,0.0,0.0,0.0,0.0,0.0,0.0,-0.0,manual,85.0,0.0,0.0,0.0,0.0,0.0,0.0,0,0
1761250304.693792,1.1456594467163086,0.0,0.0,-0.0,0.0,0.0,-0.0,0.0,0.0,0.0,0.0,0.0,0.0,0.0,0.0,0.0,-0.0,manual,85.0,0.0,0.0,0.0,0.0,0.0,0.0,0,0
1761250304.797614,1.249481439590454,0.0,0.0,-0.0,0.0,0.0,-0.0,0.0,0.0,0.0,0.0,0.0,0.0,0.0,0.0,0.0,-0.0,manual,85.0,0.0,0.0,0.0,0.0,0.0,0.0,0,0
1761250304.9048371,1.3567044734954834,0.0,0.0,-0.0,0.0,0.0,-0.0,0.0,0.0,0.0,0.0,0.0,0.0,0.0,0.0,0.0,-0.0,manual,85.0,0.0,0.0,0.0,0.0,0.0,0.0,0,0
1761250305.0091293,1.4609966278076172,0.0,0.0,-0.0,0.0,0.0,-0.0,0.0,0.0,0.0,0.0,0.0,0.0,0.0,0.0,0.0,-0.0,manual,85.0,0.0,0.0,0.0,0.0,0.0,0.0,0,0
1761250305.1140652,1.5659325122833252,0.0,0.0,-0.0,0.0,0.0,-0.0,0.0,0.0,0.0,0.0,0.0,0.0,0.0,0.0,0.0,-0.0,manual,85.0,0.0,0.0,0.0,0.0,0.0,0.0,0,0
1761250305.2167544,1.6686217784881592,0.0,0.0,-0.0,0.0,0.0,-0.0,0.0,0.0,0.0,0.0,0.0,0.0,0.0,0.0,0.0,-0.0,manual,85.0,0.0,0.0,0.0,0.0,0.0,0.0,0,0
1761250305.3191772,1.7710444927215576,0.0,0.0,-0.0,0.0,0.0,-0.0,0.0,0.0,0.0,0.0,0.0,0.0,0.0,0.0,0.0,-0.0,manual,85.0,0.0,0.0,0.0,0.0,0.0,0.0,0,0
1761250305.4240425,1.8759098052978516,0.0,0.0,-0.0,0.0,0.0,-0.0,0.0,0.0,0.0,0.0,0.0,0.0,0.0,0.0,0.0,-0.0,manual,85.0,0.0,0.0,0.0,0.0,0.0,0.0,0,0
1761250305.528827,1.98069429397583,0.0,0.0,-0.0,0.0,0.0,-0.0,0.0,0.0,0.0,0.0,0.0,0.0,0.0,0.0,0.0,-0.0,manual,85.0,0.0,0.0,0.0,0.0,0.0,0.0,0,0
1761250305.633228,2.0850954055786133,0.0,0.0,-0.0,0.0,0.0,-0.0,0.0,0.0,0.0,0.0,0.0,0.0,0.0,0.0,0.0,-0.0,manual,85.0,0.0,0.0,0.0,0.0,0.0,0.0,0,0
1761250305.7404544,2.19232177734375,0.0,0.0,-0.0,0.0,0.0,-0.0,0.0,0.0,0.0,0.0,0.0,0.0,0.0,0.0,0.0,-0.0,manual,85.0,0.0,0.0,0.0,0.0,0.0,0.0,0,0
1761250305.8449395,2.296806812286377,0.0,0.0,-0.0,0.0,0.0,-0.0,0.0,0.0,0.0,0.0,0.0,0.0,0.0,0.0,0.0,-0.0,manual,85.0,0.0,0.0,0.0,0.0,0.0,0.0,0,0
1761250305.9493835,2.4012508392333984,0.0,0.0,0.007771223264481295,0.0,0.0,0.4838081761629741,0.0,0.0,0.0,1.0,0.0,0.0,0.0,0.0,0.0,0.007771223264481295,stabilize,85.0,2.0,0.0,0.0,-2.0,1.9922287767355187,0.0,0,0
1761250306.0571656,2.509032964706421,0.0,0.0,0.125852284146889,0.0,0.0,1.3466029494262726,0.0,0.0,0.0,0.6724177170482621,0.0,0.0,0.0,0.0,0.0,0.125852284146889,stabilize,85.0,2.0,0.0,0.0,-2.0,1.874147715853111,0.0,0,0
1761250306.1616979,2.61356520652771,0.0,0.0,0.2647894997789032,0.0,0.0,1.379395607764004,0.0,0.0,0.0,0.7184849813476546,0.0,0.0,0.0,0.0,0.0,0.2647894997789032,stabilize,85.0,2.0,0.0,0.0,-2.0,1.735210500221097,0.0,0,0
1761250306.2649245,2.716791868209839,0.0,0.0,0.4031138024636674,0.0,0.0,1.32419164595895,0.0,0.0,0.0,0.465657156576085,0.0,0.0,0.0,0.0,0.0,0.4031138024636674,stabilize,85.0,2.0,0.0,0.0,-2.0,1.5968861975363327,0.0,0,0
1761250306.3684826,2.820349931716919,0.0,0.0,0.5389335487458601,0.0,0.0,1.283076917929368,0.0,0.0,0.0,0.35,0.0,0.0,0.0,0.0,0.0,0.5389335487458601,stabilize,85.0,2.0,0.0,0.0,-2.0,1.46106645125414,0.0,0,0
1761250306.4748638,2.9267311096191406,0.0,0.0,0.6737249945956877,0.0,0.0,1.2665867662065715,0.0,0.0,0.0,0.6066856174458594,0.0,0.0,0.0,0.0,0.0,0.6737249945956877,stabilize,85.0,2.0,0.0,0.0,-2.0,1.3262750054043124,0.0,0,0
1761250306.5781565,3.0300238132476807,0.0,0.0,0.7988732626168166,0.0,0.0,1.1760246702977348,0.0,0.0,0.0,0.35,0.0,0.0,0.0,0.0,0.0,0.7988732626168166,stabilize,85.0,2.0,0.0,0.0,-2.0,1.2011267373831833,0.0,0,0
1761250306.6816514,3.133518695831299,0.0,0.0,0.9170563399609917,0.0,0.0,1.099700207575048,0.0,0.0,0.0,0.35,0.0,0.0,0.0,0.0,0.0,0.9170563399609917,stabilize,85.0,2.0,0.0,0.0,-2.0,1.0829436600390083,0.0,0,0
1761250306.785864,3.237731456756592,0.0,0.0,1.0286774708946875,0.0,0.0,1.035408173835071,0.0,0.0,0.0,0.4560622526625575,0.0,0.0,0.0,0.0,0.0,1.0286774708946875,stabilize,85.0,2.0,0.0,0.0,-2.0,0.9713225291053125,0.0,0,0
1761250306.8907168,3.3425841331481934,0.0,0.0,1.1328859761718817,0.0,0.0,0.9673395756596134,0.0,0.0,0.0,0.5111713625928223,0.0,0.0,0.0,0.0,0.0,1.1328859761718817,stabilize,85.0,2.0,0.0,0.0,-2.0,0.8671140238281183,0.0,0,0
1761250306.995511,3.447378396987915,0.0,0.0,1.2292918568305429,0.0,0.0,0.8901187419869802,0.0,0.0,0.0,0.4876575020421103,0.0,0.0,0.0,0.0,0.0,1.2292918568305429,stabilize,85.0,2.0,0.0,0.0,-2.0,0.7707081431694571,0.0,0,0
1761250307.1001146,3.5519819259643555,0.0,0.0,1.3175867934919023,0.0,0.0,0.81641963472523,0.0,0.0,0.0,0.48628635006202625,0.0,0.0,0.0,0.0,0.0,1.3175867934919023,stabilize,85.0,2.0,0.0,0.0,-2.0,0.6824132065080977,0.0,0,0
1761250307.2056682,3.6575355529785156,0.0,0.0,1.3990417647355193,0.0,0.0,0.732987704129104,0.0,0.0,0.0,0.35,0.0,0.0,0.0,0.0,0.0,1.3990417647355193,stabilize,85.0,2.0,0.0,0.0,-2.0,0.6009582352644807,0.0,0,0
1761250307.3064203,3.7582876682281494,0.0,0.0,1.4698640600312718,0.0,0.0,0.6594039452389947,0.0,0.0,0.0,0.35,0.0,0.0,0.0,0.0,0.0,1.4698640600312718,stabilize,85.0,2.0,0.0,0.0,-2.0,0.5301359399687282,0.0,0,0
1761250307.411062,3.862929344177246,0.0,0.0,1.5366510080647482,0.0,0.0,0.5977068027723438,0.0,0.0,0.0,0.3842445361691986,0.0,0.0,0.0,0.0,0.0,1.5366510080647482,stabilize,85.0,2.0,0.0,0.0,-2.0,0.4633489919352518,0.0,0,0
1761250307.5181413,3.970008611679077,0.0,0.0,1.5976673491072226,0.0,0.0,0.5584210940346184,0.0,0.0,0.0,0.5101578640207315,0.0,0.0,0.0,0.0,0.0,1.5976673491072226,stabilize,85.0,2.0,0.0,0.0,-2.0,0.40233265089277737,0.0,0,0
1761250307.6219869,4.073854207992554,0.0,0.0,1.6521251102429693,0.0,0.0,0.4970912066530641,0.0,0.0,0.0,0.46506519664575774,0.0,0.0,0.0,0.0,0.0,1.6521251102429693,stabilize,85.0,2.0,0.0,0.0,-2.0,0.34787488975703074,0.0,0,0
1761250307.7297022,4.181569576263428,0.0,0.0,1.7028021759848546,0.0,0.0,0.4623039821959494,0.0,0.0,0.0,0.35,0.0,0.0,0.0,0.0,0.0,1.7028021759848546,stabilize,85.0,2.0,0.0,0.0,-2.0,0.2971978240151454,0.0,0,0
1761250307.8338776,4.285744905471802,0.0,0.0,1.7475741629560404,0.0,0.0,0.4053828602518854,0.0,0.0,0.0,0.46486589655955657,0.0,0.0,0.0,0.0,0.0,1.7475741629560404,stabilize,85.0,2.0,0.0,0.0,-2.0,0.2524258370439596,0.0,0,0
1761250307.9386673,4.3905346393585205,0.0,0.0,1.7884110245647786,0.0,0.0,0.3842730569746522,0.0,0.0,0.0,0.35,0.0,0.0,0.0,0.0,0.0,1.7884110245647786,stabilize,85.0,2.0,0.0,0.0,-2.0,0.21158897543522137,0.0,0,0
1761250308.0483277,4.500195026397705,0.0,0.0,1.826386301344942,0.0,0.0,0.3573397088144852,0.0,0.0,0.0,0.6354888007652137,0.0,0.0,0.0,0.0,0.0,1.826386301344942,stabilize,85.0,2.0,0.0,0.0,-2.0,0.17361369865505805,0.0,0,0
1761250308.1542277,4.6060950756073,0.0,0.0,1.860408867941529,0.0,0.0,0.29606271661658295,0.0,0.0,0.0,0.35,0.0,0.0,0.0,0.0,0.0,1.860408867941529,stabilize,85.0,2.0,0.0,0.0,-2.0,0.13959113205847107,0.0,0,0
1761250308.2588072,4.710674524307251,0.0,0.0,1.8895878977207257,0.0,0.0,0.2668561271534467,0.0,0.0,0.0,0.35,0.0,0.0,0.0,0.0,0.0,1.8895878977207257,stabilize,85.0,2.0,0.0,0.0,-2.0,0.11041210227927434,0.0,0,0
1761250308.3634965,4.815363883972168,0.0,0.0,1.9160835090101136,0.0,0.0,0.23003385569017556,0.0,0.0,0.0,0.35,0.0,0.0,0.0,0.0,0.0,1.9160835090101136,stabilize,85.0,2.0,0.0,0.0,-2.0,0.0839164909898864,0.0,0,0
1761250308.4688382,4.920705556869507,0.0,0.0,1.9390759764883299,0.0,0.0,0.2146669895713966,0.0,0.0,0.0,0.35,0.0,0.0,0.0,0.0,0.0,1.9390759764883299,stabilize,85.0,2.0,0.0,0.0,-2.0,0.060924023511670145,0.0,0,0
1761250308.5753586,5.027225971221924,0.0,0.0,1.9604823520702799,0.0,0.0,0.19139103526887308,0.0,0.0,0.0,0.35,0.0,0.0,0.0,0.0,0.0,1.9604823520702799,stabilize,85.0,2.0,0.0,0.0,-2.0,0.03951764792972012,0.0,0,0
1761250308.6804397,5.132307052612305,0.0,0.0,1.9792365672766081,0.0,0.0,0.15193594218910303,0.0,0.0,0.0,0.35,0.0,0.0,0.0,0.0,0.0,1.9792365672766081,stabilize,85.0,2.0,0.0,0.0,-2.0,0.020763432723391873,0.0,0,0
1761250308.7875214,5.239388704299927,0.0,0.0,1.9963988241146464,0.0,0.0,0.18473929463384542,0.0,0.0,0.0,0.6510154370202812,0.0,0.0,0.0,0.0,0.0,1.9963988241146464,stabilize,85.0,2.0,0.0,0.0,-2.0,0.0036011758853535802,0.0,0,0
1761250308.892121,5.343988418579102,0.0,0.0,2.0125951290275195,0.0,0.0,0.13568980483822332,0.0,0.0,0.0,0.35,0.0,0.0,0.0,0.0,0.0,2.0125951290275195,stabilize,85.0,2.0,0.0,0.0,-2.0,0.01259512902751947,0.0,0,0
1761250308.99787,5.449737310409546,0.0,0.0,2.0264020068011335,0.0,0.0,0.13844940027974098,0.0,0.0,0.0,0.5636651101516661,0.0,0.0,0.0,0.0,0.0,2.0264020068011335,stabilize,85.0,2.0,0.0,0.0,-2.0,0.02640200680113347,0.0,0,0
1761250309.1040037,5.55587100982666,0.0,0.0,2.0386949263747316,0.0,0.0,0.1381398045755083,0.0,0.0,0.0,0.6556271050657478,0.0,0.0,0.0,0.0,0.0,2.0386949263747316,stabilize,85.0,2.0,0.0,0.0,-2.0,0.0386949263747316,0.0,0,0
1761250309.2093265,5.66119384765625,0.0,0.0,2.049608242769348,0.0,0.0,0.09575197614368858,0.0,0.0,0.0,0.35,0.0,0.0,0.0,0.0,0.0,2.049608242769348,stabilize,85.0,2.0,0.0,0.0,-2.0,0.04960824276934783,0.0,0,0
1761250309.3133008,5.765168190002441,0.0,0.0,2.0588264546110047,0.0,0.0,0.07238308286853881,0.0,0.0,0.0,0.35,0.0,0.0,0.0,0.0,0.0,2.0588264546110047,stabilize,85.0,2.0,0.0,0.0,-2.0,0.058826454611004664,0.0,0,0
1761250309.4181335,5.870000839233398,0.0,0.0,2.0661630283324657,0.0,0.0,0.07419956916498961,0.0,0.0,0.0,0.5255997331114833,0.0,0.0,0.0,0.0,0.0,2.0661630283324657,stabilize,85.0,2.0,0.0,0.0,-2.0,0.06616302833246568,0.0,0,0
1761250309.523308,5.975175380706787,0.0,0.0,2.072859692367464,0.0,0.0,0.052403362608247565,0.0,0.0,0.0,0.4358704916862428,0.0,0.0,0.0,0.0,0.0,2.072859692367464,stabilize,85.0,2.0,0.0,0.0,-2.0,0.07285969236746404,0.0,0,0
1761250309.6293454,6.081212759017944,0.0,0.0,2.0785197768523416,0.0,0.0,0.06310830574186344,0.0,0.0,0.0,0.5526756895049438,0.0,0.0,0.0,0.0,0.0,2.0785197768523416,stabilize,85.0,2.0,0.0,0.0,-2.0,0.07851977685234157,0.0,0,0
1761250309.7334921,6.185359477996826,0.0,0.0,2.0839459882297198,0.0,0.0,0.07761996419326843,0.0,0.0,0.0,0.6600774473897385,0.0,0.0,0.0,0.0,0.0,2.0839459882297198,stabilize,85.0,2.0,0.0,0.0,-2.0,0.08394598822971977,0.0,0,0
1761250309.8403008,6.292168140411377,0.0,0.0,2.0880965748776097,0.0,0.0,0.014282279478702156,0.0,0.0,0.0,0.35,0.0,0.0,0.0,0.0,0.0,2.0880965748776097,stabilize,85.0,2.0,0.0,0.0,-2.0,0.08809657487760969,0.0,0,0
1761250309.944688,6.396555423736572,0.0,0.0,2.0919758768114805,0.0,0.0,0.009761115527785615,0.0,0.0,0.0,0.35,0.0,0.0,0.0,0.0,0.0,2.0919758768114805,stabilize,85.0,2.0,0.0,0.0,-2.0,0.09197587681148045,0.0,0,0
1761250310.0496423,6.501509666442871,0.0,0.0,2.096113127280994,0.0,0.0,0.05303315220766662,0.0,0.0,0.0,0.5922921902376894,0.0,0.0,0.0,0.0,0.0,2.096113127280994,stabilize,85.0,2.0,0.0,0.0,-2.0,0.09611312728099408,0.0,0,0
1761250310.1524854,6.604352712631226,0.0,0.0,2.099581329464942,0.0,0.0,0.06408013405894106,0.0,0.0,0.0,0.6724099300910766,0.0,0.0,0.0,0.0,0.0,2.099581329464942,stabilize,85.0,2.0,0.0,0.0,-2.0,0.09958132946494214,0.0,0,0
1761250310.2572172,6.709084510803223,0.0,0.0,2.1030759660914256,0.0,0.0,0.03763598195258483,0.0,0.0,0.0,0.35,0.0,0.0,0.0,0.0,0.0,2.1030759660914256,stabilize,85.0,2.0,0.0,0.0,-2.0,0.10307596609142555,0.0,0,0
1761250310.3582325,6.810099840164185,0.0,0.0,2.104531002768227,0.0,0.0,0.023562377147062476,0.0,0.0,0.0,0.556379770213934,0.0,0.0,0.0,0.0,0.0,2.104531002768227,stabilize,85.0,2.0,0.0,0.0,-2.0,0.10453100276822713,0.0,0,0
1761250310.462236,6.914103269577026,0.0,0.0,2.1056148665610004,0.0,0.0,0.006649603745105752,0.0,0.0,0.0,0.35,0.0,0.0,0.0,0.0,0.0,2.1056148665610004,stabilize,85.0,2.0,0.0,0.0,-2.0,0.10561486656100039,0.0,0,0
1761250310.5722053,7.024072647094727,0.0,0.0,2.107664968269183,0.0,0.0,0.020476604339130063,0.0,0.0,0.0,0.35,0.0,0.0,0.0,0.0,0.0,2.107664968269183,stabilize,85.0,2.0,0.0,0.0,-2.0,0.10766496826918281,0.0,0,0
1761250310.6770759,7.128943204879761,0.0,0.0,2.109491505423589,0.0,0.0,-0.001656444324676258,0.0,0.0,0.0,0.35,0.0,0.0,0.0,0.0,0.0,2.109491505423589,stabilize,85.0,2.0,0.0,0.0,-2.0,0.10949150542358899,0.0,0,0
1761250310.7818851,7.233752489089966,0.0,0.0,2.1107197755218574,0.0,0.0,-0.004858936782688699,0.0,0.0,0.0,0.4154368075721546,0.0,0.0,0.0,0.0,0.0,2.1107197755218574,stabilize,85.0,2.0,0.0,0.0,-2.0,0.11071977552185741,0.0,0,0
1761250310.8862677,7.338135004043579,0.0,0.0,2.1111833133844464,0.0,0.0,-0.013109179658164986,0.0,0.0,0.0,0.35,0.0,0.0,0.0,0.0,0.0,2.1111833133844464,stabilize,85.0,2.0,0.0,0.0,-2.0,0.11118331338444642,0.0,0,0
1761250310.996208,7.448075294494629,0.0,0.0,2.1123174103605447,0.0,0.0,0.008647455660615706,0.0,0.0,0.0,0.35,0.0,0.0,0.0,0.0,0.0,2.1123174103605447,stabilize,85.0,2.0,0.0,0.0,-2.0,0.11231741036054466,0.0,0,0
1761250311.1013978,7.55326509475708,0.0,0.0,2.1137850245681435,0.0,0.0,-0.004313019509137882,0.0,0.0,0.0,0.35,0.0,0.0,0.0,0.0,0.0,2.1137850245681435,stabilize,85.0,2.0,0.0,0.0,-2.0,0.11378502456814354,0.0,0,0
1761250311.2053583,7.657225608825684,0.0,0.0,2.1152210353536542,0.0,0.0,-0.001959951484813243,0.0,0.0,0.0,0.35,0.0,0.0,0.0,0.0,0.0,2.1152210353536542,stabilize,85.0,2.0,0.0,0.0,-2.0,0.11522103535365424,0.0,0,0
1761250311.309162,7.761029243469238,0.0,0.0,2.115891331556828,0.0,0.0,0.03350748688123592,0.0,0.0,0.0,0.6470929183230836,0.0,0.0,0.0,0.0,0.0,2.115891331556828,stabilize,85.0,2.0,0.0,0.0,-2.0,0.11589133155682818,0.0,0,0
1761250311.4144118,7.866279125213623,0.0,0.0,2.1167815388653413,0.0,0.0,0.0012876967269233146,0.0,0.0,0.0,0.35,0.0,0.0,0.0,0.0,0.0,2.1167815388653413,stabilize,85.0,2.0,0.0,0.0,-2.0,0.11678153886534126,0.0,0,0
1761250311.5186968,7.970564126968384,0.0,0.0,2.1164493702166833,0.0,0.0,0.024974602528476074,0.0,0.0,0.0,0.6483543815061956,0.0,0.0,0.0,0.0,0.0,2.1164493702166833,stabilize,85.0,2.0,0.0,0.0,-2.0,0.11644937021668333,0.0,0,0
1761250311.624288,8.076155424118042,0.0,0.0,2.11592947318264,0.0,0.0,0.016841775012331583,0.0,0.0,0.0,0.35,0.0,0.0,0.0,0.0,0.0,2.11592947318264,stabilize,85.0,2.0,0.0,0.0,-2.0,0.11592947318264013,0.0,0,0
1761250311.728781,8.18064832687378,0.0,0.0,2.114833438379722,0.0,0.0,0.009191011210607548,0.0,0.0,0.0,0.5999545416894998,0.0,0.0,0.0,0.0,0.0,2.114833438379722,stabilize,85.0,2.0,0.0,0.0,-2.0,0.11483343837972182,0.0,0,0
1761250311.8346872,8.28655457496643,0.0,0.0,2.1135464081510213,0.0,0.0,-0.02902033952944276,0.0,0.0,0.0,0.35,0.0,0.0,0.0,0.0,0.0,2.1135464081510213,stabilize,85.0,2.0,0.0,0.0,-2.0,0.11354640815102135,0.0,0,0
1761250311.9399412,8.39180850982666,0.0,0.0,2.1114491799019444,0.0,0.0,-0.04002397554826021,0.0,0.0,0.0,0.37613442808530134,0.0,0.0,0.0,0.0,0.0,2.1114491799019444,stabilize,85.0,2.0,0.0,0.0,-2.0,0.11144917990194436,0.0,0,0
1761250312.0461385,8.498005867004395,0.0,0.0,2.1098487739407945,0.0,0.0,-0.036485988521455646,0.0,0.0,0.0,0.35,0.0,0.0,0.0,0.0,0.0,2.1098487739407945,stabilize,85.0,2.0,0.0,0.0,-2.0,0.10984877394079451,0.0,0,0
1761250312.1506011,8.602468490600586,0.0,0.0,2.1079680543082073,0.0,0.0,0.007369598559362478,0.0,0.0,0.0,0.6348591678051994,0.0,0.0,0.0,0.0,0.0,2.1079680543082073,stabilize,85.0,2.0,0.0,0.0,-2.0,0.10796805430820733,0.0,0,0
1761250312.2577038,8.709571123123169,0.0,0.0,2.1064845995879504,0.0,0.0,-0.013566558291416168,0.0,0.0,0.0,0.35,0.0,0.0,0.0,0.0,0.0,2.1064845995879504,stabilize,85.0,2.0,0.0,0.0,-2.0,0.10648459958795042,0.0,0,0
1761250312.3617585,8.813625812530518,0.0,0.0,2.105008472114187,0.0,0.0,-0.00548067268645273,0.0,0.0,0.0,0.35,0.0,0.0,0.0,0.0,0.0,2.105008472114187,stabilize,85.0,2.0,0.0,0.0,-2.0,0.10500847211418707,0.0,0,0
1761250312.465666,8.91753339767456,0.0,0.0,2.1040460191333437,0.0,0.0,-0.008793671327175071,0.0,0.0,0.0,0.35,0.0,0.0,0.0,0.0,0.0,2.1040460191333437,stabilize,85.0,2.0,0.0,0.0,-2.0,0.10404601913334366,0.0,0,0
1761250312.5689821,9.020849466323853,0.0,0.0,2.1027611735009484,0.0,0.0,-0.002654397283286397,0.0,0.0,0.0,0.5532395347819561,0.0,0.0,0.0,0.0,0.0,2.1027611735009484,stabilize,85.0,2.0,0.0,0.0,-2.0,0.10276117350094838,0.0,0,0
1761250312.6735737,9.125441074371338,0.0,0.0,2.1005390912348987,0.0,0.0,0.019223789730358626,0.0,0.0,0.0,0.6937785263811245,0.0,0.0,0.0,0.0,0.0,2.1005390912348987,stabilize,85.0,2.0,0.0,0.0,-2.0,0.10053909123489868,0.0,0,0
1761250312.7788475,9.230714797973633,0.0,0.0,2.099577175531378,0.0,0.0,-0.03195024570399861,0.0,0.0,0.0,0.35,0.0,0.0,0.0,0.0,0.0,2.099577175531378,stabilize,85.0,2.0,0.0,0.0,-2.0,0.0995771755313779,0.0,0,0
1761250312.8835733,9.335440635681152,0.0,0.0,2.098138499857518,0.0,0.0,-0.02843310092902623,0.0,0.0,0.0,0.35,0.0,0.0,0.0,0.0,0.0,2.098138499857518,stabilize,85.0,2.0,0.0,0.0,-2.0,0.0981384998575181,0.0,0,0
1761250312.9884372,9.440304517745972,0.0,0.0,2.0967073728375047,0.0,0.0,-0.003340443671072675,0.0,0.0,0.0,0.5562821114903932,0.0,0.0,0.0,0.0,0.0,2.0967073728375047,stabilize,85.0,2.0,0.0,0.0,-2.0,0.09670737283750475,0.0,0,0
1761250313.0919335,9.543800830841064,0.0,0.0,2.094557283634772,0.0,0.0,-0.04003540723283911,0.0,0.0,0.0,0.3536809065361503,0.0,0.0,0.0,0.0,0.0,2.094557283634772,stabilize,85.0,2.0,0.0,0.0,-2.0,0.09455728363477212,0.0,0,0
1761250313.1968908,9.648758172988892,0.0,0.0,2.0935900564827907,0.0,0.0,0.01802031168424849,0.0,0.0,0.0,0.6589320593054833,0.0,0.0,0.0,0.0,0.0,2.0935900564827907,stabilize,85.0,2.0,0.0,0.0,-2.0,0.09359005648279073,0.0,0,0
1761250313.305565,9.757432460784912,0.0,0.0,2.09224002497308,0.0,0.0,-0.006287015089554773,0.0,0.0,0.0,0.35,0.0,0.0,0.0,0.0,0.0,2.09224002497308,stabilize,85.0,2.0,0.0,0.0,-2.0,0.09224002497307993,0.0,0,0
1761250313.4089525,9.860819816589355,0.0,0.0,2.0911744515554718,0.0,0.0,-0.02243685887243272,0.0,0.0,0.0,0.35,0.0,0.0,0.0,0.0,0.0,2.0911744515554718,stabilize,85.0,2.0,0.0,0.0,-2.0,0.09117445155547177,0.0,0,0
1761250313.5143197,9.966187000274658,0.0,0.0,2.0899014060811596,0.0,0.0,-0.02429137145082565,0.0,0.0,0.0,0.35,0.0,0.0,0.0,0.0,0.0,2.0899014060811596,stabilize,85.0,2.0,0.0,0.0,-2.0,0.0899014060811596,0.0,0,0
1761250313.6200526,10.071919918060303,0.0,0.0,2.0881426598386255,0.0,0.0,-0.020483457738749187,0.0,0.0,0.0,0.35,0.0,0.0,0.0,0.0,0.0,2.0881426598386255,stabilize,85.0,2.0,0.0,0.0,-2.0,0.08814265983862546,0.0,0,0
1761250313.7257292,10.17759656906128,0.0,0.0,2.0869902992556497,0.0,0.0,-0.033568122522153104,0.0,0.0,0.0,0.35,0.0,0.0,0.0,0.0,0.0,2.0869902992556497,stabilize,85.0,2.0,0.0,0.0,-2.0,0.08699029925564972,0.0,0,0
1761250313.8303716,10.282238960266113,0.0,0.0,2.085121072190831,0.0,0.0,-0.040521746418238434,0.0,0.0,0.0,0.35,0.0,0.0,0.0,0.0,0.0,2.085121072190831,stabilize,85.0,2.0,0.0,0.0,-2.0,0.08512107219083109,0.0,0,0
1761250313.93724,10.38910722732544,0.0,0.0,2.08468137975762,0.0,0.0,-0.01986552124743891,0.0,0.0,0.0,0.35,0.0,0.0,0.0,0.0,0.0,2.08468137975762,stabilize,85.0,2.0,0.0,0.0,-2.0,0.0846813797576198,0.0,0,0
1761250314.0444653,10.49633264541626,0.0,0.0,2.0840802688758324,0.0,0.0,0.02605964483303257,0.0,0.0,0.0,0.6519170412916095,0.0,0.0,0.0,0.0,0.0,2.0840802688758324,stabilize,85.0,2.0,0.0,0.0,-2.0,0.08408026887583242,0.0,0,0
1761250314.1501203,10.601987600326538,0.0,0.0,2.0833718561509174,0.0,0.0,-0.01669236738344311,0.0,0.0,0.0,0.35,0.0,0.0,0.0,0.0,0.0,2.0833718561509174,stabilize,85.0,2.0,0.0,0.0,-2.0,0.08337185615091736,0.0,0,0
1761250314.2553241,10.707191467285156,0.0,0.0,2.082348809534772,0.0,0.0,-0.009066540395627175,0.0,0.0,0.0,0.35,0.0,0.0,0.0,0.0,0.0,2.082348809534772,stabilize,85.0,2.0,0.0,0.0,-2.0,0.0823488095347722,0.0,0,0
1761250314.3587067,10.810574054718018,0.0,0.0,2.081608928294443,0.0,0.0,-0.023891294892100793,0.0,0.0,0.0,0.35,0.0,0.0,0.0,0.0,0.0,2.081608928294443,stabilize,85.0,2.0,0.0,0.0,-2.0,0.08160892829444322,0.0,0,0
1761250314.4634228,10.915290117263794,0.0,0.0,2.081307062430856,0.0,0.0,0.011084354060225603,0.0,0.0,0.0,0.35,0.0,0.0,0.0,0.0,0.0,2.081307062430856,stabilize,85.0,2.0,0.0,0.0,-2.0,0.08130706243085584,0.0,0,0
1761250314.5682304,11.020097732543945,0.0,0.0,2.08129142039473,0.0,0.0,-0.02443552851540299,0.0,0.0,0.0,0.35,0.0,0.0,0.0,0.0,0.0,2.08129142039473,stabilize,85.0,2.0,0.0,0.0,-2.0,0.08129142039472992,0.0,0,0
1761250314.6720624,11.123929738998413,0.0,0.0,2.081543156908184,0.0,0.0,-0.0036171999199700287,0.0,0.0,0.0,0.4937673411802902,0.0,0.0,0.0,0.0,0.0,2.081543156908184,stabilize,85.0,2.0,0.0,0.0,-2.0,0.08154315690818414,0.0,0,0
1761250314.78501,11.23687744140625,0.0,0.0,2.081530694186758,0.0,0.0,-0.00846718817077638,0.0,0.0,0.0,0.35,0.0,0.0,0.0,0.0,0.0,2.081530694186758,stabilize,85.0,2.0,0.0,0.0,-2.0,0.08153069418675818,0.0,0,0
1761250314.8918753,11.343742609024048,0.0,0.0,2.0823504306893814,0.0,0.0,0.028770377151818342,0.0,0.0,0.0,0.6237893864311541,0.0,0.0,0.0,0.0,0.0,2.0823504306893814,stabilize,85.0,2.0,0.0,0.0,-2.0,0.08235043068938142,0.0,0,0
1761250314.9988225,11.450689792633057,0.0,0.0,2.0821076027905923,0.0,0.0,-0.023183521190807195,0.0,0.0,0.0,0.38117743226572254,0.0,0.0,0.0,0.0,0.0,2.0821076027905923,stabilize,85.0,2.0,0.0,0.0,-2.0,0.08210760279059226,0.0,0,0
1761250315.1035874,11.555454730987549,0.0,0.0,2.081749803870325,0.0,0.0,-0.025812082309153175,0.0,0.0,0.0,0.3731282464975701,0.0,0.0,0.0,0.0,0.0,2.081749803870325,stabilize,85.0,2.0,0.0,0.0,-2.0,0.08174980387032482,0.0,0,0
1761250315.2086928,11.660560131072998,0.0,0.0,2.080915156897663,0.0,0.0,-0.0163545250342299,0.0,0.0,0.0,0.35,0.0,0.0,0.0,0.0,0.0,2.080915156897663,stabilize,85.0,2.0,0.0,0.0,-2.0,0.08091515689766293,0.0,0,0
1761250315.3124022,11.764269590377808,0.00022050421985760752,0.0,2.0883985875051514,0.020261478526604884,0.0,0.4150175101899551,0.0,-0.06553572458244536,0.0,1.0,0.0,-0.3,0.0,0.00022050421985760752,0.0,2.0883985875051514,auto,85.0,5,10.0,0.0,0.0,10.215527329732835,0.06553572458244536,0,0
1761250315.4179392,11.86980652809143,0.019120790801748645,0.0,2.1895629333391695,0.42555646064014657,0.0,1.4836534829137036,0.0,-0.3160116769578751,0.0,1.0,0.0,-0.3,0.0,0.019120790801748645,0.0,2.1895629333391695,auto,85.0,5,10.0,0.0,0.0,10.218225659460586,0.3160116769578751,0,0
1761250315.5217524,11.97361969947815,0.08790006852880024,0.0,2.351022174964508,0.9221588339942091,0.0,1.6311720206172193,0.0,-0.4120202827224729,0.0,0.35,0.0,0.3,0.0,0.08790006852880024,0.0,2.351022174964508,auto,85.0,5,10.0,0.0,0.0,10.187101173476497,0.4120202827224729,0,0
1761250315.629221,12.081088304519653,0.2080201211758758,0.0,2.5314427241226385,1.269017232060187,0.0,1.7001989361280319,0.0,-0.2726652111740832,0.0,0.35,0.0,-0.09341934518043732,0.0,0.2080201211758758,0.0,2.5314427241226385,auto,85.0,5,10.0,0.0,0.0,10.113904894392173,0.2726652111740832,0,0
1761250315.733069,12.184936285018921,0.356234898468912,0.0,2.7128135744443553,1.55321231277544,0.0,1.7431841128701842,0.0,-0.23595787239530697,0.0,0.35,0.0,-0.22552993880636713,0.0,0.356234898468912,0.0,2.7128135744443553,auto,85.0,5,10.0,0.0,0.0,10.018061829675363,0.23595787239530697,0,0
1761250315.8398135,12.291680812835693,0.5358212779046833,0.0,2.8988710128942934,1.7841170018056118,0.0,1.7423325563754366,0.0,-0.12165001640761737,0.0,0.477391670989146,0.0,0.3,0.0,0.5358212779046833,0.0,2.8988710128942934,auto,85.0,5,10.0,0.0,0.0,9.898188320756509,0.12165001640761738,0,0
1761250315.944945,12.396812438964844,0.7253673816823197,0.0,3.0793473106703653,1.8198668209035131,0.0,1.676017445081004,0.0,-0.11523645430299771,0.0,0.35,0.0,-0.09622574583342111,0.0,0.7253673816823197,0.0,3.0793473106703653,auto,85.0,5,10.0,0.0,0.0,9.772471031652898,0.11523645430299771,0,0
1761250316.0531495,12.505016803741455,0.9257617069045857,0.0,3.257808108451077,1.872699091435191,0.0,1.6150568716462517,0.0,-0.02154065762102993,0.0,0.35,0.0,-0.3,0.0,0.9257617069045857,0.0,3.257808108451077,auto,85.0,5,10.0,0.0,0.0,9.641323263503239,0.02154065762102993,0,0
1761250316.158465,12.610332250595093,1.1262622951085501,0.0,3.424014449917165,1.9081471845702953,0.0,1.5226034561288317,0.0,-0.007814622031629576,0.0,0.35,0.0,-0.1833539049733618,0.0,1.1262622951085501,0.0,3.424014449917165,auto,85.0,5,10.0,0.0,0.0,9.511419232083808,0.007814622031629576,0,0
1761250316.2644284,12.716295719146729,1.3296909470560547,0.0,3.5812842248789942,1.9298708923494643,0.0,1.442918029304643,0.0,-0.003609696647799123,0.0,0.35,0.0,-0.04503582994428749,0.0,1.3296909470560547,0.0,3.5812842248789942,auto,85.0,5,10.0,0.0,0.0,9.38082383231499,0.0036096966477991233,0,0
1761250316.3710263,12.822893619537354,1.535352443837531,0.0,3.729082685033641,1.9287541739874297,0.0,1.3367544264190219,0.0,0.0034113573892821268,0.0,0.4258751434714475,0.0,-0.003875146241131725,0.0,1.535352443837531,0.0,3.729082685033641,auto,85.0,5,10.0,0.0,0.0,9.249665719466025,0.0034113573892821268,0,0
1761250316.4757044,12.927571773529053,1.7368214744726869,0.0,3.863926745707077,1.9218122025198594,0.0,1.2337513989700772,0.0,0.006145818270762123,0.0,0.35,0.0,0.04185694368094702,0.0,1.7368214744726869,0.0,3.863926745707077,auto,85.0,5,10.0,0.0,0.0,9.121954244619198,0.006145818270762123,0,0
1761250316.5807686,13.032635927200317,1.9378902044078428,0.0,3.988576119423098,1.903524961199447,0.0,1.1401115485782432,0.0,0.016187543915855366,0.0,0.43424498805193273,0.0,-0.035378055944696694,0.0,1.9378902044078428,0.0,3.988576119423098,auto,85.0,5,10.0,0.0,0.0,8.99479592968152,0.016187543915855366,0,0
1761250316.6867325,13.138599872589111,2.138658308862255,0.0,4.104222551926941,1.8809014410660185,0.0,1.0478795826717346,0.0,0.019944089877464773,0.0,0.4180645682731726,0.0,-0.19410671152601539,0.0,2.138658308862255,0.0,4.104222551926941,auto,85.0,5,10.0,0.0,0.0,8.868220562241682,0.019944089877464773,0,0
1761250316.796167,13.248034238815308,2.343252514499649,0.0,4.213908496683368,1.8490067632090104,0.0,0.9665717800189052,0.0,0.02922208791624933,0.0,0.35,0.0,0.3,0.0,2.343252514499649,0.0,4.213908496683368,auto,85.0,5,10.0,0.0,0.0,8.739725789470526,0.029222087916249334,0,0
1761250316.90053,13.352397441864014,2.5335790003902012,0.0,4.309731012422404,1.814450979162387,0.0,0.8831450479524611,0.0,-0.02224183614467062,0.0,0.35,0.0,0.24486888003118462,0.0,2.5335790003902012,0.0,4.309731012422404,auto,85.0,5,10.0,0.0,0.0,8.620975811522129,0.02224183614467062,0,0
1761250317.0048,13.456667423248291,2.721060075240194,0.0,4.39669871603041,1.7851566992018666,0.0,0.7933162840630827,0.0,-0.011680753788857794,0.0,0.35,0.0,0.28687503940182324,0.0,2.721060075240194,0.0,4.39669871603041,auto,85.0,5,10.0,0.0,0.0,8.503759523164195,0.011680753788857795,0,0
1761250317.1102304,13.562097787857056,2.9072494762403798,0.0,4.476307018212706,1.7464939596970643,0.0,0.7317599875178369,0.0,0.017696108715714386,0.0,0.5202870714345335,0.0,-0.038502413137690955,0.0,2.9072494762403798,0.0,4.476307018212706,auto,85.0,5,10.0,0.0,0.0,8.387158905946203,0.017696108715714386,0,0
1761250317.2155662,13.667433500289917,3.0894355017955593,0.0,4.548685900942577,1.7090692882489267,0.0,0.6786609169789664,0.0,0.007217644543984495,0.0,0.35,0.0,-0.3,0.0,3.0894355017955593,0.0,4.548685900942577,auto,85.0,5,10.0,0.0,0.0,8.273236676735253,0.007217644543984495,0,0
1761250317.3198178,13.771685123443604,3.2664716007749166,0.0,4.613969505310105,1.6772373899747597,0.0,0.5915118013549613,0.0,0.013373723329390576,0.0,0.35,0.0,-0.19417203503561276,0.0,3.2664716007749166,0.0,4.613969505310105,auto,85.0,5,10.0,0.0,0.0,8.162666188146021,0.013373723329390574,0,0
1761250317.425806,13.877673387527466,3.4427817029000995,0.0,4.6734805543955105,1.6412468418306667,0.0,0.5375191572734623,0.0,0.011731530519052728,0.0,0.35,0.0,-0.13786814864967326,0.0,3.4427817029000995,0.0,4.6734805543955105,auto,85.0,5,10.0,0.0,0.0,8.052237719301058,0.011731530519052728,0,0
1761250317.5307324,13.98259973526001,3.613294092429755,0.0,4.726368902080388,1.6027437273047735,0.0,0.4659401628963883,0.0,-0.002247606044730611,0.0,0.39168742036147347,0.0,-0.05107489286781175,0.0,3.613294092429755,0.0,4.726368902080388,auto,85.0,5,10.0,0.0,0.0,7.945349290518651,0.002247606044730611,0,0
1761250317.6356156,14.087482929229736,3.7799418748143787,0.0,4.773822527255561,1.5616112982657935,0.0,0.41907033529753257,0.0,0.023867780963442595,0.0,0.35,0.0,-0.3,0.0,3.7799418748143787,0.0,4.773822527255561,auto,85.0,5,10.0,0.0,0.0,7.840822954411121,0.023867780963442595,0,0
1761250317.7390816,14.190948963165283,3.9404101983014836,0.0,4.815927787142715,1.526579893181632,0.0,0.4022443125403392,0.0,0.032578869751058975,0.0,0.35,0.0,-0.3,0.0,3.9404101983014836,0.0,4.815927787142715,auto,85.0,5,10.0,0.0,0.0,7.740270603526856,0.032578869751058975,0,0
1761250317.8438077,14.295675039291382,4.099236462314745,0.0,4.854499666679866,1.4937586293396392,0.0,0.33904897389839805,0.0,0.04946083786385875,0.0,0.35,0.0,-0.2669771511837795,0.0,4.099236462314745,0.0,4.854499666679866,auto,85.0,5,10.0,0.0,0.0,7.641019391512544,0.04946083786385874,0,0
1761250317.9481578,14.400025129318237,4.253623062878438,0.0,4.8887971798909655,1.4556127685000486,0.0,0.3065383221226418,0.0,0.04583264071335414,0.0,0.35,0.0,-0.3,0.0,4.253623062878438,0.0,4.8887971798909655,auto,85.0,5,10.0,0.0,0.0,7.544613029810902,0.04583264071335414,0,0
1761250318.0515394,14.503406763076782,4.4029264998513415,0.0,4.919130026994943,1.4215585224366412,0.0,0.2849775114778584,0.0,0.053165249271190124,0.0,0.35,0.0,-0.3,0.0,4.4029264998513415,0.0,4.919130026994943,auto,85.0,5,10.0,0.0,0.0,7.45151474457037,0.05316524927119013,0,0
1761250318.1549406,14.606807947158813,4.5485303081852475,0.0,4.946424864515506,1.3844841687567362,0.0,0.2520408749961936,0.0,0.05431173611160697,0.0,0.35,0.0,-0.3,0.0,4.5485303081852475,0.0,4.946424864515506,auto,85.0,5,10.0,0.0,0.0,7.361089643597072,0.05431173611160697,0,0
1761250318.260132,14.711999416351318,4.693114803060177,0.0,4.970492467677092,1.3560814196046866,0.0,0.20651730786573816,0.0,0.06894280757896636,0.0,0.35,0.0,-0.3,0.0,4.693114803060177,0.0,4.970492467677092,auto,85.0,5,10.0,0.0,0.0,7.271095231444416,0.06894280757896636,0,0
1761250318.3680375,14.819904804229736,4.836661902387311,0.0,4.992332363426626,1.3030068568145425,0.0,0.2051851680553341,0.0,0.01568256542761572,0.0,0.35,0.0,-0.3,0.0,4.836661902387311,0.0,4.992332363426626,auto,85.0,5,10.0,0.0,0.0,7.182161425168297,0.01568256542761572,0,0
1761250318.471419,14.923286437988281,4.970610545478627,0.0,5.01120804370838,1.2743130737186146,0.0,0.1661960072710159,0.0,0.027511579611611575,0.0,0.35,0.0,-0.3,0.0,4.970610545478627,0.0,5.01120804370838,auto,85.0,5,10.0,0.0,0.0,7.099786218089835,0.027511579611611575,0,0
1761250318.58031,15.032177448272705,5.108620419830694,0.0,5.028742658016595,1.2471877358276808,0.0,0.14029160118069547,0.0,0.055957087252591214,0.0,0.35,0.0,0.0035185582282529805,0.0,5.108620419830694,0.0,5.028742658016595,auto,85.0,5,10.0,0.0,0.0,7.015258150478361,0.055957087252591214,0,0
1761250318.6846159,15.136483192443848,5.236651604515995,0.0,5.042634358603049,1.2149930519223082,0.0,0.11949430096999619,0.0,0.04578264361576222,0.0,0.35,0.0,-0.04512273924024926,0.0,5.236651604515995,0.0,5.042634358603049,auto,85.0,5,10.0,0.0,0.0,6.93668863445117,0.04578264361576222,0,0
1761250318.789918,15.241785287857056,5.362872156642465,0.0,5.0543230607466985,1.1869697702735014,0.0,0.09109695220582474,0.0,0.05906133143503327,0.0,0.4014016406581089,0.0,-0.0092522640585542,0.0,5.362872156642465,0.0,5.0543230607466985,auto,85.0,5,10.0,0.0,0.0,6.859237292734345,0.05906133143503327,0,0
1761250318.8957438,15.34761118888855,5.486392720426786,0.0,5.064922632666788,1.158782621551715,0.0,0.07630426552319938,0.0,0.04907799771515494,0.0,0.35,0.0,0.0001864164926544936,0.0,5.486392720426786,0.0,5.064922632666788,auto,85.0,5,10.0,0.0,0.0,6.784253234447884,0.04907799771515494,0,0
1761250318.9958816,15.447748899459839,5.600667514336179,0.0,5.074408083445739,1.1453510469912873,0.0,0.12557257447977194,0.0,-0.020503490242693878,0.0,0.35,0.0,0.3,0.0,5.600667514336179,0.0,5.074408083445739,auto,85.0,5,10.0,0.0,0.0,6.715932081011278,0.020503490242693875,0,0
1761250319.100814,15.55268144607544,5.718502549245704,0.0,5.083788699355882,1.0984595932259038,0.0,0.08985988928765729,0.0,-0.008603832875774625,0.0,0.5576391176891233,0.0,-0.006167653421247581,0.0,5.718502549245704,0.0,5.083788699355882,auto,85.0,5,10.0,0.0,0.0,6.646512465986512,0.008603832875774625,0,0
1761250319.2055826,15.657449960708618,5.832896878777199,0.0,5.091825239675236,1.070685827840113,0.0,0.08335769698341207,0.0,0.007638399425421244,0.0,0.35,0.0,-0.3,0.0,5.832896878777199,0.0,5.091825239675236,auto,85.0,5,10.0,0.0,0.0,6.579622534332693,0.007638399425421244,0,0
1761250319.3091357,15.761003017425537,5.942947226236539,0.0,5.098448161195623,1.0438120737488883,0.0,0.05008124698119103,0.0,0.006434696524143756,0.0,0.35,0.0,-0.2234787706603404,0.0,5.942947226236539,0.0,5.098448161195623,auto,85.0,5,10.0,0.0,0.0,6.515661966485126,0.006434696524143756,0,0
1761250319.412442,15.864309310913086,6.049917185688955,0.0,5.103551127408469,1.0168396566256805,0.0,0.046830046185769914,0.0,0.007539480204955058,0.0,0.48349103575036834,0.0,-0.1009970946355836,0.0,6.049917185688955,0.0,5.103551127408469,auto,85.0,5,10.0,0.0,0.0,6.453633732246332,0.007539480204955058,0,0
1761250319.5183985,15.970265865325928,6.1569571340627975,0.0,5.109434226146266,0.9885179866484137,0.0,0.05220383940076339,0.0,0.019640200138864146,0.0,0.35,0.0,-0.18782760703729898,0.0,6.1569571340627975,0.0,5.109434226146266,auto,85.0,5,10.0,0.0,0.0,6.393379120679903,0.01964020013886415,0,0
1761250319.6214805,16.073347806930542,6.258351867093204,0.0,5.113817738337473,0.9644966326843095,0.0,0.03601410347030235,0.0,0.037011922260126645,0.0,0.35,0.0,-0.3,0.0,6.258351867093204,0.0,5.113817738337473,auto,85.0,5,10.0,0.0,0.0,6.336486614159293,0.037011922260126645,0,0
1761250319.7250159,16.176883220672607,6.35748450060309,0.0,5.1174977239724715,0.9371492995066636,0.0,0.04944552157931396,0.0,0.05338605954726013,0.0,0.35,0.0,-0.3,0.0,6.35748450060309,0.0,5.1174977239724715,auto,85.0,5,10.0,0.0,0.0,6.2814570059987,0.05338605954726013,0,0
1761250319.834206,16.286073446273804,6.458997681850857,0.0,5.122184426841732,0.9082157247716101,0.0,0.08540499459499128,0.0,0.08049285026887491,0.0,0.6851175579053485,0.0,-0.24153101887088277,0.0,6.458997681850857,0.0,5.122184426841732,auto,85.0,5,10.0,0.0,0.0,6.226995320354558,0.08049285026887491,0,0
1761250319.93997,16.39183735847473,6.5535707064782605,0.0,5.127414114484435,0.8940172143975055,0.0,0.0201838366450722,0.0,0.03413185255976378,0.0,0.3771477424884028,0.0,0.14206982847974403,0.0,6.5535707064782605,0.0,5.127414114484435,auto,85.0,5,10.0,0.0,0.0,6.178045838018601,0.03413185255976378,0,0
1761250320.0460918,16.49795913696289,6.645485279891851,0.0,5.130234567959196,0.8697136197716656,0.0,0.018472345213261937,0.0,0.022007440503137132,0.0,0.4423477291211879,0.0,0.19569726738819992,0.0,6.645485279891851,0.0,5.130234567959196,auto,85.0,5,10.0,0.0,0.0,6.129606490608164,0.022007440503137132,0,0
1761250320.1493998,16.601267099380493,6.734277371890848,0.0,5.132819541551635,0.8473014433453966,0.0,0.008241082825903901,0.0,0.012501911891806303,0.0,0.35,0.0,0.266811863785303,0.0,6.734277371890848,0.0,5.132819541551635,auto,85.0,5,10.0,0.0,0.0,6.083648636293724,0.012501911891806303,0,0
1761250320.2539532,16.705820560455322,6.821009289533669,0.0,5.133800930973366,0.8249470189959862,0.0,-0.0018958310894380847,0.0,0.008216479406936589,0.0,0.37789100056349256,0.0,0.3,0.0,6.821009289533669,0.0,5.133800930973366,auto,85.0,5,10.0,0.0,0.0,6.038368482967417,0.008216479406936589,0,0
1761250320.3567245,16.808591842651367,6.904006446975254,0.0,5.133810420598013,0.8039204752873205,0.0,-0.007377126706195721,0.0,-0.00658528007491945,0.0,0.3901119904407332,0.0,0.3,0.0,6.904006446975254,0.0,5.133810420598013,auto,85.0,5,10.0,0.0,0.0,5.995096789461496,0.00658528007491945,0,0
1761250320.4605103,16.91237759590149,6.985885196553426,0.0,5.13309128476767,0.7842668898023664,0.0,0.02548372994867143,0.0,-0.005275389772106251,0.0,0.35,0.0,0.3,0.0,6.985885196553426,0.0,5.13309128476767,auto,85.0,5,10.0,0.0,0.0,5.952605663582427,0.005275389772106251,0,0
1761250320.5609124,17.012779712677002,7.062227056622512,0.0,5.133443255413069,0.7326194549252447,0.0,-0.003973418052338661,0.0,-0.0010954642284082448,0.0,0.35,0.0,-0.3,0.0,7.062227056622512,0.0,5.133443255413069,auto,85.0,5,10.0,0.0,0.0,5.914621672041819,0.001095464228408245,0,0
1761250320.6637616,17.115628957748413,7.138057265489474,0.0,5.134280645194043,0.7252824022545606,0.0,-0.0004570998260066961,0.0,0.02751483542285306,0.0,0.35,0.0,-0.3,0.0,7.138057265489474,0.0,5.134280645194043,auto,85.0,5,10.0,0.0,0.0,5.8780569884300835,0.02751483542285306,0,0
1761250320.7659788,17.217846155166626,7.211837525011155,0.0,5.134126107610715,0.707295201481893,0.0,-0.00972195401037154,0.0,0.030556681434691323,0.0,0.35,0.0,-0.3,0.0,7.211837525011155,0.0,5.134126107610715,auto,85.0,5,10.0,0.0,0.0,5.842354052587525,0.030556681434691323,0,0
1761250320.8679323,17.319799661636353,7.283601463878196,0.0,5.13316595644386,0.6899062031019049,0.0,-0.01598129642068348,0.0,0.031245304444954658,0.0,0.35,0.0,-0.3,0.0,7.283601463878196,0.0,5.13316595644386,auto,85.0,5,10.0,0.0,0.0,5.807599654197841,0.031245304444954658,0,0
1761250320.9723978,17.424265146255493,7.355393591798647,0.0,5.131987386619229,0.6716792616374659,0.0,-0.0064264875588208505,0.0,0.03642798532054668,0.0,0.35,0.0,-0.3,0.0,7.355393591798647,0.0,5.131987386619229,auto,85.0,5,10.0,0.0,0.0,5.773321192408969,0.03642798532054668,0,0
1761250321.0760877,17.527955055236816,7.424629481496834,0.0,5.132117352601664,0.6526771575307861,0.0,0.016815901967056224,0.0,0.03344999903770732,0.0,0.35,0.0,-0.3,0.0,7.424629481496834,0.0,5.132117352601664,auto,85.0,5,10.0,0.0,0.0,5.742052057274506,0.03344999903770732,0,0
1761250321.1804118,17.63227915763855,7.492556251838184,0.0,5.131329356195481,0.638314468759596,0.0,-0.00850283653835308,0.0,0.03694885002930428,0.0,0.35,0.0,-0.3,0.0,7.492556251838184,0.0,5.131329356195481,auto,85.0,5,10.0,0.0,0.0,5.711200846752749,0.03694885002930428,0,0
1761250321.2845793,17.736446619033813,7.558607554625277,0.0,5.130797818765492,0.6204187576918571,0.0,-0.0004835133552981898,0.0,0.0285400131579086,0.0,0.35,0.0,-0.3,0.0,7.558607554625277,0.0,5.130797818765492,auto,85.0,5,10.0,0.0,0.0,5.682031619885752,0.0285400131579086,0,0
1761250321.388733,17.84060025215149,7.622931872665148,0.0,5.129753130296564,0.6026016596957352,0.0,0.0010608903397977178,0.0,0.02998346019749499,0.0,0.35,0.0,-0.3,0.0,7.622931872665148,0.0,5.129753130296564,auto,85.0,5,10.0,0.0,0.0,5.653743897611442,0.029983460197494986,0,0
1761250321.494519,17.946386337280273,7.686485192488215,0.0,5.130018907589504,0.587696247212958,0.0,0.015799510574984875,0.0,0.01821178148910147,0.0,0.35,0.0,-0.20593990873961715,0.0,7.686485192488215,0.0,5.130018907589504,auto,85.0,5,10.0,0.0,0.0,5.627561173083958,0.01821178148910147,0,0
1761250321.597895,18.04976224899292,7.747021955118537,0.0,5.1303311548816355,0.571903076315729,0.0,-0.010659223159466531,0.0,0.014979260799045806,0.0,0.3822469328596671,0.0,-0.2924200450792882,0.0,7.747021955118537,0.0,5.1303311548816355,auto,85.0,5,10.0,0.0,0.0,5.603231909306185,0.014979260799045806,0,0
1761250321.7012303,18.15309762954712,7.806024715706601,0.0,5.129891032863342,0.5562127364322459,0.0,0.013035169731603097,0.0,0.019138676973645512,0.0,0.35,0.0,-0.3,0.0,7.806024715706601,0.0,5.129891032863342,auto,85.0,5,10.0,0.0,0.0,5.579364619483299,0.019138676973645512,0,0
1761250321.8045738,18.256441116333008,7.86360784007045,0.0,5.129476705326375,0.5441801518619321,0.0,-0.005863962001169426,0.0,0.03334210692773371,0.0,0.44495751621572854,0.0,-0.3,0.0,7.86360784007045,0.0,5.129476705326375,auto,85.0,5,10.0,0.0,0.0,5.556590927132784,0.03334210692773371,0,0
1761250321.9095736,18.361440896987915,7.920644109684596,0.0,5.127662358773973,0.5312956696220036,0.0,-0.02695577235874344,0.0,0.038485531948596705,0.0,0.35,0.0,-0.3,0.0,7.920644109684596,0.0,5.127662358773973,auto,85.0,5,10.0,0.0,0.0,5.533230718502241,0.038485531948596705,0,0
1761250322.0106592,18.462526559829712,7.9741446282560595,0.0,5.126437900446836,0.5177536215006483,0.0,0.011198444174673772,0.0,0.07511376703365552,0.0,0.35,0.0,-0.2039379329327078,0.0,7.9741446282560595,0.0,5.126437900446836,auto,85.0,5,10.0,0.0,0.0,5.51220967801131,0.07511376703365552,0,0
1761250322.114228,18.56609535217285,8.026263265423776,0.0,5.126257562754402,0.5059447287271054,0.0,-0.0019718794077267995,0.0,0.02258128088649346,0.0,0.35,0.0,0.14383901347514155,0.0,8.026263265423776,0.0,5.126257562754402,auto,85.0,5,10.0,0.0,0.0,5.493100517659614,0.02258128088649346,0,0
1761250322.2183013,18.67016863822937,8.077853492935086,0.0,5.126211161654947,0.49604623890815097,0.0,-0.01941028458623913,0.0,0.026537731616372476,0.0,0.35,0.0,0.1352244595775201,0.0,8.077853492935086,0.0,5.126211161654947,auto,85.0,5,10.0,0.0,0.0,5.47473178050739,0.026537731616372476,0,0
1761250322.3221557,18.774023056030273,8.128103104860143,0.0,5.125194287248569,0.48374589176062877,0.0,-0.03317865146227586,0.0,0.024030054675744057,0.0,0.35,0.0,0.12493203862526674,0.0,8.128103104860143,0.0,5.125194287248569,auto,85.0,5,10.0,0.0,0.0,5.456337092599724,0.024030054675744053,0,0
1761250322.4281983,18.88006567955017,8.178113612260095,0.0,5.124595083486424,0.4731864995119148,0.0,-0.029644363786244257,0.0,0.02161079580956556,0.0,0.35,0.0,0.20230732225096903,0.0,8.178113612260095,0.0,5.124595083486424,auto,85.0,5,10.0,0.0,0.0,5.438818325659094,0.02161079580956556,0,0
1761250322.533259,18.98512625694275,8.226509612017535,0.0,5.12378074840138,0.4619691482437542,0.0,-0.010754264992201354,0.0,0.016432011413359985,0.0,0.35,0.0,0.26813912632013925,0.0,8.226509612017535,0.0,5.12378074840138,auto,85.0,5,10.0,0.0,0.0,5.422028892762818,0.016432011413359985,0,0
1761250322.6389537,19.090821027755737,8.274083197452477,0.0,5.124066496254675,0.4500054030414746,0.0,-0.004823034895180071,0.0,0.02413497044957422,0.0,0.35,0.0,0.15231427755233445,0.0,8.274083197452477,0.0,5.124066496254675,auto,85.0,5,10.0,0.0,0.0,5.406925768618941,0.024134970449574224,0,0
1761250322.7431734,19.195040702819824,8.319720125629743,0.0,5.125048281921413,0.4394960446877807,0.0,0.0032239456944146115,0.0,0.02082613055642657,0.0,0.35,0.0,0.17801311596162323,0.0,8.319720125629743,0.0,5.125048281921413,auto,85.0,5,10.0,0.0,0.0,5.393464595993873,0.02082613055642657,0,0
1761250322.8483863,19.30025362968445,8.364660599820724,0.0,5.124907827191164,0.42769063256859535,0.0,-0.01994736168666201,0.0,0.020099048102169673,0.0,0.35,0.0,0.1786675076960626,0.0,8.364660599820724,0.0,5.124907827191164,auto,85.0,5,10.0,0.0,0.0,5.379499529787504,0.020099048102169673,0,0
1761250322.9536057,19.405472993850708,8.408299867808688,0.0,5.123486399122256,0.41670467524442506,0.0,-0.017383489114201338,0.0,0.009446705719367211,0.0,0.35,0.0,0.2616404253507954,0.0,8.408299867808688,0.0,5.123486399122256,auto,85.0,5,10.0,0.0,0.0,5.365037016909444,0.009446705719367211,0,0
1761250323.0596743,19.511541604995728,8.451160791161668,0.0,5.122531468690997,0.4053552602194332,0.0,-0.01776713766223942,0.0,0.002496540305803017,0.0,0.35,0.0,0.3,0.0,8.451160791161668,0.0,5.122531468690997,auto,85.0,5,10.0,0.0,0.0,5.351563467115427,0.002496540305803017,0,0
1761250323.1642408,19.616108179092407,8.492232707542913,0.0,5.120463140949765,0.3937909436514301,0.0,-0.018792036804889133,0.0,-0.009142962125323173,0.0,0.43121066311409156,0.0,0.3,0.0,8.492232707542913,0.0,5.120463140949765,auto,85.0,5,10.0,0.0,0.0,5.337837107483565,0.009142962125323173,0,0
1761250323.270487,19.722354412078857,8.532930850488317,0.0,5.118732456491807,0.3841532877871228,0.0,-0.016740520505048352,0.0,-0.00476655072012782,0.0,0.35,0.0,0.3,0.0,8.532930850488317,0.0,5.118732456491807,auto,85.0,5,10.0,0.0,0.0,5.3248205463275085,0.00476655072012782,0,0
1761250323.3759842,19.82785153388977,8.572302561045849,0.0,5.11644498127838,0.37687747762863827,0.0,0.005249266350193687,0.0,-0.015541471752452019,0.0,0.35,0.0,0.3,0.0,8.572302561045849,0.0,5.11644498127838,auto,85.0,5,10.0,0.0,0.0,5.3119044817885195,0.015541471752452019,0,0
1761250323.4832175,19.9350848197937,8.611218185135163,0.0,5.116099072579582,0.36444132348836183,0.0,-0.0019359910793028505,0.0,-0.018517626534372826,0.0,0.35,0.0,0.3,0.0,8.611218185135163,0.0,5.116099072579582,auto,85.0,5,10.0,0.0,0.0,5.301243688961009,0.018517626534372826,0,0
1761250323.5868483,20.038715600967407,8.648168392375332,0.0,5.11461436001184,0.3543713845295314,0.0,-0.007637203567355432,0.0,-0.018617872906788943,0.0,0.4911351551198589,0.0,0.3,0.0,8.648168392375332,0.0,5.11461436001184,auto,85.0,5,10.0,0.0,0.0,5.290248457966074,0.018617872906788943,0,0
1761250323.6910906,20.14295792579651,8.684124802131088,0.0,5.113490828316691,0.34470194274678534,0.0,-0.006314271523189599,0.0,-0.023430026812709382,0.0,0.35,0.0,0.3,0.0,8.684124802131088,0.0,5.113490828316691,auto,85.0,5,10.0,0.0,0.0,5.2800867405418135,0.023430026812709382,0,0
1761250323.796074,20.247941255569458,8.719086021582603,0.0,5.111780284580197,0.33416512428935097,0.0,-0.020978985326914945,0.0,-0.02250462904287374,0.0,0.35,0.0,0.3,0.0,8.719086021582603,0.0,5.111780284580197,auto,85.0,5,10.0,0.0,0.0,5.269823364964702,0.02250462904287374,0,0
1761250323.9002573,20.35212469100952,8.753444750619524,0.0,5.109635950235337,0.3260375852367886,0.0,-0.01799232868919369,0.0,-0.020327742393264143,0.0,0.35,0.0,0.3,0.0,8.753444750619524,0.0,5.109635950235337,auto,85.0,5,10.0,0.0,0.0,5.259494227936313,0.020327742393264143,0,0
1761250324.0051596,20.457026958465576,8.786728261950595,0.0,5.107335687062598,0.31734402528506295,0.0,-0.013930783887300409,0.0,-0.02303845671587513,0.0,0.35,0.0,0.3,0.0,8.786728261950595,0.0,5.107335687062598,auto,85.0,5,10.0,0.0,0.0,5.249467223508744,0.023038456715875132,0,0
1761250324.1087525,20.560619831085205,8.818781610250019,0.0,5.104956826692236,0.3085092192101055,0.0,-0.02739985334897149,0.0,-0.022929084998414683,0.0,0.35,0.0,0.3,0.0,8.818781610250019,0.0,5.104956826692236,auto,85.0,5,10.0,0.0,0.0,5.239834070528875,0.022929084998414683,0,0
1761250324.2116203,20.663487672805786,8.849746162334986,0.0,5.102435560401546,0.3003714649947405,0.0,-0.0335478442271976,0.0,-0.025653139728484133,0.0,0.35,0.0,0.3,0.0,8.849746162334986,0.0,5.102435560401546,auto,85.0,5,10.0,0.0,0.0,5.230481100158315,0.025653139728484133,0,0
1761250324.3187482,20.770615577697754,8.881204954719962,0.0,5.099198218655347,0.2930052161158487,0.0,-0.033128597092232655,0.0,-0.016623339382680666,0.0,0.35,0.0,0.3,0.0,8.881204954719962,0.0,5.099198218655347,auto,85.0,5,10.0,0.0,0.0,5.2204908606836025,0.016623339382680666,0,0
1761250324.4239526,20.87581992149353,8.911078608654195,0.0,5.096240239322469,0.2847637621669257,0.0,-0.026853431537718492,0.0,-0.02355531268705617,0.0,0.35,0.0,0.3,0.0,8.911078608654195,0.0,5.096240239322469,auto,85.0,5,10.0,0.0,0.0,5.211277614311103,0.02355531268705617,0,0
1761250324.528813,20.980680227279663,8.940072623711314,0.0,5.094967114070352,0.27763953493055904,0.0,-0.002506745429750705,0.0,-0.02539541137641233,0.0,0.35,0.0,0.3,0.0,8.940072623711314,0.0,5.094967114070352,auto,85.0,5,10.0,0.0,0.0,5.204049955223776,0.02539541137641233,0,0
1761250324.635821,21.087688446044922,8.968731834153598,0.0,5.093166850053125,0.264866732207848,0.0,-0.0084889200967007,0.0,-0.030245027006680154,0.0,0.49690898706553643,0.0,0.2903574255278752,0.0,8.968731834153598,0.0,5.093166850053125,auto,85.0,5,10.0,0.0,0.0,5.196524087538542,0.030245027006680154,0,0
1761250324.7400746,21.19194197654724,8.995781526691317,0.0,5.091267703991015,0.258623284900896,0.0,0.006467220308058554,0.0,-0.03270933964571831,0.0,0.35,0.0,0.2869717427235536,0.0,8.995781526691317,0.0,5.091267703991015,auto,85.0,5,10.0,0.0,0.0,5.189360420691202,0.03270933964571831,0,0
1761250324.843904,21.29577136039734,9.022137287595381,0.0,5.089667683312856,0.25016636241707024,0.0,-0.032269037299394794,0.0,-0.03208655215152442,0.0,0.3587748931025226,0.0,0.23515534599915022,0.0,9.022137287595381,0.0,5.089667683312856,auto,85.0,5,10.0,0.0,0.0,5.182753381251183,0.03208655215152442,0,0
1761250324.946978,21.398845434188843,9.047599164313265,0.0,5.08934890926818,0.244031508347711,0.0,-0.0024933664062348967,0.0,-0.034268273402044545,0.0,0.49834282773299116,0.0,0.18315497452693388,0.0,9.047599164313265,0.0,5.08934890926818,auto,85.0,5,10.0,0.0,0.0,5.177696367312977,0.034268273402044545,0,0
1761250325.0512261,21.503093481063843,9.072739526292967,0.0,5.088651807313842,0.2375995534085725,0.0,0.024997381182388395,0.0,-0.03042834489103836,0.0,0.648704919565344,0.0,0.16242099024436046,0.0,9.072739526292967,0.0,5.088651807313842,auto,85.0,5,10.0,0.0,0.0,5.172445186000314,0.03042834489103836,0,0
1761250325.1551073,21.606974601745605,9.097113390517764,0.0,5.089636398634333,0.23153270780080906,0.0,0.013669740094094633,0.0,-0.03137664205261787,0.0,0.5313291639388156,0.0,0.20928767074769616,0.0,9.097113390517764,0.0,5.089636398634333,auto,85.0,5,10.0,0.0,0.0,5.169100782523571,0.03137664205261787,0,0
1761250325.2575696,21.709436893463135,9.120540856962956,0.0,5.08954529458767,0.22659483773603506,0.0,0.028076899006115544,0.0,-0.031835291754944185,0.0,0.6411691885864342,0.0,0.2007185890584825,0.0,9.120540856962956,0.0,5.08954529458767,auto,85.0,5,10.0,0.0,0.0,5.164970444245634,0.031835291754944185,0,0
1761250325.360867,21.812734365463257,9.14364801783393,0.0,5.09036703862149,0.2215412892660564,0.0,0.0324037963315207,0.0,-0.03371849255580261,0.0,0.6399591505094867,0.0,0.17329511482401788,0.0,9.14364801783393,0.0,5.09036703862149,auto,85.0,5,10.0,0.0,0.0,5.161896483390952,0.03371849255580261,0,0
1761250325.4644005,21.91626787185669,9.166335402260046,0.0,5.091582844616085,0.21449614869446534,0.0,0.02577967388630134,0.0,-0.029626425468933605,0.0,0.6039635290827023,0.0,0.12783312167645083,0.0,9.166335402260046,0.0,5.091582844616085,auto,85.0,5,10.0,0.0,0.0,5.159381021509629,0.029626425468933605,0,0
1761250325.5681658,22.02003312110901,9.188431429117976,0.0,5.092577523414949,0.2091414274061444,0.0,0.02428481151743333,0.0,-0.02862101032066317,0.0,0.5992039082858527,0.0,0.14659168000011166,0.0,9.188431429117976,0.0,5.092577523414949,auto,85.0,5,10.0,0.0,0.0,5.156839087777961,0.028621010320663172,0,0
1761250325.6738117,22.12567901611328,9.210251899913569,0.0,5.093157276584079,0.20256583085622962,0.0,-0.0019815115941977466,0.0,-0.032689012150571274,0.0,0.45148960791575954,0.0,0.2037122417067672,0.0,9.210251899913569,0.0,5.093157276584079,auto,85.0,5,10.0,0.0,0.0,5.154023002045245,0.032689012150571274,0,0
1761250325.78611,22.237977266311646,9.232560313375938,0.0,5.092033199886611,0.19912591677985314,0.0,-0.018309347665385396,0.0,-0.03737691170848834,0.0,0.35,0.0,0.10491259435630018,0.0,9.232560313375938,0.0,5.092033199886611,auto,85.0,5,10.0,0.0,0.0,5.14954034660892,0.03737691170848834,0,0
1761250325.8875184,22.339385747909546,9.252796912115405,0.0,5.092959240691447,0.18946756841976015,0.0,-0.013254281139257747,0.0,-0.029681256452717634,0.0,0.3951618655439007,0.0,0.05186436525129881,0.0,9.252796912115405,0.0,5.092959240691447,auto,85.0,5,10.0,0.0,0.0,5.1474796048055085,0.029681256452717634,0,0
1761250325.9907985,22.442665815353394,9.272628427871688,0.0,5.09245997009138,0.18598943554445727,0.0,-0.029644008508745587,0.0,-0.025639252713813086,0.0,0.35,0.0,0.019578827021480345,0.0,9.272628427871688,0.0,5.09245997009138,auto,85.0,5,10.0,0.0,0.0,5.1441440445348645,0.02563925271381309,0,0
1761250326.0909963,22.542863607406616,9.291284233004179,0.0,5.093655154428074,0.17198327838792907,0.0,0.005762382575266414,0.0,-0.0037116302351042664,0.0,0.35,0.0,-0.26738466067790273,0.0,9.291284233004179,0.0,5.093655154428074,auto,85.0,5,10.0,0.0,0.0,5.142723098769771,0.0037116302351042664,0,0
1761250326.195425,22.647292375564575,9.309798238073695,0.0,5.093059681696269,0.16914674091169996,0.0,-0.021166635813430083,0.0,0.005140479590360871,0.0,0.35,0.0,-0.27761438603052413,0.0,9.309798238073695,0.0,5.093059681696269,auto,85.0,5,10.0,0.0,0.0,5.139614323418273,0.005140479590360871,0,0
1761250326.2984035,22.75027084350586,9.327720338183173,0.0,5.0917781704659015,0.1655477172813832,0.0,-0.019588368953835148,0.0,0.012212681573674718,0.0,0.40346775750288566,0.0,-0.3,0.0,9.327720338183173,0.0,5.0917781704659015,auto,85.0,5,10.0,0.0,0.0,5.135967764786461,0.012212681573674718,0,0
1761250326.4012578,22.85312509536743,9.345174164498156,0.0,5.0905866872510614,0.16162054794480238,0.0,-0.020292092111024278,0.0,0.019394572547723293,0.0,0.35,0.0,-0.3,0.0,9.345174164498156,0.0,5.0905866872510614,auto,85.0,5,10.0,0.0,0.0,5.132530535248517,0.019394572547723293,0,0
1761250326.506381,22.958248376846313,9.362642560247293,0.0,5.088343251052086,0.158343239942462,0.0,-0.018204098496777316,0.0,0.02524592868557523,0.0,0.35,0.0,-0.3,0.0,9.362642560247293,0.0,5.088343251052086,auto,85.0,5,10.0,0.0,0.0,5.128105063913515,0.02524592868557523,0,0
1761250326.6097229,23.06159019470215,9.379378522261886,0.0,5.085659694947026,0.15520850877926184,0.0,-0.03754270770828975,0.0,0.029765749543455025,0.0,0.35,0.0,-0.3,0.0,9.379378522261886,0.0,5.085659694947026,auto,85.0,5,10.0,0.0,0.0,5.123388092994568,0.029765749543455025,0,0
1761250326.7145598,23.16642713546753,9.395884758884137,0.0,5.083503311288138,0.1500497368821226,0.0,-0.009916857834008627,0.0,0.030640432472769336,0.0,0.35,0.0,-0.3,0.0,9.395884758884137,0.0,5.083503311288138,auto,85.0,5,10.0,0.0,0.0,5.1192734973261524,0.030640432472769336,0,0
1761250326.8184307,23.27029800415039,9.411790107401142,0.0,5.0809012370789475,0.146775292562077,0.0,-0.01829849508312619,0.0,0.03458486704087497,0.0,0.47410243802535884,0.0,-0.3,0.0,9.411790107401142,0.0,5.0809012370789475,auto,85.0,5,10.0,0.0,0.0,5.114836093043602,0.03458486704087497,0,0
1761250326.9231503,23.375017642974854,9.427383001534162,0.0,5.078258861834626,0.14259484876692183,0.0,-0.015134719440696429,0.0,0.03333551038970232,0.0,0.49690680630084166,0.0,-0.3,0.0,9.427383001534162,0.0,5.078258861834626,auto,85.0,5,10.0,0.0,0.0,5.110440616496188,0.03333551038970232,0,0
1761250327.0291128,23.480980157852173,9.442719402177584,0.0,5.075541399662305,0.13995710554114213,0.0,-0.01919048710727034,0.0,0.03363764943163387,0.0,0.35,0.0,-0.3,0.0,9.442719402177584,0.0,5.075541399662305,auto,85.0,5,10.0,0.0,0.0,5.10604369002022,0.03363764943163387,0,0
1761250327.1342156,23.586082935333252,9.457786206607834,0.0,5.072504011377512,0.13797619698890004,0.0,-0.04136095750601222,0.0,0.03601059861439831,0.0,0.3533257330340384,0.0,-0.3,0.0,9.457786206607834,0.0,5.072504011377512,auto,85.0,5,10.0,0.0,0.0,5.101401056884831,0.03601059861439831,0,0
1761250327.2396462,23.691513538360596,9.472446672421217,0.0,5.070909691216751,0.1327095679136758,0.0,-0.0074654808431954475,0.0,0.03308859064925966,0.0,0.35,0.0,-0.3,0.0,9.472446672421217,0.0,5.070909691216751,auto,85.0,5,10.0,0.0,0.0,5.098277906304776,0.03308859064925966,0,0
1761250327.3477545,23.79962182044983,9.487119586090623,0.0,5.068524928428461,0.13028538896489933,0.0,-0.03418166768159821,0.0,0.035713384745760204,0.0,0.35,0.0,-0.3,0.0,9.487119586090623,0.0,5.068524928428461,auto,85.0,5,10.0,0.0,0.0,5.094407842828506,0.035713384745760204,0,0
1761250327.452173,23.904040336608887,9.500870722763464,0.0,5.066897294500042,0.12557214654465912,0.0,-0.0037439217811302255,0.0,0.03228671871844598,0.0,0.35,0.0,-0.3,0.0,9.500870722763464,0.0,5.066897294500042,auto,85.0,5,10.0,0.0,0.0,5.091422024189953,0.03228671871844598,0,0
1761250327.5610943,24.012961626052856,9.512062011989572,0.004789424502782724,5.118693112821924,0.023167356158309123,0.1660307804443147,1.04346189846663,0.19288748471102035,0.1490091547925131,0.012827326035940903,1.0,0.3,0.3,-0.047958099552871794,9.512062011989572,0.004789424502782724,5.118693112821924,auto,85.0,20,0.0,10.0,0.0,14.716812744331468,0.24407754969139533,1,0
1761250327.6670043,24.118871688842773,9.489313044037589,0.05218734305632371,5.2796601905696505,-0.5407787124348908,0.8160059414325554,1.9807408465629175,0.4089868967258851,0.3878296053219405,0.03243134308207118,1.0,0.0101579173989374,0.10828691552726888,-0.10494933026353215,9.489313044037589,0.05218734305632371,5.2796601905696505,auto,85.0,20,0.0,10.0,0.0,14.726875107546634,0.5645652101146058,1,0
1761250327.771516,24.22338342666626,9.396232295580383,0.17094832748508776,5.516077636578952,-1.1905303927348794,1.3733830939078941,2.5268928170978557,0.21172033350179278,0.28531534208877496,0.03924750880382023,1.0,-0.3,-0.3,-0.09988192905172609,9.396232295580383,0.17094832748508776,5.516077636578952,auto,85.0,20,0.0,10.0,0.0,14.674009357576491,0.3574502916443781,1,0
1761250327.878063,24.329930305480957,9.252297387234107,0.33120406385119894,5.808909556486472,-1.4981984379125073,1.6699548063735004,3.005926442556152,0.2525958040269105,0.22319086695579682,0.03677706838287073,0.9456617375584015,-0.3,0.3,-0.07482974227788163,9.252297387234107,0.33120406385119894,5.808909556486472,auto,85.0,20,0.0,10.0,0.0,14.588833127846328,0.339074263345539,1,0
1761250327.9782362,24.430103540420532,9.087685995177873,0.5091312284788652,6.1254567155171475,-1.7581183253600288,1.8340690149115018,3.372993716521677,0.0339550222791799,0.09028511385056459,0.028736524169363842,0.7030248580791132,0.04628128140901992,-0.3,-0.04614212463017395,9.087685995177873,0.5091312284788652,6.1254567155171475,auto,85.0,20,0.0,10.0,0.0,14.497718674290148,0.10064856254475493,1,0
1761250328.0840397,24.53590703010559,8.902463294397789,0.701181446345968,6.496800634197324,-1.7219563240779088,1.8148292392572745,3.6488999496252252,0.09808903309046149,0.01723489552820687,0.0203540182424418,0.35,0.3,0.3,-0.025481088302759,8.902463294397789,0.701181446345968,6.496800634197324,auto,85.0,20,0.0,10.0,0.0,14.419788406297338,0.10165031281360382,1,0
1761250328.1896756,24.64154291152954,8.715570990920996,0.8988495108812516,6.899227902572863,-1.8288818279188648,1.8913804589575658,3.9485272796415707,-0.0010513147939331495,0.06307022790307969,0.014232012552471845,0.35,0.3,-0.3,-0.015663957609663902,8.715570990920996,0.8988495108812516,6.899227902572863,auto,85.0,20,0.0,10.0,0.0,14.366330901625856,0.06466458916467398,1,0
1761250328.295478,24.747345447540283,8.522118465729196,1.1002856211417777,7.328069519558438,-1.8464515204974659,1.9359380328156206,4.169731393222337,0.043377104195856164,0.08375177860065595,0.013337163567446802,0.35,-0.3,-0.3,-0.023409033444059348,8.522118465729196,1.1002856211417777,7.328069519558438,auto,85.0,20,0.0,10.0,0.0,14.33638804066979,0.09525656680363977,1,0
1761250328.400394,24.852261304855347,8.328589853671861,1.3023608037334373,7.77552464390493,-1.8352464105612996,1.9352980366686212,4.338340886074003,0.08407006844536329,0.06920549537955736,0.011464768096189615,0.35,-0.3,0.23554217532472066,-0.019650739384390714,8.328589853671861,1.3023608037334373,7.77552464390493,auto,85.0,20,0.0,10.0,0.0,14.334333609452909,0.10949254726527012,1,0
