timestamp,simulation_time,position_x,position_y,position_z,velocity_x,velocity_y,velocity_z,attitude_roll,attitude_pitch,attitude_yaw,angular_velocity_x,angular_velocity_y,angular_velocity_z,acceleration_x,acceleration_y,acceleration_z,motor_speed_1,motor_speed_2,motor_speed_3,motor_speed_4,control_throttle,control_roll,control_pitch,control_yaw,estimated_position_x,estimated_position_y,estimated_position_z,estimated_velocity_x,estimated_velocity_y,estimated_velocity_z,estimated_attitude_roll,estimated_attitude_pitch,estimated_attitude_yaw,sensor_accel_x,sensor_accel_y,sensor_accel_z,sensor_gyro_x,sensor_gyro_y,sensor_gyro_z,sensor_gps_x,sensor_gps_y,sensor_gps_z,sensor_gps_vx,sensor_gps_vy,sensor_gps_vz,sensor_baro_altitude,sensor_mag_x,sensor_mag_y,sensor_mag_z,flight_mode,battery_level,gps_fix,waypoint_index,mission_complete,setpoint_altitude,setpoint_position_x,setpoint_position_y,setpoint_position_z,position_error,attitude_error
1760959097.8089604,8.540738821029663,1.0862506079072126e-05,-0.0003906336764635458,0.0,0.00043618842529838815,-0.014571666279580463,-46.74071030464654,-0.019149256165852144,-8.942940017915402e-05,0.02935731055363553,,,,,,,,,,,0.65,0.0002105042852220342,0.0,-0.05179471129306577,-0.9156059240861165,-0.7311321371646737,-2.169569777766533,-0.16600211169879192,0.1686200580194802,-46.795962554328796,0.03527743259146843,0.03086598047148992,0.05204697351897515,,,,,,,,,,,,,,,,,stabilize,85.0,True,0,False,10.0,0.0,0.0,-10.0,7.91760859574934,0.07004351114269541
1760959097.9180224,8.649800777435303,0.00017989172602244795,-0.005004444460015223,0.0,0.0031799686510673364,-0.07857908496408086,-46.73989453005932,-0.04457712871823098,-0.00044123912142201237,0.038812268796698295,,,,,,,,,,,0.65,0.00017106990533678672,0.0,-0.09622325973879382,0.32257805549687396,-1.357975677733422,-2.3934741900788796,-0.11475545001670913,0.07779665105027156,-46.77819609414122,0.011910160205293499,0.02932650089880242,0.09946782284129901,,,,,,,,,,,,,,,,,stabilize,85.0,True,0,False,10.0,0.0,0.0,-10.0,7.733523740197597,0.10438267745115212
1760959098.0274699,8.75924825668335,0.0008428661938353055,-0.019400174281312993,0.0,0.009594530845116828,-0.19083756082309372,-46.7369226626389,-0.06968965849416299,-0.0010302062595476573,0.04844145502753024,,,,,,,,,,,0.65,0.0001388491458760778,0.0,-0.001164968310717688,0.7788983887595567,-0.9228397894426204,-2.380385612322269,-0.07991233115773876,0.003192076018240511,-46.74515413065021,-0.017457152214159253,0.026821405620853434,-0.04132650841550703,,,,,,,,,,,,,,,,,stabilize,85.0,True,0,False,10.0,0.0,0.0,-10.0,7.714715768834016,0.05226873119488981
1760959098.1378841,8.869662523269653,0.0024721337765914353,-0.04853831982661518,0.0,0.020951100097765175,-0.34625395299810063,-46.731072315868666,-0.09426289744904062,-0.0018695927981294137,0.05747874761837385,,,,,,,,,,,0.65,0.00011252243950346791,0.0,-0.13679576724946477,2.4471731962462,-1.360539389767975,-2.5836557264092037,-0.03987667719504242,-0.15606249053721216,-46.706775549344606,-0.04441593706275272,0.024007620383220293,0.143199907464024,,,,,,,,,,,,,,,,,stabilize,85.0,True,0,False,10.0,0.0,0.0,-10.0,7.927287459652201,0.15183989857521724
1760959098.2474406,8.97921895980835,0.005546514667516993,-0.09558831715183896,0.0,0.0341064981519126,-0.4905549771088519,-46.72596683922186,-0.05477480318441077,-0.0025718073206181433,0.05994500145918232,,,,,,,,,,,0.65,-0.0005550100993870056,0.0,-0.10759467818658715,0.567617011673239,-1.3227841879147668,-2.1194436646387445,-0.021374464190631853,-0.3716323774343739,-46.686684384422975,-0.014297992564318861,0.023907538312014222,0.11480885381088586,,,,,,,,,,,,,,,,,stabilize,85.0,True,0,False,10.0,0.0,0.0,-10.0,8.010937225727124,0.11814006895579121
1760959098.3560755,9.087853908538818,0.00967016139799787,-0.1510166741689463,0.0,0.04074776252094363,-0.5094717818896138,-46.7271388715376,0.0031058194218714598,-0.003216025782560256,0.05630862555676213,,,,,,,,,,,0.65,-0.00045156433159794106,0.0,0.004545507522092998,0.5643757887698376,-1.3636769094281258,-2.1076489585415477,-0.03970204773379539,-0.3603493415808197,-46.68556507508788,0.04290290920638349,0.020731897634248823,0.02923631945030391,,,,,,,,,,,,,,,,,stabilize,85.0,True,0,False,10.0,0.0,0.0,-10.0,8.029155603540595,0.05590378853788333
1760959098.465388,9.197166442871094,0.014341947162170732,-0.20400068990298703,0.0,0.04592092301422632,-0.47276079276198313,-46.72913013047771,-0.02379285508586987,-0.004838643168264052,0.04825453628851237,,,,,,,,,,,0.65,0.0005766626599752868,0.0,0.00474976578551887,0.5585132507122706,-1.3980464501814274,-2.289699885348798,-0.06438131583673067,-0.2736130798168395,-46.68377753051076,0.02034398373045966,0.019937370519323348,0.04865627879646936,,,,,,,,,,,,,,,,,stabilize,85.0,True,0,False,10.0,0.0,0.0,-10.0,7.855902162455718,0.056380935461995886
1760959098.573885,9.305663347244263,0.0199760706836572,-0.2585110168895766,0.0,0.05903913198863345,-0.5525125379293798,-46.727355192865815,-0.08504269734082104,-0.006287163251699713,0.038963629373369675,,,,,,,,,,,0.65,0.0004689806870625882,0.0,0.0044867874624788424,0.5507534170223979,-1.4277686216850103,-2.2904364968202717,-0.07687625094179949,-0.2944609106507639,-46.680243848490754,-0.039004637316676194,0.014324150052792606,-0.04080838275485783,,,,,,,,,,,,,,,,,stabilize,85.0,True,0,False,10.0,0.0,0.0,-10.0,7.85997595244356,0.05823973823779899
1760959098.6836307,9.415409088134766,0.027328130679193777,-0.32711766552111426,0.0,0.07522092595854814,-0.6928383174423886,-46.72164736760712,-0.066717027327121,-0.007476086084954541,0.029797620550138754,,,,,,,,,,,0.65,-0.0004968054008901404,0.0,-0.12035280390241077,0.5421588626455219,-1.465398809406873,-2.2287019247000623,-0.08190928353920189,-0.3908077040764789,-46.665602511523126,-0.022600344252690058,0.01583067107303052,0.12924539210577346,,,,,,,,,,,,,,,,,stabilize,85.0,True,0,False,10.0,0.0,0.0,-10.0,7.926815481523251,0.13215807613436917
1760959098.7935245,9.52530288696289,0.036341869440760774,-0.40598569552684755,0.0,0.0892824433324226,-0.72937732655808,-46.722153792561826,-0.015029293223133167,-0.00915180201763334,0.018672568538118852,,,,,,,,,,,0.65,-0.0004042944456175015,0.0,0.004706065844054919,0.5325744325300702,-1.509111772635395,-2.7105891256061305,-0.09431233234295501,-0.388922063836101,-46.66242040691174,0.03171522789260561,0.014578315218977088,0.008831017301820177,,,,,,,,,,,,,,,,,stabilize,85.0,True,0,False,10.0,0.0,0.0,-10.0,7.463013115640563,0.03600513604319272
1760959098.9011078,9.632886171340942,0.04681442144006826,-0.48318753426593586,0.0,0.10428409370910846,-0.6969899219400735,-46.724402247688545,-0.018327967183835354,-0.011189380463912536,0.006469884134424385,,,,,,,,,,,0.65,0.0003273100988682903,0.0,0.003161491348160008,-1.3651409080196726,0.039965435804262484,-2.5664878125769577,0.037686909025371126,-0.4388660678002023,-46.6702115052578,0.03397887904076057,0.013594098629750511,-0.00872158121963491,,,,,,,,,,,,,,,,,stabilize,85.0,True,0,False,10.0,0.0,0.0,-10.0,7.557930297070403,0.03762219713669991
1760959099.012094,9.74387240409851,0.059315665883943075,-0.5609468663895723,0.0,0.1223346876470383,-0.7218285415380082,-46.72494688357834,-0.05019922291095392,-0.012959836428140461,-0.004133540403554908,,,,,,,,,,,0.65,0.00026623754059316063,0.0,0.05892293939361999,-1.361395570193363,-0.00574037520100611,-2.3938707403132824,0.029946595486602157,-0.3992075638820753,-46.66932624806046,0.002327947679962903,0.013538271750037658,-0.05873116699778175,,,,,,,,,,,,,,,,,stabilize,85.0,True,0,False,10.0,0.0,0.0,-10.0,7.727006740356318,0.06031628403093015
1760959099.119081,9.85085940361023,0.07345073523840398,-0.6425964681344409,0.0,0.14057746251147216,-0.806741474909469,-46.72230379808002,-0.080258910896665,-0.01436329747248522,-0.014831911293698716,,,,,,,,,,,0.65,0.00021633681397949722,0.0,0.002612067138555066,-0.47531704349397025,-0.2576478477166101,-2.0763850484421082,0.034379392930838755,-0.6635475577924637,-46.705031437804266,-0.03153297461276665,0.011708712815370207,-0.014847933582641804,,,,,,,,,,,,,,,,,stabilize,85.0,True,0,False,10.0,0.0,0.0,-10.0,7.942038945121122,0.0367679694217228
1760959099.2276912,9.959469556808472,0.08958251070118857,-0.7368459542153354,0.0,0.1575836910238156,-0.940970270212506,-46.715886713050274,-0.08931719409126171,-0.015475268111354632,-0.026280850100106615,,,,,,,,,,,0.65,-0.0005503351848619982,0.0,0.06923943223004603,0.013315313219546604,-0.14577696280280192,-2.0902817897875705,0.04830321534297913,-0.7933912222543479,-46.67675865369803,-0.04578563993510915,0.010821454077688114,-0.0697717125865736,,,,,,,,,,,,,,,,,stabilize,85.0,True,0,False,10.0,0.0,0.0,-10.0,7.911072644427952,0.08415177104426505
1760959099.3351562,10.066934585571289,0.10746247173183587,-0.8425217517546069,0.0,0.1758492497151359,-1.0073396582158962,-46.714363586426934,-0.037478735275074865,-0.016886110487291703,-0.03600449292087376,,,,,,,,,,,0.65,-0.000447978536764606,0.0,0.10916992588634206,0.01789466111075948,-0.23352054755132542,-2.1852072993302816,0.039126624404018345,-0.8217808968293691,-46.66893838612085,0.005920897879011832,0.004737084403882577,-0.11266783487523033,,,,,,,,,,,,,,,,,stabilize,85.0,True,0,False,10.0,0.0,0.0,-10.0,7.818301415235003,0.11292270814949207
1760959099.443233,10.175011396408081,0.1277854870131823,-0.9506527072469844,0.0,0.19938696356182237,-0.9691240345435883,-46.71685564656774,0.0010434266307303068,-0.018598974457931978,-0.04236598058656561,,,,,,,,,,,0.65,-0.07372127608743097,0.0,0.10206093821392151,0.022272839420813637,-0.31948905345074885,-2.278965209485736,0.0442300043151994,-0.7441472158975416,-46.66834714521642,0.051270544330525664,0.002505471672941666,-0.10652534913027015,,,,,,,,,,,,,,,,,stabilize,85.0,True,0,False,10.0,0.0,0.0,-10.0,7.7276741372150495,0.11824802793948935
1760959099.549781,10.281559467315674,0.15032983052918378,-1.0516344995695137,0.0,0.2234204943233858,-0.9371717213235363,-46.71879711561538,-0.029278218331740987,-0.0196918989752884,-0.04565234493343532,,,,,,,,,,,0.65,0.000292548465232873,0.0,-0.0007883617262756186,1.1617806857180177,-0.37741637429101643,-2.2452690438840315,0.11402875358454542,-0.7579190827602813,-46.670480599229094,0.019786614834475993,0.0030159139832956782,0.037021692961607816,,,,,,,,,,,,,,,,,stabilize,85.0,True,0,False,10.0,0.0,0.0,-10.0,7.850352201209427,0.04208576497470499
1760959099.6572816,10.389060020446777,0.17554642369314294,-1.1534638062872107,0.0,0.24533196261724516,-0.9672115958242109,-46.71880818848382,-0.05882819882662832,-0.020723547935957893,-0.04693675200444431,,,,,,,,,,,0.65,0.00023790237710143917,0.0,0.08583964514961359,1.1741791142617246,-0.45687273197294925,-2.284734401323986,0.11609964662826894,-0.7295174182120339,-46.6697129565695,-0.010278793893001917,-0.002260234194684959,-0.09103694718441746,,,,,,,,,,,,,,,,,stabilize,85.0,True,0,False,10.0,0.0,0.0,-10.0,7.817464585382043,0.09164326497439979
1760959099.7671022,10.498880624771118,0.2034795468762798,-1.2635151774021585,0.0,0.26543243915822134,-1.0556031035836144,-46.71521197524873,-0.08800023320685071,-0.021776700413457018,-0.045728281647615485,,,,,,,,,,,0.65,0.00019325254448646426,0.0,-0.0021890951703084018,0.8330021565735595,-1.653371176743023,-2.253167561663435,0.19390401557364642,-0.8559812768087356,-46.68335238576388,-0.03684741315383101,-0.008429887442758854,-0.03300267633994622,,,,,,,,,,,,,,,,,stabilize,85.0,True,0,False,10.0,0.0,0.0,-10.0,7.964982213954055,0.050179393220982145
1760959099.8746715,10.606449842453003,0.23318532051568774,-1.3844157992070834,0.0,0.2845257401683516,-1.18022880142214,-46.70859572245395,-0.08828917680844112,-0.02285508483214865,-0.042639543008901416,,,,,,,,,,,0.65,-0.0003007461555254366,0.0,-0.002022526897704981,0.9162984829525741,-0.870397699085097,-2.3523395129494764,0.1461455316147848,-1.0394316322791166,-46.683313073459566,-0.038463254515689396,-0.01072963008502096,0.007618741678099656,,,,,,,,,,,,,,,,,stabilize,85.0,True,0,False,10.0,0.0,0.0,-10.0,7.75138090856253,0.040652086471148076
1760959099.9817576,10.713536024093628,0.2648054938747554,-1.5153695055604792,0.0,0.3066042327100698,-1.2556577110771598,-46.705779953149836,-0.06200329475594916,-0.023853062899591916,-0.03929475834652131,,,,,,,,,,,0.65,-0.00024494856109476374,0.0,-0.0016923984988786948,1.302065712381431,-0.8776591830056759,-1.9922575309659465,0.19058661897129403,-1.0793739071790738,-46.6869979563671,-0.015166273002159123,-0.009755629523982881,-0.02109988208701035,,,,,,,,,,,,,,,,,stabilize,85.0,True,0,False,10.0,0.0,0.0,-10.0,8.160245107301934,0.02775595734740503
1760959100.0902643,10.82204270362854,0.29943265655957,-1.6531367052826846,0.0,0.3321196315062225,-1.2744415174419632,-46.706430209150255,-0.03625380672405681,-0.024744228847186432,-0.03286539059400436,,,,,,,,,,,0.65,-0.00019935786399572086,0.0,0.06558000500859631,1.3231900196749826,-0.9940966230823564,-2.2703124123537055,0.19923562180683052,-1.057125072227339,-46.68608126865966,0.012342300856399913,-0.0071320109045500965,-0.07156010120176548,,,,,,,,,,,,,,,,,stabilize,85.0,True,0,False,10.0,0.0,0.0,-10.0,7.904880146264358,0.0729660609734377
1760959100.1988459,10.93062424659729,0.3369900236362003,-1.7901176556329328,0.0,0.35991675788644933,-1.240208096437638,-46.708806570520714,-0.011209793569854697,-0.025406399334922163,-0.022629759315417344,,,,,,,,,,,0.65,-0.000162106945149046,0.0,0.059298608617237,1.3451858412588655,-1.1050545932571705,-2.242898275349622,0.20374266995121082,-0.9778416321756649,-46.687732652981595,0.03329917752191497,-0.006435406861894646,-0.064483937882545,,,,,,,,,,,,,,,,,stabilize,85.0,True,0,False,10.0,0.0,0.0,-10.0,7.950050173940788,0.07285895916051814
1760959100.3072286,11.03900694847107,0.37733273356599384,-1.9200003099877008,0.0,0.3880736917268379,-1.1670161631176643,-46.7114193528924,-0.008085021913233778,-0.025870753517598054,-0.012704714665465886,,,,,,,,,,,0.65,0.0003311927252356675,0.0,-0.056970668314567555,1.3678373625713742,-1.2041756889571773,-2.2103695065280475,0.21492913720065632,-0.8545729670526812,-46.684584969837566,0.04345879405141976,-0.009306822531968262,0.05678476511047803,,,,,,,,,,,,,,,,,stabilize,85.0,True,0,False,10.0,0.0,0.0,-10.0,7.999960085222288,0.0721095921129598
1760959100.415779,11.147557497024536,0.42116816500090437,-2.045127341318763,0.0,0.41558829450636803,-1.1378651601883312,-46.71312464817025,-0.03764121684646239,-0.026543233247564586,-0.002622637588920505,,,,,,,,,,,0.65,0.00026949461258371575,0.0,0.057399541413954994,0.7840781200879791,-0.6283217492951595,-2.1916961021724215,0.2969373544428592,-0.9854281028528324,-46.711940651875224,0.014438507468402903,-0.012512645903798927,-0.06251412707861856,,,,,,,,,,,,,,,,,stabilize,85.0,True,0,False,10.0,0.0,0.0,-10.0,7.872685468114891,0.06536859253365221
1760959100.5248752,11.256653547286987,0.46779842929322707,-2.1698518581170085,0.0,0.4435516080730242,-1.1688671614411386,-46.712555904236815,-0.06606538264865218,-0.02753994089220095,0.00926720786898605,,,,,,,,,,,0.65,0.00021908276249952159,0.0,-0.08132932490944508,0.7457465043510901,-2.2962579578864553,-2.3719878755315356,0.3701322926857336,-1.0392255896979867,-46.689060507157095,-0.01930756466769035,-0.02221406873263273,0.08251094133697626,,,,,,,,,,,,,,,,,stabilize,85.0,True,0,False,10.0,0.0,0.0,-10.0,8.000969155605253,0.0876030955124824
1760959100.6334076,11.365185976028442,0.5177944638807904,-2.3014998599969108,0.0,0.47390364069787916,-1.2543587001008452,-46.70810337653463,-0.09379077140282739,-0.028831768576117876,0.018251225893971733,,,,,,,,,,,0.65,0.0001778926106508348,0.0,-0.000964975218148666,-0.10406633991367939,-1.7789044494160176,-2.3829258842078427,0.41947423768628206,-1.1197540182887156,-46.71227163504211,-0.04814868378571549,-0.030456243554182715,-0.024627143046119203,,,,,,,,,,,,,,,,,stabilize,85.0,True,0,False,10.0,0.0,0.0,-10.0,7.822732829946706,0.062067501128549835
1760959100.742506,11.474284410476685,0.5710097495514315,-2.442641125894368,0.0,0.506332863098189,-1.3275955190717978,-46.7044343086019,-0.051874140948216726,-0.030369540006388862,0.0275165053551654,,,,,,,,,,,0.65,-0.00048610292549991165,0.0,-0.0005490696781443754,-0.03829854388991657,-1.2850898626065697,-2.5562522884029533,0.4404757461210132,-1.187060641038942,-46.71675524489266,-0.012466013381688673,-0.03247069490407837,-0.04722670165526726,,,,,,,,,,,,,,,,,stabilize,85.0,True,0,False,10.0,0.0,0.0,-10.0,7.5539594073137915,0.05865244126566093
1760959100.8506556,11.582433938980103,0.6277506834689861,-2.5858286534693073,0.0,0.5375647059284616,-1.2898336218070734,-46.70612640928776,0.0006069694814003412,-0.03151399091524443,0.03522847819634047,,,,,,,,,,,0.65,-0.00039546062810003285,0.0,0.0004205636808793792,0.011247128386614253,-1.4112054977576494,-2.5617913971133586,0.47168067144091896,-1.1164448249705607,-46.71426550127901,0.038943880817033746,-0.03800112411067531,-0.01733558029486805,,,,,,,,,,,,,,,,,stabilize,85.0,True,0,False,10.0,0.0,0.0,-10.0,7.570903161106686,0.057107211724318103
1760959100.9590118,11.690790176391602,0.6875807464798456,-2.720231685860468,0.0,0.566993517209822,-1.1983079792730214,-46.70860102447228,-0.010771164115856758,-0.032452178640763024,0.04130499672688651,,,,,,,,,,,0.65,0.00033372755950275654,0.0,-0.10826042329614022,0.5285962138088367,-1.127992700904814,-1.9589252963975414,0.44637980544340916,-1.0824119017650544,-46.76690396390091,0.0339121147690731,-0.040003536650164005,0.11349240528454546,,,,,,,,,,,,,,,,,stabilize,85.0,True,0,False,10.0,0.0,0.0,-10.0,8.136993540581368,0.1250233599368667
1760959101.0689118,11.800690174102783,0.7516504358607023,-2.849821430781898,0.0,0.5994811471072496,-1.1715881572717657,-46.71004168815901,-0.04280713015092424,-0.033527764218186165,0.04412357596232967,,,,,,,,,,,0.65,0.0002715153907695107,0.0,0.08118554104859677,0.5794392660163031,-1.2416496803934154,-2.246256982451883,0.4781443822955794,-0.99860757167862,-46.76486378108428,0.0033423157418677146,-0.03316204050893279,-0.08236891150567964,,,,,,,,,,,,,,,,,stabilize,85.0,True,0,False,10.0,0.0,0.0,-10.0,7.873879258281699,0.08885679258146177
1760959101.1793554,11.911133766174316,0.8198011126914616,-2.9808251871553306,0.0,0.6351210353198411,-1.2113038311515218,-46.70843201415377,-0.07397391575745717,-0.034657169101560255,0.04480771685591098,,,,,,,,,,,0.65,0.0002206835194400759,0.0,-0.0828602449609984,0.638879631723118,-2.1130120050108565,-2.3269964160409944,0.5391993158719248,-1.0375659423964245,-46.80179155906395,-0.03217959967649108,-0.0404377545347266,0.08871714866086935,,,,,,,,,,,,,,,,,stabilize,85.0,True,0,False,10.0,0.0,0.0,-10.0,7.984232644193079,0.10267166645995779
1760959101.2877402,12.019518613815308,0.8906417474876577,-3.116844753035188,0.0,0.672126966071135,-1.3035498603598248,-46.703133274710886,-0.08673900170332652,-0.035479787504424674,0.04157543075703801,,,,,,,,,,,0.65,-0.0002874244404728837,0.0,-0.134732562145719,0.7000202660746997,-2.227187223436082,-2.2745197914479265,0.5895573605303329,-1.0762816209546302,-46.79167781271123,-0.046053429859250275,-0.04144751756845474,0.14421351699995089,,,,,,,,,,,,,,,,,stabilize,85.0,True,0,False,10.0,0.0,0.0,-10.0,8.070528839789993,0.1569597196731804
1760959101.397114,12.128892421722412,0.9660561164731442,-3.2633139438424674,0.0,0.7061083540303273,-1.3651499249547205,-46.70013023516359,-0.06099372733358557,-0.0358422938797089,0.03306164184004063,,,,,,,,,,,0.65,-0.00023413827197522975,0.0,-0.06813346618664183,1.1239000585047376,-2.781594803138148,-2.291809528430358,0.6830189265915939,-1.1616476770101103,-46.752600263064984,-0.020970681871489004,-0.038993978055322676,0.07630953667704556,,,,,,,,,,,,,,,,,stabilize,85.0,True,0,False,10.0,0.0,0.0,-10.0,8.271434055612673,0.08822383584156576
1760959101.5086236,12.240401983261108,1.0457814873645601,-3.415021663223644,0.0,0.7362695589400826,-1.3717840298928807,-46.70037580107668,-0.035871731960240794,-0.03650140482369041,0.019109710865894296,,,,,,,,,,,0.65,-0.0001905995927125688,0.0,0.005797015827265475,1.201234398842713,-2.9085040282068517,-2.6710398463158946,0.7175751264442702,-1.1263538323180338,-46.750243003619815,0.0029465816509079883,-0.04420687578860643,-0.047597372496398636,,,,,,,,,,,,,,,,,stabilize,85.0,True,0,False,10.0,0.0,0.0,-10.0,7.975964938322376,0.06502645676165718
1760959101.6152227,12.347001075744629,1.1260933207055805,-3.560111836828702,0.0,0.7633237147766616,-1.3301676530769622,-46.70213616047114,-0.012226622745317004,-0.03750382762210899,0.0037851394686181394,,,,,,,,,,,0.65,-0.00015502532183924987,0.0,0.05902814599565766,1.2797830042234364,-3.025226718182214,-2.1325741640905767,0.7493351945522406,-1.0450839742704616,-46.74939205592074,0.03107565508645464,-0.04181752896882659,-0.05633550631101689,,,,,,,,,,,,,,,,,stabilize,85.0,True,0,False,10.0,0.0,0.0,-10.0,8.52562200181534,0.07673389954530897
1760959101.7223966,12.454174995422363,1.2097469810578398,-3.6991484351348514,0.0,0.7906168844816486,-1.2468655006472895,-46.70431659441187,0.0031042217179943,-0.038909972730399936,-0.011091210871181208,,,,,,,,,,,0.65,-0.07337904292421996,0.0,-0.06452112981598435,0.921771884432959,-3.0544063604422673,-2.383231025920364,0.7191369836426859,-1.0310229623167944,-46.707660421738986,0.051027942189287155,-0.04204938454358211,0.0717001416505448,,,,,,,,,,,,,,,,,stabilize,85.0,True,0,False,10.0,0.0,0.0,-10.0,8.257979851400911,0.09753415779754016
1760959101.830819,12.562597274780273,1.2961819351481045,-3.8294852801408594,0.0,0.8187114450882526,-1.1905976131185392,-46.706003653687375,-0.025473610339054324,-0.04051913807198925,-0.025717642407387834,,,,,,,,,,,0.65,0.0002857481827952529,0.0,0.0032361383427965576,1.6752448704567557,-5.0528407853009965,-2.18241230020909,0.723947033420838,-0.9879241546415222,-46.71359562516722,0.02345657083071077,-0.04058695906194727,-0.03062817397636179,,,,,,,,,,,,,,,,,stabilize,85.0,True,0,False,10.0,0.0,0.0,-10.0,9.457923811361297,0.055996401689381976
1760959101.9373877,12.669166088104248,1.3857248001662263,-3.957302323407789,0.0,0.8456944913903711,-1.19542729192666,-46.70609113538389,-0.053085727403189904,-0.041761916654908304,-0.03745347116082309,,,,,,,,,,,0.65,0.00023232925069142463,0.0,0.12649064024674742,2.2937575110910102,-4.6051489426169905,-2.3342979744077677,0.7896282583005093,-0.9814332165020679,-46.709883455350564,-0.0029817399882124005,-0.040908264475183,-0.13020806312112781,,,,,,,,,,,,,,,,,stabilize,85.0,True,0,False,10.0,0.0,0.0,-10.0,9.232102027628468,0.13651562759436897
1760959102.04645,12.778228282928467,1.4784244154972734,-4.089207596283743,0.0,0.8702432886447007,-1.255610113667846,-46.703389698546495,-0.07998122738105942,-0.04277902640019874,-0.04318329017215148,,,,,,,,,,,0.65,0.0001886820938964144,0.0,-0.09726560611309092,1.9673731837916515,-5.338749162860724,-2.2653328297861735,0.9053442419151005,-1.0979155798305351,-46.65527717231912,-0.029102626916991378,-0.0421540107004597,0.10132763335993547,,,,,,,,,,,,,,,,,stabilize,85.0,True,0,False,10,0.0,0.0,-10.0,9.601972511012107,0.11353947680841922
1760959102.1545234,12.886301755905151,1.5746001161908532,-4.2318593884958045,0.0,0.8920622878853817,-1.3670460579375647,-46.69655825874053,-0.1064617772524106,-0.04368154947053427,-0.04570869131196224,,,,,,,,,,,0.65,0.00015301918898125456,0.0,0.04507048344635441,2.719581405681055,-5.794841816565819,-1.8876848849217944,0.8926431328968805,-1.1890034946233745,-46.69281873396807,-0.048662802284418646,-0.03915263845723149,-0.05056485132200059,,,,,,,,,,,,,,,,,stabilize,85.0,True,0,False,10,0.0,0.0,-10.0,10.333729782971506,0.08036044806713766
1760959102.2617533,12.993531703948975,1.671368838584253,-4.38492398136002,0.0,0.9132300645172237,-1.4779735150586526,-46.689458840887404,-0.08473761801913207,-0.044341151151753,-0.04557339705822848,,,,,,,,,,,0.65,-0.00028636690979148323,0.0,-0.0024569773607879034,2.8162068461272423,-5.925566457604294,-2.324060824343629,0.9088983446436399,-1.2417136980763195,-46.677647915880776,-0.030839972286879454,-0.03698526243974177,-0.04065365709913843,,,,,,,,,,,,,,,,,stabilize,85.0,True,0,False,10,0.0,0.0,-10.0,10.097692858868072,0.06302168963084372
1760959102.3633316,13.095109939575195,1.765251076645422,-4.538040799661232,0.0,0.9356246412105237,-1.5281937255062998,-46.68717959299021,-0.06003544704925107,-0.04494369055768924,-0.044199302711099696,,,,,,,,,,,0.65,-0.0002381064822692285,0.0,0.07087754417856161,1.714497361239273,-5.7569772335810825,-2.516885465997568,0.9162451354290364,-1.353229621572898,-46.62032499343255,-0.012978591992617099,-0.037882363507377316,-0.07698035435107146,,,,,,,,,,,,,,,,,stabilize,85.0,True,0,False,10,0.0,0.0,-10.0,9.595795495875564,0.08677264702100787
1760959102.4726195,13.204397916793823,1.8689313192874746,-4.7054984269042786,0.0,0.9621424669596331,-1.5272321064031837,-46.68803345334601,-0.03430367434924882,-0.04550812032904996,-0.03868626862546336,,,,,,,,,,,0.65,-0.0001938337202751219,0.0,-0.004800290172889012,1.7670094381281636,-5.834848237481303,-2.1547168613772625,0.8790128255323781,-1.4901821302301101,-46.70831585514365,0.013485182099208527,-0.03996757986659692,-0.002444881905950144,,,,,,,,,,,,,,,,,stabilize,85.0,True,0,False,10,0.0,0.0,-10.0,9.93560485496635,0.042252041656891094
1760959102.5806732,13.312451601028442,1.9743969876999976,-4.868131630427538,0.0,0.9901458317504426,-1.474854621702256,-46.69029142677286,-0.009566409750947002,-0.04587233335577859,-0.02969950638483406,,,,,,,,,,,0.65,-0.00015765965036393294,0.0,0.10797614241054483,1.8633180753466307,-5.990980173726793,-2.179251395514101,0.9049835342624715,-1.3927815444922311,-46.7049550718356,0.037101936571369676,-0.03822006101745243,-0.11745836851023049,,,,,,,,,,,,,,,,,stabilize,85.0,True,0,False,10,0.0,0.0,-10.0,10.02636057732162,0.12897207098674052
1760959102.6888108,13.420589208602905,2.0830035506402287,-5.022808825155076,0.0,1.0182608686449728,-1.3866272265511035,-46.69301493163071,-0.014340697835840702,-0.04592566878557135,-0.014812923284730557,,,,,,,,,,,0.65,0.000573595541416235,0.0,-0.0060869837184537486,2.399263802595719,-6.314693664260281,-2.4213114143191565,0.9367846741651892,-1.2839319959304294,-46.70143339117659,0.036090144410134146,-0.02910520615591821,-0.025798944891773354,,,,,,,,,,,,,,,,,stabilize,85.0,True,0,False,10,0.0,0.0,-10.0,10.152258051617094,0.053058431059084234
1760959102.7984974,13.530275821685791,2.195632246538675,-5.173003235133024,0.0,1.0451024209873638,-1.3846550961631252,-46.69318206531305,-0.07175034262456209,-0.04662513272998567,0.005168828384666076,,,,,,,,,,,0.65,0.0004665391063883542,0.0,-0.006640434421125648,2.5023330242451007,-6.450219573947475,-2.379156005583183,0.9476319199723134,-1.2184418898825216,-46.69883202624948,-0.024600310726905238,-0.025477884625864526,-0.04657636970340115,,,,,,,,,,,,,,,,,stabilize,85.0,True,0,False,10,0.0,0.0,-10.0,10.292923117540598,0.05851201677960739
1760959102.9058046,13.637583017349243,2.3098896187511238,-5.326920998700443,0.0,1.0752570843345366,-1.4758690274948947,-46.6871900002487,-0.08976712523151764,-0.04817018048610317,0.02612636437805732,,,,,,,,,,,0.65,-0.0003010864516904731,0.0,-0.07526223753709159,2.6047388624624843,-6.582938825374098,-2.3680533698417094,0.9536956713150844,-1.2532398530746574,-46.68529401648698,-0.044834392757409074,-0.021574234470310916,0.07277141066163886,,,,,,,,,,,,,,,,,stabilize,85.0,True,0,False,10,0.0,0.0,-10.0,10.409916305418818,0.08815468550559552
1760959103.0136402,13.745418548583984,2.4276335115448155,-5.489527703899969,0.0,1.1087117754618565,-1.5297917979224822,-46.683914924134825,-0.06307466895088926,-0.04933783847211878,0.043813918817705876,,,,,,,,,,,0.65,-0.0002453238275658355,0.0,-0.07716623744254791,2.7078951530690754,-6.719198619911334,-2.5724235934982924,0.9595937807792143,-1.2638405469508684,-46.67765245510981,-0.015263005411263172,-0.020433168112880037,0.0772358766630916,,,,,,,,,,,,,,,,,stabilize,85.0,True,0,False,10,0.0,0.0,-10.0,10.37541408948357,0.08133790221802972
1760959103.1223016,13.854079961776733,2.549930438377418,-5.656032407541216,0.0,1.1419439939752354,-1.5255620563707546,-46.684029054603016,-0.03705860009573341,-0.050110914054550044,0.05759041761970521,,,,,,,,,,,0.65,-0.0001997617037529025,0.0,-0.06248955316033856,2.9357428817797646,-6.540258099780746,-2.6742991697553524,1.053541438063505,-1.3791195608784244,-46.76620098719088,0.008183512298030451,-0.018568580887107795,0.0631192559589829,,,,,,,,,,,,,,,,,stabilize,85.0,True,0,False,10,0.0,0.0,-10.0,10.24985145911468,0.06630084873143541
1760959103.2297037,13.961482048034668,2.6736287654547413,-5.816557555696897,0.0,1.1717654135069842,-1.4696943883384233,-46.68602912224518,-0.012173013815506345,-0.05057969968553961,0.06691746121785908,,,,,,,,,,,0.65,-0.00016253413136131146,0.0,0.05968871982026504,3.2468011932359366,-4.575242221281539,-2.256031738665384,1.047253430608997,-1.3765859719128044,-46.71805149729432,0.03505002703804783,-0.020542273885049173,-0.06214945040160311,,,,,,,,,,,,,,,,,stabilize,85.0,True,0,False,10,0.0,0.0,-10.0,9.562614904112442,0.07424987270667595
1760959103.341559,14.073337316513062,2.803261838717391,-5.972226656835867,0.0,1.1990740615396338,-1.3790854449556633,-46.688413178005334,-0.014431830083195202,-0.05122044164950147,0.07475724048102667,,,,,,,,,,,0.65,0.00030809752201745803,0.0,0.0004436585181018302,2.5559432637880564,-5.114152102602844,-2.5253126793277434,1.0761909786114892,-1.245688421805376,-46.718289921223594,0.03829503929404149,-0.024567532572502153,0.0030837492498357877,,,,,,,,,,,,,,,,,stabilize,85.0,True,0,False,10,0.0,0.0,-10.0,9.410544523994306,0.04560244731008412
1760959103.4463844,14.178162813186646,2.9335278649528824,-6.1175435267957745,0.0,1.2293538067910477,-1.3389456550595373,-46.68988090467716,-0.042147217499339966,-0.05226365442470291,0.07837426677132639,,,,,,,,,,,0.65,0.000250582165746536,0.0,-0.11112404892555439,2.5702166751292594,-6.437918770760831,-2.3553461617475886,1.156180641419729,-1.1407572481340045,-46.690755897605726,0.009601629521843538,-0.0283620283860153,0.11873091849177672,,,,,,,,,,,,,,,,,stabilize,85.0,True,0,False,10,0.0,0.0,-10.0,10.319570929197322,0.12244846650548467
1760959103.5536664,14.285444736480713,3.0678759459959926,-6.262292704702821,0.0,1.263937299422114,-1.3559128925359056,-46.688510327800344,-0.06908360390450245,-0.053294057493201215,0.07458288899515787,,,,,,,,,,,0.65,0.00020358793215911655,0.0,0.004010297957054043,3.3066829156754434,-6.93571701638861,-2.1698639266632345,1.2217513274204324,-1.170534437002082,-46.72161075594746,-0.020630485149406116,-0.027069105580418664,-0.019565042957055245,,,,,,,,,,,,,,,,,stabilize,85.0,True,0,False,10,0.0,0.0,-10.0,10.970385287819752,0.039257410769625856
1760959103.6595159,14.391294240951538,3.203583053156276,-6.408982688469051,0.0,1.3004622910576247,-1.4238835797404508,-46.68376751146004,-0.09482420920625312,-0.05414856162912276,0.06631704905450961,,,,,,,,,,,0.65,0.00016519022181431462,0.0,0.005613373390508531,3.5148531490434984,-7.0736352256299035,-2.4020197448333915,1.29669135668923,-1.298934495109446,-46.698123217451986,-0.04503963230730494,-0.02608996180821264,0.030000922187381637,,,,,,,,,,,,,,,,,stabilize,85.0,True,0,False,10,0.0,0.0,-10.0,10.959918426818462,0.0600775325527318
1760959103.7681916,14.499969959259033,3.3469384781987515,-6.5690207188926895,0.0,1.3370055925925124,-1.514621266226277,-46.677020530288296,-0.08232773502781178,-0.05510017628044318,0.055072819007594136,,,,,,,,,,,0.65,-0.0003070773871107929,0.0,0.08631460099363164,2.913768170089494,-7.382330506946745,-1.9833046307311828,1.2963940830807943,-1.346952748820219,-46.66576110245641,-0.03644588355586401,-0.025696762313145254,-0.08522985174818097,,,,,,,,,,,,,,,,,stabilize,85.0,True,0,False,10,0.0,0.0,-10.0,11.280791342209968,0.0961912347907167
1760959103.8775764,14.609354734420776,3.4949899896294307,-6.737050045200289,0.0,1.3693745921654181,-1.5474267061496412,-46.67502256189728,-0.053832360209904354,-0.05638531811459966,0.04567292622568786,,,,,,,,,,,0.65,-0.0002501381520456295,0.0,0.003623833339323242,3.2132954855756415,-6.633610546021752,-2.2304044103573073,1.3157898877968774,-1.392151481903135,-46.667525499717264,-0.007304910374522491,-0.030215667987612896,-0.003831214684223718,,,,,,,,,,,,,,,,,stabilize,85.0,True,0,False,10,0.0,0.0,-10.0,10.70965323343884,0.031321342778911514
1760959103.985517,14.717295408248901,3.644394797752955,-6.903239575589228,0.0,1.398580092340344,-1.5229616199180642,-46.67604969531743,-0.026641899919640798,-0.05798206573044674,0.031170537030007446,,,,,,,,,,,0.65,-0.00020361465142890669,0.0,0.004960431935267303,3.8899843045257305,-6.663829984014909,-2.0798057618941046,1.3191034713380845,-1.4079826056572364,-46.707020539760926,0.017901532482674443,-0.03894729089844105,-0.034623491969376134,,,,,,,,,,,,,,,,,stabilize,85.0,True,0,False,10,0.0,0.0,-10.0,11.057489982570118,0.05510120261581857
1760959104.0925062,14.824284553527832,3.795536363422833,-7.062630726008557,0.0,1.4268879820819733,-1.4487444561277494,-46.67802713326145,-0.0004470403508910893,-0.05999025993999423,0.014622799039429967,,,,,,,,,,,0.65,-0.0001656015641937665,0.0,0.004168256864028783,5.0042831964178704,-7.628720897133595,-2.0344482168027804,1.3481189262754492,-1.3231702515670067,-46.73298489716222,0.04320064852181499,-0.04437907453858947,0.03262483932991854,,,,,,,,,,,,,,,,,stabilize,85.0,True,0,False,10,0.0,0.0,-10.0,12.111574961461844,0.07000127449489814
1760959104.2004704,14.932248830795288,3.9512166400610758,-7.213853252771639,0.0,1.4576288426318154,-1.3657531814359696,-46.67986902758492,-0.02896176287032651,-0.0626280276391384,-0.0035288138056663453,,,,,,,,,,,0.65,0.0005374851746931987,0.0,0.0038597680155716203,4.696072815540324,-8.097998716384442,-2.4622263389750376,1.3526480857581782,-1.2019171872525678,-46.74344207388879,0.019579898469261926,-0.04654215121567351,0.00825857841029791,,,,,,,,,,,,,,,,,stabilize,85.0,True,0,False,10,0.0,0.0,-10.0,12.018681910436875,0.051163936334182335
1760959104.310437,15.042215347290039,4.1133042948457925,-7.364563604885498,0.0,1.4899332568519223,-1.395297062393051,-46.677692788031486,-0.08538004459128273,-0.06460237602602303,-0.02199747772030212,,,,,,,,,,,0.65,0.0004370301896333155,0.0,0.002919406893775233,4.845465645378576,-8.227261773496648,-2.3294759406660877,1.3611361827585777,-1.1681388600485856,-46.738808657306194,-0.03406204117186895,-0.04008371248816733,-0.0452305185061823,,,,,,,,,,,,,,,,,stabilize,85.0,True,0,False,10,0.0,0.0,-10.0,12.247583963990762,0.06937381681849614
1760959104.4203734,15.152151823043823,4.2773056530431495,-7.522785996126858,0.0,1.5187074414606692,-1.5031471930263465,-46.66999893598884,-0.07356699202326546,-0.06645808864581321,-0.03715503649378856,,,,,,,,,,,0.65,-0.000874722649892972,0.0,0.09978478196352214,4.993833231004795,-8.357478156533405,-2.3361667444613343,1.3601447202237422,-1.2254300356615149,-46.72080748734809,-0.030355921213472657,-0.04267960356065318,-0.10257058247598765,,,,,,,,,,,,,,,,,stabilize,85.0,True,0,False,10,0.0,0.0,-10.0,12.390324920869556,0.11516837631171355
1760959104.5277965,15.259574890136719,4.4436798285404295,-7.685382263945684,0.0,1.5545653242653636,-1.4687084333934033,-46.6703005020111,0.010210987232855172,-0.0696643014664314,-0.04938801873161832,,,,,,,,,,,0.65,-0.08557384284750888,0.0,1.8974015084464546e-05,4.284852159898568,-8.351742820932094,-1.9989825296797887,1.4375272199220506,-1.3098207243442324,-46.694727577821645,0.0591049607246149,-0.04988891167985431,-0.028824001614118067,,,,,,,,,,,,,,,,,stabilize,85.0,True,0,False,10,0.0,0.0,-10.0,12.33401178609569,0.08254164379214443
1760959104.6361334,15.36791181564331,4.613474941480253,-7.839932980989458,0.0,1.5698087437291517,-1.4121341121027304,-46.6727031368115,-0.059270054093528264,-0.046567108534947395,-0.05740683267476736,,,,,,,,,,,0.65,0.0008134052144345146,-0.00020122223781803678,-0.0019956088218943805,5.037587855850686,-8.924717479078556,-1.9878372608279062,1.4854736913982742,-1.2322647062187657,-46.70162521642087,-0.0021043799026851224,-0.023665790572651745,0.014317657732455219,,,,,,,,,,,,,,,,,stabilize,85.0,True,0,False,10,0.0,0.0,-10.0,13.008559691440182,0.027739743710913627
1760959104.7469072,15.4786856174469,4.784513700215367,-8.000824008786406,0.0,1.5228794640880383,-1.525899613403522,-46.66765292360501,-0.10962297060917983,-0.021928603343615245,-0.061617512819136265,,,,,,,,,,,0.65,0.08780530604935155,-0.00016348921922501776,0.12935094943427816,5.198357815874138,-9.061313773497819,-2.210979677012296,1.4190004546692416,-1.2709258374804162,-46.688361701755,-0.06130173426060653,0.00293738393242023,-0.13748281195549292,,,,,,,,,,,,,,,,,stabilize,85.0,True,0,False,10,0.0,0.0,-10.0,13.030701012438145,0.1505591393138055
1760959104.8546226,15.586400985717773,4.944963766996263,-8.16898139772541,0.0,1.4376999012236515,-1.544931600108902,-46.66994421502611,-0.007036346788119871,0.0003926765558765336,-0.06065966886362516,,,,,,,,,,,0.65,-0.0008493187314693874,-0.00013265859581087976,0.13713089089137737,4.564454235366435,-8.352088155276943,-2.1850633653743907,1.3393415139145628,-1.35691224595458,-46.68400115635126,0.033227347283105196,0.025232125237054166,-0.1470386880823475,,,,,,,,,,,,,,,,,stabilize,85.0,True,0,False,10,0.0,0.0,-10.0,12.315228525020778,0.15284335950386704
1760959104.9643617,15.696140050888062,5.096627595276002,-8.331700587475659,0.0,1.3193362604579666,-1.4295944046994,-46.676552110859575,-0.023398253910491516,0.02282425692276803,-0.05538760960825396,,,,,,,,,,,0.65,0.0008848428147429776,-0.00010746773179979709,0.07287688971684286,4.114251469869767,-8.70074372167487,-2.5027822244742715,1.2915645801880515,-1.2922621419274136,-46.65502267799987,0.028023008535423777,0.04692668225030365,-0.08076533781017302,,,,,,,,,,,,,,,,,stabilize,85.0,True,0,False,10,0.0,0.0,-10.0,12.199929542470693,0.09752149663529965
1760959105.0735,15.805278301239014,5.232604336988173,-8.488563419092106,0.0,1.1778937156474083,-1.4773510574237452,-46.67647119130343,-0.1152786750490401,0.010711949403454218,-0.045697451370850066,,,,,,,,,,,0.65,0.08083429829641431,0.000354407083237736,-0.0059594360406378,4.8114879629944065,-8.155727372640822,-2.3453842118128296,1.198133533736911,-1.26946490259674,-46.61831071568491,-0.055631348161737544,0.04065943523801318,0.0343885318254081,,,,,,,,,,,,,,,,,stabilize,85.0,True,0,False,10,0.0,0.0,-10.0,12.176183649224708,0.07701043885911671
1760959105.1805952,15.912373542785645,5.3536724246917515,-8.652755233173238,0.0,1.107609726577331,-1.579820753482925,-46.67271485803024,-0.05829821679552259,-0.023488045240131043,-0.03219932875323524,,,,,,,,,,,0.65,-0.0008884005946252663,0.00028861531353906167,0.07645743646307887,4.569493890140876,-8.777216736657612,-2.531146686677547,1.0677835966109284,-1.387863256690155,-46.60732608589322,-0.007889982690280945,0.0055289162752065685,-0.08572616698075186,,,,,,,,,,,,,,,,,stabilize,85.0,True,0,False,10,0.0,0.0,-10.0,12.397724705373365,0.08626584751361877
1760959105.2872531,16.019031524658203,5.47153690876869,-8.818787362951447,0.0,1.1150605532900824,-1.5089716436157357,-46.67702260998449,0.010208348270533152,-0.05551159045105171,-0.01692106461724719,,,,,,,,,,,0.65,-0.09469210167576204,0.00023485864760126678,0.11276270595295981,5.359047218869129,-8.590607510832896,-2.3066901216598454,1.0923445496974717,-1.3752104317894434,-46.65594939058381,0.0658472051405088,-0.027660170687454758,-0.12371152043609984,,,,,,,,,,,,,,,,,stabilize,85.0,True,0,False,10,0.0,0.0,-10.0,12.716325781585407,0.14284775026540297
1760959105.3956993,16.127477645874023,5.596322898753685,-8.979762170165921,0.0,1.1802454923472445,-1.4775998916153406,-46.676895035719184,-0.07935397800363092,-0.0693346055024779,0.0031435531952554523,,,,,,,,,,,0.65,0.0008442031832409405,-0.00027061033311059354,-0.10692567848787257,5.2501680115753615,-9.07903459554508,-1.9606933736919232,1.1240563172835274,-1.37986399631954,-46.67427704564388,-0.01873646999047171,-0.04608969364692316,0.10457344222649897,,,,,,,,,,,,,,,,,stabilize,85.0,True,0,False,10,0.0,0.0,-10.0,13.214521723039187,0.11580552658344935
1760959105.5053518,16.237130165100098,5.728501414555396,-9.14818784796053,0.0,1.2229515975142966,-1.601354728619081,-46.66778681443297,-0.09871952707075342,-0.04663211058482495,0.022733167362708823,,,,,,,,,,,0.65,-0.0008680544219039524,-0.00022021667319482862,-0.00483267430478905,5.975291057899952,-10.182021089909163,-2.2229481720817694,1.1282138539045403,-1.4925689047287647,-46.67543591475319,-0.04064881157113661,-0.023690797585685052,-0.013850940292403663,,,,,,,,,,,,,,,,,stabilize,85.0,True,0,False,10,0.0,0.0,-10.0,14.137191794557376,0.04904516611629939
1760959105.6109788,16.34275722503662,5.85784574870343,-9.319094821940933,0.0,1.2180790728331885,-1.605359517127729,-46.66968790096054,-0.01234652002855127,-0.02436924340411348,0.03971239488784923,,,,,,,,,,,0.65,-0.0007065013696893801,-0.0001790413840381181,-0.00287095379239612,4.936745489681169,-10.131299337485945,-2.0597307824339257,1.1463504681528043,-1.4729291407932399,-46.66501698116415,0.04362421120604784,-0.0017043724457412226,0.03444226721741574,,,,,,,,,,,,,,,,,stabilize,85.0,True,0,False,10,0.0,0.0,-10.0,13.786317765924949,0.05560797118992512
1760959105.7185354,16.450313806533813,5.986426505596414,-9.486852503966777,0.0,1.1664752474772655,-1.5317517730512493,-46.675928833139494,-0.05096876413053796,-0.0017112674980679305,0.05433561691388697,,,,,,,,,,,0.65,0.0008657804751993342,-0.00014539817495243828,-0.08518815602907276,5.382048821397932,-10.501697159713592,-2.0162765223621824,1.055304332865114,-1.3260734116267865,-46.65319905001007,0.015327185237430705,0.029688733380436202,0.08700278817210154,,,,,,,,,,,,,,,,,stabilize,85.0,True,0,False,10,0.0,0.0,-10.0,14.247523760907812,0.09319779314316788
1760959105.827102,16.55888032913208,6.10880446909779,-9.656733801302366,0.0,1.0842868424176533,-1.6262941659656387,-46.67245306331743,-0.12786638674439413,0.01435980038795116,0.06551158018915662,,,,,,,,,,,0.65,0.09428740422397679,-0.07195485166247566,-0.09793838497573784,5.944269147903583,-9.99240323752489,-2.4707162699399636,1.0065334416041576,-1.4404684768283447,-46.64767921453728,-0.06536843835778551,0.050049375022409776,0.10160689947134517,,,,,,,,,,,,,,,,,stabilize,85.0,True,0,False,10,0.0,0.0,-10.0,13.851807522910613,0.13077436558305097
1760959105.9355962,16.66737461090088,6.222900510151806,-9.839026394241984,0.0,1.027952211369408,-1.7001184635685318,-46.670517106209665,-0.04134115486656645,-0.01569637101966369,0.07127308046578579,,,,,,,,,,,0.65,-0.0008561335659438697,0.0002943257382893108,-0.06261858977671925,6.047960174958793,-10.152422304207521,-2.3458883623111895,0.9100794531015555,-1.4779032733171165,-46.63499979348221,0.013073738631696107,0.02302986250836956,0.067362805060259,,,,,,,,,,,,,,,,,stabilize,85.0,True,0,False,10,0.0,0.0,-10.0,14.07959253256504,0.07238124559960796
1760959106.0428371,16.77461552619934,6.332389704022876,-10.016818251617686,0.0,1.0230701889955873,-1.6062023269171686,-46.67632938923921,-0.018647856145545552,-0.04406228401326229,0.07180911441586028,,,,,,,,,,,0.65,0.000899763730917354,0.00023953085238803757,0.0031239083502061006,6.142050962638823,-10.304240778172554,-2.146964085863286,0.8523938665636193,-1.3322805574598422,-46.632353198836455,0.04873373040060068,-0.005972529112002995,0.03958738385088377,,,,,,,,,,,,,,,,,stabilize,85.0,True,0,False,10,0.0,0.0,-10.0,14.337794150807428,0.0630698703257694
1760959106.1516564,16.883434772491455,6.446403490528046,-10.190842996544891,0.0,1.0837707551609899,-1.622625899369708,-46.674294092112866,-0.10834723580924198,-0.0726449814073662,0.07058938363166692,,,,,,,,,,,0.65,0.0007317540255978651,0.0001947594411616013,-0.07205235025810078,6.234958366304147,-10.443448877654436,-2.5074858931872823,0.8655153898961828,-1.255700525160362,-46.62535618117709,-0.037442831572897815,-0.032949122493487824,0.07881993990555837,,,,,,,,,,,,,,,,,stabilize,85.0,True,0,False,10,0.0,0.0,-10.0,14.285590569889486,0.09327482637884185
1760959106.2598574,16.99163579940796,6.5690395429181905,-10.372505925901546,0.0,1.1990109005240475,-1.7403371693387693,-46.66017719296443,-0.0879263174071216,-0.09221672623502536,0.06241663874783496,,,,,,,,,,,0.65,-0.0008914648685266496,-7.235063142752422e-05,0.00515409573755521,5.59853130941902,-10.239734916633696,-2.1530065751728427,1.0200312330788526,-1.463524219934935,-46.584801861693485,-0.022012740059802312,-0.04891303693139802,0.020656472354220086,,,,,,,,,,,,,,,,,stabilize,85.0,True,0,False,10,0.0,0.0,-10.0,14.063108823967514,0.05747813285862191
1760959106.3670492,17.098827600479126,6.704376008521058,-10.559508104564795,0.0,1.3114729337833861,-1.7029803866894941,-46.65719368663056,-0.004343960718241766,-0.0928792482725446,0.049766231915561475,,,,,,,,,,,0.65,-0.09235205893509309,-5.9154496788543696e-05,-0.1708052317648781,5.711949176239903,-10.394137273684152,-2.2608050680161886,1.0789745810884415,-1.373512451506177,-46.570321218174385,0.06381391121720843,-0.0460781386236211,0.18415980766329326,,,,,,,,,,,,,,,,,stabilize,85.0,True,0,False,10,0.0,0.0,-10.0,14.161906342416682,0.20027542256212214
1760959106.4748888,17.206667184829712,6.85148147892985,-10.738921538452075,0.0,1.4147331043892726,-1.6566003669090408,-46.6550650693154,-0.08402464990064687,-0.08596705533780936,0.03139851036768404,,,,,,,,,,,0.65,0.000926522341910677,-0.0002789869979134355,-0.1680558580920072,5.830560942384485,-10.53302816972649,-2.49414555463927,1.1242647687904632,-1.2279815509362184,-46.55437247342172,-0.004549518528587827,-0.043015190857665295,0.18240920573962516,,,,,,,,,,,,,,,,,stabilize,85.0,True,0,False,10,0.0,0.0,-10.0,14.187246888739642,0.18746765881592545
1760959106.5821488,17.313927173614502,7.006938237237471,-10.923003097183503,0.0,1.4740120416021132,-1.7921985804070946,-46.64296800692842,-0.12405249402828367,-0.06090594477030552,0.007732261010606308,,,,,,,,,,,0.65,0.08363065528907707,-0.00022705605478057575,0.0076162885965796396,5.461709357540205,-11.45682777698937,-2.2605515052301333,1.2178345228194112,-1.4119816033531523,-46.5742801862504,-0.058575756876613365,-0.020035603623545124,0.005637663549843519,,,,,,,,,,,,,,,,,stabilize,85.0,True,0,False,10,0.0,0.0,-10.0,14.865673036261525,0.062163718972799285
1760959106.6899645,17.421742916107178,7.16639309841699,-11.11977041108754,0.0,1.4752204882017887,-1.8231192479490002,-46.64358054683139,-0.02348358242263951,-0.03687100230002338,-0.018760369893479668,,,,,,,,,,,0.65,-0.0008183440348601935,-0.00018462469331069245,0.08869522924126057,6.250843189886174,-12.165721838402357,-2.1714496078487135,1.2947344454520047,-1.5378787998523842,-46.57009865927759,0.04303567985359461,0.005267082449400587,-0.08548861730109614,,,,,,,,,,,,,,,,,stabilize,85.0,True,0,False,10,0.0,0.0,-10.0,15.759569463547487,0.09585465865592108
1760959106.7975688,17.52934718132019,7.322376150173155,-11.31036805618383,0.0,1.4297169836691017,-1.7503236658685712,-46.65148112015854,-0.052978801282777675,-0.014294400195730719,-0.04266610444852922,,,,,,,,,,,0.65,0.0008309954533597951,-0.0001499551816944349,0.004474193053919425,6.320964164989557,-11.116941033322622,-1.854013569703176,1.3711636916308583,-1.6255230254372872,-46.63038814743179,0.022151189457785773,0.031126498616498226,0.008266632337130556,,,,,,,,,,,,,,,,,stabilize,85.0,True,0,False,10,0.0,0.0,-10.0,15.162389680918848,0.03908799458548466
1760959106.9052134,17.63699173927307,7.472135870487658,-11.502418709746127,0.0,1.33032448825498,-1.8281559078096599,-46.65033633455059,-0.13074082663708358,0.008587628362703931,-0.0648364926947866,,,,,,,,,,,0.65,0.09165785723268456,-0.07569408780315515,0.07610319644912023,6.462284427336873,-11.290205000784486,-2.2319651373608074,1.233019229006167,-1.6043176103123462,-46.620308860919856,-0.06336262666386028,0.05247723084274039,-0.07636318474049678,,,,,,,,,,,,,,,,,stabilize,85.0,True,0,False,10,0.0,0.0,-10.0,15.151640657259449,0.11224980266520401
1760959107.0150821,17.74686050415039,7.612587714393212,-11.709379198997327,0.0,1.2405102335876927,-1.9061130488120013,-46.64906782086407,-0.04617088702529862,-0.022106431122535918,-0.0822476848307991,,,,,,,,,,,0.65,-0.000907717887167381,0.0003169246887210781,0.1280890840522477,5.246159573493521,-11.146328934909661,-2.2541394923975964,1.1593843335422909,-1.739854951403874,-46.631438504393344,0.01955349713316261,0.017978398343617454,-0.13359115823986112,,,,,,,,,,,,,,,,,stabilize,85.0,True,0,False,10,0.0,0.0,-10.0,14.552016836129507,0.13620631269146816
1760959107.1255424,17.85732078552246,7.748585854668879,-11.91554245083106,0.0,1.2333622026089812,-1.823895314662515,-46.6562446264618,-0.03244809436831401,-0.053368508651840764,-0.09124517104828143,,,,,,,,,,,0.65,0.0007662115726010278,0.0002579199780804439,0.053641804310107254,5.371119666223845,-11.330676236182097,-2.464522310459171,1.1157219337497752,-1.585504309783921,-46.63035403740447,0.03808866422950623,-0.00925653219408665,-0.05901916260124378,,,,,,,,,,,,,,,,,stabilize,85.0,True,0,False,10,0.0,0.0,-10.0,14.629305330317152,0.07084977971172728
1760959107.2334766,17.96525502204895,7.883612183648303,-12.113009573225598,0.0,1.2752218218629148,-1.8625504130861177,-46.65384985070317,-0.11040451748141042,-0.08165531207193934,-0.09347852953229807,,,,,,,,,,,0.65,0.0006229578891946125,0.00020970883353771337,0.1215813141081366,5.491000352905379,-11.497454328099815,-2.425904176263133,1.1118415128874444,-1.5322480126400466,-46.62358017603305,-0.03898127871816662,-0.03939554614175095,-0.13169302013010428,,,,,,,,,,,,,,,,,stabilize,85.0,True,0,False,10,0.0,0.0,-10.0,14.822599922061462,0.1428796720926328
1760959107.341864,18.07364249229431,8.025461440457283,-12.322279657794082,0.0,1.3359815410420612,-1.9833657892119294,-46.64283689513837,-0.07753730537819449,-0.06340286563043603,-0.09023149796709835,,,,,,,,,,,0.65,-0.0009702628865326897,-0.0005251962684686274,0.15203552843028492,5.612713340645427,-11.666758746510313,-2.2772188940237252,1.1320868514415163,-1.5886026596640788,-46.59832947402757,-0.018640853949328094,-0.02730334481557761,-0.16437616239608008,,,,,,,,,,,,,,,,,stabilize,85.0,True,0,False,10,0.0,0.0,-10.0,15.075050869047114,0.16766775730038558
1760959107.4497712,18.181549549102783,8.169383679088607,-12.534502687227695,0.0,1.3155646323658892,-1.9190857451339016,-46.649201289667865,0.00028482480004469584,-0.008512783173116994,-0.07983153026799555,,,,,,,,,,,0.65,-0.0927377448631265,-0.0004272138483276069,0.07063267589396793,8.099947809178175,-10.83471701405831,-2.259768686482086,1.1815839724246961,-1.776902012366933,-46.589372904576685,0.06440869522573663,0.027937393531332667,-0.08160463058921388,,,,,,,,,,,,,,,,,stabilize,85.0,True,0,False,10,0.0,0.0,-10.0,15.585616063309727,0.10764893734546772
1760959107.559351,18.29112935066223,8.307785796283492,-12.740404819605304,0.0,1.2071850683072105,-1.8689554569178455,-46.65614572200905,-0.07978354560903712,-0.008108539116192472,-0.06217041085246814,,,,,,,,,,,0.65,0.0007337926581543539,0.0009364122809711469,0.08212507879935983,8.453566569290148,-11.953710923828263,-2.2793425806474743,1.1101918251984757,-1.6966451756414578,-46.58543055699494,-0.008919395052811877,0.041299721960280825,-0.09495795752409213,,,,,,,,,,,,,,,,,stabilize,85.0,True,0,False,10,0.0,0.0,-10.0,16.551813906000586,0.10393380748943971
1760959107.6677432,18.399521589279175,8.438176700738218,-12.948196239646458,0.0,1.2318043703498591,-1.9832285692502156,-46.646885256410044,-0.12242689836786302,-0.10380981805298942,-0.03914361047953771,,,,,,,,,,,0.65,0.0810575756713742,0.07442528388054119,-0.008501193320721889,8.56946528210124,-12.137411711374048,-2.1842996919777473,1.0594472708145062,-1.7184993215064932,-46.56712488199183,-0.05661497971664783,-0.05115163284430544,0.015726287015185553,,,,,,,,,,,,,,,,,stabilize,85.0,True,0,False,10,0.0,0.0,-10.0,16.788021609986018,0.07790418200738047
1760959107.776054,18.507832288742065,8.578136083173066,-13.166233217584377,0.0,1.3332449368381747,-2.0068750726865043,-46.64091962637297,-0.024303132335879992,-0.05610516747963338,-0.01570287528242632,,,,,,,,,,,0.65,-0.0008080997072268309,-0.0007841314825555903,-0.007019216435296346,7.529115649315555,-12.878916925318784,-2.419668269540621,1.1503162755740688,-1.775291445064962,-46.582504117284486,0.04301720153065059,-0.007218578126631252,-0.005489924091155934,,,,,,,,,,,,,,,,,stabilize,85.0,True,0,False,10,0.0,0.0,-10.0,16.733664057039043,0.04396278840366636
1760959107.8856704,18.617448806762695,8.722493263666028,-13.38096716734267,0.0,1.2736476385878779,-1.9289572458943116,-46.64909376940311,-0.06312334878939925,0.015927722086069636,0.008181213895646505,,,,,,,,,,,0.65,0.0008374696790036389,-0.09015117869243845,-0.11636601948790741,9.564886340475072,-12.111653940327217,-1.8875071870475983,1.1185671908836714,-1.7381016191263072,-46.56906097586568,0.012211548190138175,0.06253406722556515,0.11448708870122055,,,,,,,,,,,,,,,,,stabilize,85.0,True,0,False,10,0.0,0.0,-10.0,17.435359231075648,0.13102261236997495
1760959107.9955366,18.727314949035645,8.858342007693588,-13.596554444396235,0.0,1.2266983932818802,-2.021511208324258,-46.644985561241185,-0.1323372064715362,-0.0523660178347318,0.0318044542741782,,,,,,,,,,,0.65,0.0900000172859217,0.0006279121585830648,0.054796011578882343,9.815456593587419,-13.115939286083004,-2.0599090938269873,1.080393524841973,-1.8128442261013895,-46.55719155437777,-0.06259453403447043,-0.0053680963961223495,-0.0624555889108632,,,,,,,,,,,,,,,,,stabilize,85.0,True,0,False,10,0.0,0.0,-10.0,18.204837134539428,0.08858663971566637
1760959108.1037326,18.835510969161987,8.995465242297723,-13.819341481994671,0.0,1.3255138426453128,-2.0624767253049843,-46.63807293714619,-0.04277036167183001,-0.09884181441113973,0.053973743010039446,,,,,,,,,,,0.65,-0.0008017884934706955,0.0844812619964384,-0.16543649762669152,9.933231080995922,-13.31304091575719,-2.1909525846342164,1.116579309302845,-1.7968199404639662,-46.537517388231976,0.024394431149603768,-0.058868522110255804,0.16903945970791884,,,,,,,,,,,,,,,,,stabilize,85.0,True,0,False,10,0.0,0.0,-10.0,18.354491539362225,0.18065140493476253
1760959108.2111225,18.942900896072388,9.14123178419764,-14.035489481892478,0.0,1.3615623078179053,-1.9655623716199278,-46.64329772675138,-0.04280931477819366,-0.020487889266550378,0.06946307498376098,,,,,,,,,,,0.65,0.0009345702157335049,-0.000678117277826087,-0.06302016887795071,10.0544198881607,-13.496997617260067,-2.130586661087391,1.1131486780344853,-1.6226136830067037,-46.53076553631052,0.03694368954379535,0.021559935134071978,0.06514697187826744,,,,,,,,,,,,,,,,,stabilize,85.0,True,0,False,10,0.0,0.0,-10.0,18.579234921449835,0.07793455552578392
1760959108.32053,19.052308320999146,9.285620357284213,-14.251840798128374,0.0,1.2716008120606532,-2.0228483599690392,-46.64330301043903,-0.13674072513014007,0.001434904776787243,0.08310562190819247,,,,,,,,,,,0.65,0.08572141727469464,0.0007871377809501414,-0.08691468495744475,10.310576200721119,-12.807633461549923,-2.189689294094529,1.096991698012056,-1.6694799834074374,-46.55251125121742,-0.05899700713692064,0.047764330303259134,0.09035981004764006,,,,,,,,,,,,,,,,,stabilize,85.0,True,0,False,10,0.0,0.0,-10.0,18.20286817507262,0.11801259836254051
1760959108.4283974,19.160175800323486,9.422218384320438,-14.476857436239126,0.0,1.2855865874169234,-2.1193683242570773,-46.636647919415324,-0.07134278788583168,-0.07581555888205398,0.0925110463300439,,,,,,,,,,,0.65,-0.0009374606935136806,0.000640519556862954,-0.11733677281801132,10.425026599347976,-12.990805841155924,-2.57164974006058,1.0482702316402666,-1.7033296997491927,-46.533247071956055,0.001467167829941442,-0.03017190893263599,0.12407288308739531,,,,,,,,,,,,,,,,,stabilize,85.0,True,0,False,10,0.0,0.0,-10.0,18.23794406132626,0.12769720822202404
1760959108.5368974,19.268675804138184,9.567567342928822,-14.702628796483904,0.0,1.387542946391749,-2.023508117792024,-46.6378499435768,-0.023007282775809417,-0.07002660872979108,0.09670019587219203,,,,,,,,,,,0.65,-0.08164411855603963,-0.0007084700611607367,-0.17596855250564503,9.623344557531755,-14.931477250457737,-2.4459646316563886,1.265144152067628,-1.835542489226529,-46.59038894711324,0.05712083029940749,-0.03489297695963252,0.1872866953720745,,,,,,,,,,,,,,,,,stabilize,85.0,True,0,False,10,0.0,0.0,-10.0,19.303399278368026,0.19888844953539006
1760959108.6449559,19.376734256744385,9.718273730736392,-14.919243166816537,0.0,1.3810323544947483,-2.017146801511425,-46.64092486485738,-0.10713600278207625,-0.0020611495600611042,0.09231089032789253,,,,,,,,,,,0.65,0.0007234224289020589,-0.0005763072457038493,-0.09769800634788867,10.158164887513822,-15.19406385661384,-1.8587662473237356,1.2304032188279859,-1.7859531009419216,-46.60602025536032,-0.03652122242221307,0.0343882448069902,0.108860461355499,,,,,,,,,,,,,,,,,stabilize,85.0,True,0,False,10,0.0,0.0,-10.0,20.008187758427624,0.11986221721063874
1760959108.7533786,19.485157012939453,9.86315104261883,-15.144559272188555,0.0,1.2980364937882736,-2.135036168538893,-46.63565931225125,-0.10393481862411928,-0.01734785527408276,0.07812246842397669,,,,,,,,,,,0.65,-0.0007163547219671704,0.0007729494657644897,-0.15572260464516055,10.107648426156743,-15.22126049867951,-2.1485959059498714,1.1497101017131504,-1.934677325618512,-46.6007340571097,-0.034723258505903076,0.026853140968005642,0.1716174461107376,,,,,,,,,,,,,,,,,stabilize,85.0,True,0,False,10,0.0,0.0,-10.0,19.887078069025556,0.17714215667278999
1760959108.8632448,19.595023155212402,10.006051689772022,-15.378890916603451,0.0,1.3411312335403474,-2.1241288687154314,-46.63655105449586,-0.0325192626929921,-0.097259912814576,0.0554543516407634,,,,,,,,,,,0.65,-0.0005832946874078358,0.07803535353723426,0.11608246572622051,10.599038759086381,-15.860159432502515,-2.362335149122425,1.1030464580755779,-1.9039933138362077,-46.605528267867015,0.03550627353283179,-0.05375076989772198,-0.11003192577988775,,,,,,,,,,,,,,,,,stabilize,85.0,True,0,False,10,0.0,0.0,-10.0,20.54794890531278,0.12750241337173526
1760959108.9704394,19.70221781730652,10.156000860464228,-15.601773771217728,0.0,1.4248676970318253,-2.01960154101304,-46.63860027779316,-0.033837378822051525,-0.054996948631540164,0.03188099236797048,,,,,,,,,,,0.65,0.0004726668024847672,-0.0006221501171618064,0.008104815549911777,11.135936978234165,-16.165372605053353,-2.01607946007055,1.2587026839600508,-1.816811730186177,-46.5858883270431,0.03659382422653531,-0.016196006415790186,0.0314674979692795,,,,,,,,,,,,,,,,,stabilize,85.0,True,0,False,10,0.0,0.0,-10.0,21.19130366521418,0.05090797603312755
1760959109.0771286,19.80890703201294,10.306818272972981,-15.815398475061354,0.0,1.381007598003352,-2.0009901609810696,-46.643489321262244,-0.07797634483614825,0.008344335847082452,0.009573440786747985,,,,,,,,,,,0.65,0.0003841787574638452,-0.0005059320370807274,-0.09426157875819977,11.153103612129744,-16.74537176537486,-2.310686231488822,1.2195078859052895,-1.8317924556921472,-46.5913529330901,-0.006861218611535623,0.0468214927213195,0.10533648320808034,,,,,,,,,,,,,,,,,stabilize,85.0,True,0,False,10,0.0,0.0,-10.0,21.538912274628228,0.11547771731435484
1760959109.1871243,19.91890263557434,10.451980273870864,-16.037675794465624,0.0,1.2833475481649623,-2.0737929748753676,-46.64208801016581,-0.1219363250346922,-0.019071444679269637,-0.015503044357030316,,,,,,,,,,,0.65,0.00031187758214260887,0.0004664643439503773,0.10661650197060193,11.795459379419697,-16.281031452156398,-2.1319974952620644,1.1369412056172779,-1.96285541897855,-46.60394953738792,-0.04891499809679906,0.01774315880926817,-0.10418797835273254,,,,,,,,,,,,,,,,,stabilize,85.0,True,0,False,10,0.0,0.0,-10.0,21.589588012099917,0.11645871181053923
1760959109.2956243,20.027402639389038,10.590901129650335,-16.269304628942937,0.0,1.2826138473732134,-2.156929777180879,-46.63752411710134,-0.07581816855744121,-0.0684818011025127,-0.036777809411457134,,,,,,,,,,,0.65,-0.0006168704160830908,0.00037964108866427206,0.003481098534960707,10.29600425454631,-16.49188395732761,-2.1735616350682188,1.1303760089478623,-2.0226158391918556,-46.64726513219919,-0.012675144187834081,-0.031727305092427945,-0.04153025625542171,,,,,,,,,,,,,,,,,stabilize,85.0,True,0,False,10,0.0,0.0,-10.0,20.958126766284995,0.053777721718676244
