timestamp,simulation_time,position_x,position_y,position_z,velocity_x,velocity_y,velocity_z,attitude_roll,attitude_pitch,attitude_yaw,control_throttle,control_roll,control_pitch,control_yaw,estimated_position_x,estimated_position_y,estimated_position_z,flight_mode,battery_level,setpoint_altitude,setpoint_position_x,setpoint_position_y,setpoint_position_z,position_error,attitude_error,waypoint_index,mission_complete
1761147613.7630231,0.10680699348449707,0.0,0.0,-0.0,0.0,0.0,-0.0,0.0,0.0,0.0,0.0,0.0,0.0,0.0,0.0,0.0,-0.0,manual,85.0,0.0,0.0,0.0,0.0,0.0,0.0,0,0
1761147613.8706663,0.21445012092590332,0.0,0.0,-0.0,0.0,0.0,-0.0,0.0,0.0,0.0,0.0,0.0,0.0,0.0,0.0,0.0,-0.0,manual,85.0,0.0,0.0,0.0,0.0,0.0,0.0,0,0
1761147613.976259,0.32004284858703613,0.0,0.0,-0.0,0.0,0.0,-0.0,0.0,0.0,0.0,0.0,0.0,0.0,0.0,0.0,0.0,-0.0,manual,85.0,0.0,0.0,0.0,0.0,0.0,0.0,0,0
1761147614.084076,0.4278597831726074,0.0,0.0,-0.0,0.0,0.0,-0.0,0.0,0.0,0.0,0.0,0.0,0.0,0.0,0.0,0.0,-0.0,manual,85.0,0.0,0.0,0.0,0.0,0.0,0.0,0,0
1761147614.1909597,0.5347435474395752,0.0,0.0,-0.0,0.0,0.0,-0.0,0.0,0.0,0.0,0.0,0.0,0.0,0.0,0.0,0.0,-0.0,manual,85.0,0.0,0.0,0.0,0.0,0.0,0.0,0,0
1761147614.2972438,0.6410276889801025,0.0,0.0,-0.0,0.0,0.0,-0.0,0.0,0.0,0.0,0.0,0.0,0.0,0.0,0.0,0.0,-0.0,manual,85.0,0.0,0.0,0.0,0.0,0.0,0.0,0,0
1761147614.4195855,0.7633693218231201,0.0,0.0,-0.0,0.0,0.0,-0.0,0.0,0.0,0.0,0.0,0.0,0.0,0.0,0.0,0.0,-0.0,manual,85.0,0.0,0.0,0.0,0.0,0.0,0.0,0,0
1761147614.5243173,0.8681011199951172,0.0,0.0,-0.0,0.0,0.0,-0.0,0.0,0.0,0.0,0.0,0.0,0.0,0.0,0.0,0.0,-0.0,manual,85.0,0.0,0.0,0.0,0.0,0.0,0.0,0,0
1761147614.63059,0.9743738174438477,0.0,0.0,-0.0,0.0,0.0,-0.0,0.0,0.0,0.0,0.0,0.0,0.0,0.0,0.0,0.0,-0.0,manual,85.0,0.0,0.0,0.0,0.0,0.0,0.0,0,0
1761147614.7375548,1.08133864402771,0.0,0.0,-0.0,0.0,0.0,-0.0,0.0,0.0,0.0,0.0,0.0,0.0,0.0,0.0,0.0,-0.0,manual,85.0,0.0,0.0,0.0,0.0,0.0,0.0,0,0
1761147614.8442552,1.1880390644073486,0.0,0.0,-0.0,0.0,0.0,-0.0,0.0,0.0,0.0,0.0,0.0,0.0,0.0,0.0,0.0,-0.0,manual,85.0,0.0,0.0,0.0,0.0,0.0,0.0,0,0
1761147614.9453297,1.2891135215759277,0.0,0.0,-0.0,0.0,0.0,-0.0,0.0,0.0,0.0,0.0,0.0,0.0,0.0,0.0,0.0,-0.0,manual,85.0,0.0,0.0,0.0,0.0,0.0,0.0,0,0
1761147615.0515099,1.3952937126159668,0.0,0.0,-0.0,0.0,0.0,-0.0,0.0,0.0,0.0,0.0,0.0,0.0,0.0,0.0,0.0,-0.0,manual,85.0,0.0,0.0,0.0,0.0,0.0,0.0,0,0
1761147615.1580107,1.5017945766448975,0.0,0.0,-0.0,0.0,0.0,-0.0,0.0,0.0,0.0,0.0,0.0,0.0,0.0,0.0,0.0,-0.0,manual,85.0,0.0,0.0,0.0,0.0,0.0,0.0,0,0
1761147615.2643054,1.6080892086029053,0.0,0.0,-0.0,0.0,0.0,-0.0,0.0,0.0,0.0,0.0,0.0,0.0,0.0,0.0,0.0,-0.0,manual,85.0,0.0,0.0,0.0,0.0,0.0,0.0,0,0
1761147615.3664527,1.7102365493774414,0.0,0.0,-0.0,0.0,0.0,-0.0,0.0,0.0,0.0,0.0,0.0,0.0,0.0,0.0,0.0,-0.0,manual,85.0,0.0,0.0,0.0,0.0,0.0,0.0,0,0
1761147615.4725664,1.8163502216339111,0.0,0.0,-0.0,0.0,0.0,-0.0,0.0,0.0,0.0,0.0,0.0,0.0,0.0,0.0,0.0,-0.0,manual,85.0,0.0,0.0,0.0,0.0,0.0,0.0,0,0
1761147615.5794876,1.9232714176177979,0.0,0.0,-0.0,0.0,0.0,-0.0,0.0,0.0,0.0,0.0,0.0,0.0,0.0,0.0,0.0,-0.0,manual,85.0,0.0,0.0,0.0,0.0,0.0,0.0,0,0
1761147615.6859705,2.029754400253296,0.0,0.0,0.020643779880129654,0.0,0.0,0.30571087163311683,0.0,0.0,0.0,0.35,0.0,0.0,0.0,0.0,0.0,0.020643779880129654,stabilize,85.0,2.0,0.0,0.0,-2.0,1.9793562201198704,0.0,0,0
1761147615.7931452,2.1369290351867676,0.0,0.0,0.056352538989441966,0.0,0.0,0.32170534069281015,0.0,0.0,0.0,0.35,0.0,0.0,0.0,0.0,0.0,0.056352538989441966,stabilize,85.0,2.0,0.0,0.0,-2.0,1.943647461010558,0.0,0,0
1761147615.9002552,2.2440390586853027,0.0,0.0,0.0937846909516316,0.0,0.0,0.3372301072619019,0.0,0.0,0.0,0.35,0.0,0.0,0.0,0.0,0.0,0.0937846909516316,stabilize,85.0,2.0,0.0,0.0,-2.0,1.9062153090483684,0.0,0,0
1761147616.005581,2.349364757537842,0.0,0.0,0.13195627654836276,0.0,0.0,0.34828607494576497,0.0,0.0,0.0,0.35964298837013603,0.0,0.0,0.0,0.0,0.0,0.13195627654836276,stabilize,85.0,2.0,0.0,0.0,-2.0,1.8680437234516372,0.0,0,0
1761147616.1126723,2.456456184387207,0.0,0.0,0.17207959090737843,0.0,0.0,0.35946391071682143,0.0,0.0,0.0,0.35,0.0,0.0,0.0,0.0,0.0,0.17207959090737843,stabilize,85.0,2.0,0.0,0.0,-2.0,1.8279204090926215,0.0,0,0
1761147616.2181013,2.561885118484497,0.0,0.0,0.21277171554897845,0.0,0.0,0.373255664052131,0.0,0.0,0.0,0.35,0.0,0.0,0.0,0.0,0.0,0.21277171554897845,stabilize,85.0,2.0,0.0,0.0,-2.0,1.7872282844510217,0.0,0,0
1761147616.3251853,2.66896915435791,0.0,0.0,0.2555463264106371,0.0,0.0,0.38620238516811367,0.0,0.0,0.0,0.35,0.0,0.0,0.0,0.0,0.0,0.2555463264106371,stabilize,85.0,2.0,0.0,0.0,-2.0,1.744453673589363,0.0,0,0
1761147616.4258785,2.769662380218506,0.0,0.0,0.29629194264741165,0.0,0.0,0.42650683736659345,0.0,0.0,0.0,0.75,0.0,0.0,0.0,0.0,0.0,0.29629194264741165,stabilize,85.0,2.0,0.0,0.0,-2.0,1.7037080573525882,0.0,0,0
1761147616.5314672,2.875251054763794,0.0,0.0,0.3398349159535633,0.0,0.0,0.4350074658942718,0.0,0.0,0.0,0.75,0.0,0.0,0.0,0.0,0.0,0.3398349159535633,stabilize,85.0,2.0,0.0,0.0,-2.0,1.6601650840464366,0.0,0,0
1761147616.6320791,2.975862979888916,0.0,0.0,0.3815211273268788,0.0,0.0,0.3914611475244331,0.0,0.0,0.0,0.35,0.0,0.0,0.0,0.0,0.0,0.3815211273268788,stabilize,85.0,2.0,0.0,0.0,-2.0,1.6184788726731212,0.0,0,0
1761147616.7385416,3.0823254585266113,0.0,0.0,0.4258917654705623,0.0,0.0,0.40152822177188313,0.0,0.0,0.0,0.35,0.0,0.0,0.0,0.0,0.0,0.4258917654705623,stabilize,85.0,2.0,0.0,0.0,-2.0,1.5741082345294377,0.0,0,0
1761147616.845136,3.18891978263855,0.0,0.0,0.47126238436624,0.0,0.0,0.4083970748102024,0.0,0.0,0.0,0.35,0.0,0.0,0.0,0.0,0.0,0.47126238436624,stabilize,85.0,2.0,0.0,0.0,-2.0,1.52873761563376,0.0,0,0
1761147616.9510272,3.2948110103607178,0.0,0.0,0.516557186941889,0.0,0.0,0.3991580886623459,0.0,0.0,0.0,0.35,0.0,0.0,0.0,0.0,0.0,0.516557186941889,stabilize,85.0,2.0,0.0,0.0,-2.0,1.483442813058111,0.0,0,0
1761147617.0576892,3.401473045349121,0.0,0.0,0.5615940638375615,0.0,0.0,0.3975324964460722,0.0,0.0,0.0,0.35,0.0,0.0,0.0,0.0,0.0,0.5615940638375615,stabilize,85.0,2.0,0.0,0.0,-2.0,1.4384059361624386,0.0,0,0
1761147617.1654353,3.509219169616699,0.0,0.0,0.606743039208733,0.0,0.0,0.3981722994906594,0.0,0.0,0.0,0.35,0.0,0.0,0.0,0.0,0.0,0.606743039208733,stabilize,85.0,2.0,0.0,0.0,-2.0,1.393256960791267,0.0,0,0
1761147617.271718,3.615501880645752,0.0,0.0,0.650604399329276,0.0,0.0,0.38355603839258934,0.0,0.0,0.0,0.35,0.0,0.0,0.0,0.0,0.0,0.650604399329276,stabilize,85.0,2.0,0.0,0.0,-2.0,1.349395600670724,0.0,0,0
1761147617.378184,3.721967935562134,0.0,0.0,0.6933199474436311,0.0,0.0,0.37391464106258604,0.0,0.0,0.0,0.35,0.0,0.0,0.0,0.0,0.0,0.6933199474436311,stabilize,85.0,2.0,0.0,0.0,-2.0,1.3066800525563689,0.0,0,0
1761147617.4844503,3.8282341957092285,0.0,0.0,0.7354280141262591,0.0,0.0,0.3781027500109129,0.0,0.0,0.0,0.35,0.0,0.0,0.0,0.0,0.0,0.7354280141262591,stabilize,85.0,2.0,0.0,0.0,-2.0,1.264571985873741,0.0,0,0
1761147617.5917819,3.935565710067749,0.0,0.0,0.7775356011023391,0.0,0.0,0.37424481583219604,0.0,0.0,0.0,0.35,0.0,0.0,0.0,0.0,0.0,0.7775356011023391,stabilize,85.0,2.0,0.0,0.0,-2.0,1.222464398897661,0.0,0,0
1761147617.6986568,4.04244065284729,0.0,0.0,0.8185991658632327,0.0,0.0,0.36482430380245884,0.0,0.0,0.0,0.35,0.0,0.0,0.0,0.0,0.0,0.8185991658632327,stabilize,85.0,2.0,0.0,0.0,-2.0,1.1814008341367672,0.0,0,0
1761147617.8050241,4.148808002471924,0.0,0.0,0.8588775218085911,0.0,0.0,0.35947376906428935,0.0,0.0,0.0,0.35,0.0,0.0,0.0,0.0,0.0,0.8588775218085911,stabilize,85.0,2.0,0.0,0.0,-2.0,1.1411224781914089,0.0,0,0
1761147617.9141068,4.257890701293945,0.0,0.0,0.898412661304321,0.0,0.0,0.375990147984516,0.0,0.0,0.0,0.75,0.0,0.0,0.0,0.0,0.0,0.898412661304321,stabilize,85.0,2.0,0.0,0.0,-2.0,1.101587338695679,0.0,0,0
1761147618.0205007,4.364284515380859,0.0,0.0,0.9362473091945825,0.0,0.0,0.37070525017456196,0.0,0.0,0.0,0.7255518272448546,0.0,0.0,0.0,0.0,0.0,0.9362473091945825,stabilize,85.0,2.0,0.0,0.0,-2.0,1.0637526908054173,0.0,0,0
1761147618.1241875,4.467971324920654,0.0,0.0,0.9720420356011323,0.0,0.0,0.33182733406531234,0.0,0.0,0.0,0.4871422926503584,0.0,0.0,0.0,0.0,0.0,0.9720420356011323,stabilize,85.0,2.0,0.0,0.0,-2.0,1.0279579643988677,0.0,0,0
1761147618.2294545,4.573238372802734,0.0,0.0,1.008222945649493,0.0,0.0,0.3226066541150033,0.0,0.0,0.0,0.35,0.0,0.0,0.0,0.0,0.0,1.008222945649493,stabilize,85.0,2.0,0.0,0.0,-2.0,0.9917770543505069,0.0,0,0
1761147618.335369,4.679152965545654,0.0,0.0,1.0432160322686668,0.0,0.0,0.3106397730355331,0.0,0.0,0.0,0.35,0.0,0.0,0.0,0.0,0.0,1.0432160322686668,stabilize,85.0,2.0,0.0,0.0,-2.0,0.9567839677313332,0.0,0,0
1761147618.4417717,4.785555601119995,0.0,0.0,1.076741056817016,0.0,0.0,0.2957907223947808,0.0,0.0,0.0,0.35,0.0,0.0,0.0,0.0,0.0,1.076741056817016,stabilize,85.0,2.0,0.0,0.0,-2.0,0.9232589431829841,0.0,0,0
1761147618.5460546,4.889838457107544,0.0,0.0,1.1082579160662949,0.0,0.0,0.30108486797663064,0.0,0.0,0.0,0.75,0.0,0.0,0.0,0.0,0.0,1.1082579160662949,stabilize,85.0,2.0,0.0,0.0,-2.0,0.8917420839337051,0.0,0,0
1761147618.6521773,4.9959611892700195,0.0,0.0,1.1398725844382454,0.0,0.0,0.3205771412897148,0.0,0.0,0.0,0.74866060664665,0.0,0.0,0.0,0.0,0.0,1.1398725844382454,stabilize,85.0,2.0,0.0,0.0,-2.0,0.8601274155617546,0.0,0,0
1761147618.7576778,5.10146164894104,0.0,0.0,1.1707584717732082,0.0,0.0,0.3112540727824652,0.0,0.0,0.0,0.75,0.0,0.0,0.0,0.0,0.0,1.1707584717732082,stabilize,85.0,2.0,0.0,0.0,-2.0,0.8292415282267918,0.0,0,0
1761147618.8638725,5.207656383514404,0.0,0.0,1.2011742771457896,0.0,0.0,0.29932231419561617,0.0,0.0,0.0,0.75,0.0,0.0,0.0,0.0,0.0,1.2011742771457896,stabilize,85.0,2.0,0.0,0.0,-2.0,0.7988257228542104,0.0,0,0
1761147618.969062,5.312845945358276,0.0,0.0,1.230691889746181,0.0,0.0,0.2986764981498015,0.0,0.0,0.0,0.75,0.0,0.0,0.0,0.0,0.0,1.230691889746181,stabilize,85.0,2.0,0.0,0.0,-2.0,0.7693081102538191,0.0,0,0
1761147619.0752075,5.418991327285767,0.0,0.0,1.2603494656098881,0.0,0.0,0.29471678509341614,0.0,0.0,0.0,0.719005845708887,0.0,0.0,0.0,0.0,0.0,1.2603494656098881,stabilize,85.0,2.0,0.0,0.0,-2.0,0.7396505343901119,0.0,0,0
1761147619.179149,5.522932767868042,0.0,0.0,1.2885240611409319,0.0,0.0,0.2882275770921975,0.0,0.0,0.0,0.75,0.0,0.0,0.0,0.0,0.0,1.2885240611409319,stabilize,85.0,2.0,0.0,0.0,-2.0,0.7114759388590681,0.0,0,0
1761147619.2848625,5.628646373748779,0.0,0.0,1.3167136858714095,0.0,0.0,0.28322764165002795,0.0,0.0,0.0,0.75,0.0,0.0,0.0,0.0,0.0,1.3167136858714095,stabilize,85.0,2.0,0.0,0.0,-2.0,0.6832863141285905,0.0,0,0
1761147619.3850353,5.728819131851196,0.0,0.0,1.342166489524482,0.0,0.0,0.23114885075233454,0.0,0.0,0.0,0.35,0.0,0.0,0.0,0.0,0.0,1.342166489524482,stabilize,85.0,2.0,0.0,0.0,-2.0,0.657833510475518,0.0,0,0
1761147619.492023,5.835806846618652,0.0,0.0,1.3693022816199543,0.0,0.0,0.23418537713078003,0.0,0.0,0.0,0.35,0.0,0.0,0.0,0.0,0.0,1.3693022816199543,stabilize,85.0,2.0,0.0,0.0,-2.0,0.6306977183800457,0.0,0,0
1761147619.6044457,5.948229551315308,0.0,0.0,1.3967009564011914,0.0,0.0,0.20296527321159352,0.0,0.0,0.0,0.35,0.0,0.0,0.0,0.0,0.0,1.3967009564011914,stabilize,85.0,2.0,0.0,0.0,-2.0,0.6032990435988086,0.0,0,0
1761147619.709743,6.053526878356934,0.0,0.0,1.4218316939074658,0.0,0.0,0.2226039522067543,0.0,0.0,0.0,0.35,0.0,0.0,0.0,0.0,0.0,1.4218316939074658,stabilize,85.0,2.0,0.0,0.0,-2.0,0.5781683060925342,0.0,0,0
1761147619.8158224,6.159606218338013,0.0,0.0,1.4469268517941427,0.0,0.0,0.2167346126066051,0.0,0.0,0.0,0.35,0.0,0.0,0.0,0.0,0.0,1.4469268517941427,stabilize,85.0,2.0,0.0,0.0,-2.0,0.5530731482058573,0.0,0,0
1761147619.9216805,6.2654643058776855,0.0,0.0,1.4711187400395036,0.0,0.0,0.2065381815237357,0.0,0.0,0.0,0.35,0.0,0.0,0.0,0.0,0.0,1.4711187400395036,stabilize,85.0,2.0,0.0,0.0,-2.0,0.5288812599604964,0.0,0,0
1761147620.0271351,6.3709189891815186,0.0,0.0,1.4937571710308781,0.0,0.0,0.1947810588492924,0.0,0.0,0.0,0.35,0.0,0.0,0.0,0.0,0.0,1.4937571710308781,stabilize,85.0,2.0,0.0,0.0,-2.0,0.5062428289691219,0.0,0,0
1761147620.1361108,6.479894638061523,0.0,0.0,1.5156296676537968,0.0,0.0,0.18230001652011557,0.0,0.0,0.0,0.35,0.0,0.0,0.0,0.0,0.0,1.5156296676537968,stabilize,85.0,2.0,0.0,0.0,-2.0,0.4843703323462032,0.0,0,0
1761147620.2417262,6.585510015487671,0.0,0.0,1.5368867402698767,0.0,0.0,0.18171873594491528,0.0,0.0,0.0,0.35,0.0,0.0,0.0,0.0,0.0,1.5368867402698767,stabilize,85.0,2.0,0.0,0.0,-2.0,0.4631132597301233,0.0,0,0
1761147620.3490558,6.692839622497559,0.0,0.0,1.5582119618331252,0.0,0.0,0.17929874422695052,0.0,0.0,0.0,0.35,0.0,0.0,0.0,0.0,0.0,1.5582119618331252,stabilize,85.0,2.0,0.0,0.0,-2.0,0.44178803816687484,0.0,0,0
1761147620.4559026,6.799686431884766,0.0,0.0,1.5788402291673818,0.0,0.0,0.17147444336411183,0.0,0.0,0.0,0.35,0.0,0.0,0.0,0.0,0.0,1.5788402291673818,stabilize,85.0,2.0,0.0,0.0,-2.0,0.42115977083261824,0.0,0,0
1761147620.5626256,6.906409502029419,0.0,0.0,1.5990440801143861,0.0,0.0,0.17056402465984183,0.0,0.0,0.0,0.35,0.0,0.0,0.0,0.0,0.0,1.5990440801143861,stabilize,85.0,2.0,0.0,0.0,-2.0,0.40095591988561385,0.0,0,0
1761147620.6690848,7.012868642807007,0.0,0.0,1.6184960911278017,0.0,0.0,0.16055222017982518,0.0,0.0,0.0,0.35,0.0,0.0,0.0,0.0,0.0,1.6184960911278017,stabilize,85.0,2.0,0.0,0.0,-2.0,0.3815039088721983,0.0,0,0
1761147620.7761362,7.119920015335083,0.0,0.0,1.637265073306217,0.0,0.0,0.14934389365694944,0.0,0.0,0.0,0.35,0.0,0.0,0.0,0.0,0.0,1.637265073306217,stabilize,85.0,2.0,0.0,0.0,-2.0,0.36273492669378293,0.0,0,0
1761147620.8863041,7.230087995529175,0.0,0.0,1.655405397428985,0.0,0.0,0.13936058431043702,0.0,0.0,0.0,0.35,0.0,0.0,0.0,0.0,0.0,1.655405397428985,stabilize,85.0,2.0,0.0,0.0,-2.0,0.34459460257101493,0.0,0,0
1761147620.9930198,7.336803674697876,0.0,0.0,1.6727651405950488,0.0,0.0,0.13955257898008888,0.0,0.0,0.0,0.35,0.0,0.0,0.0,0.0,0.0,1.6727651405950488,stabilize,85.0,2.0,0.0,0.0,-2.0,0.32723485940495123,0.0,0,0
1761147621.1054156,7.449199438095093,0.0,0.0,1.689509730011886,0.0,0.0,0.10972025816657877,0.0,0.0,0.0,0.35,0.0,0.0,0.0,0.0,0.0,1.689509730011886,stabilize,85.0,2.0,0.0,0.0,-2.0,0.310490269988114,0.0,0,0
1761147621.2111716,7.55495548248291,0.0,0.0,1.7049252886704778,0.0,0.0,0.13077681275285333,0.0,0.0,0.0,0.35,0.0,0.0,0.0,0.0,0.0,1.7049252886704778,stabilize,85.0,2.0,0.0,0.0,-2.0,0.29507471132952223,0.0,0,0
1761147621.3172865,7.661070346832275,0.0,0.0,1.7197345338422674,0.0,0.0,0.12013549605257087,0.0,0.0,0.0,0.35,0.0,0.0,0.0,0.0,0.0,1.7197345338422674,stabilize,85.0,2.0,0.0,0.0,-2.0,0.2802654661577326,0.0,0,0
1761147621.4234126,7.767196416854858,0.0,0.0,1.7339944172038038,0.0,0.0,0.1152932538679543,0.0,0.0,0.0,0.35,0.0,0.0,0.0,0.0,0.0,1.7339944172038038,stabilize,85.0,2.0,0.0,0.0,-2.0,0.26600558279619624,0.0,0,0
1761147621.53547,7.87925386428833,0.0,0.0,1.7486696990529527,0.0,0.0,0.09401876107985718,0.0,0.0,0.0,0.35,0.0,0.0,0.0,0.0,0.0,1.7486696990529527,stabilize,85.0,2.0,0.0,0.0,-2.0,0.25133030094704734,0.0,0,0
1761147621.6422253,7.986009120941162,0.0,0.0,1.7629350521820535,0.0,0.0,0.11843161986981396,0.0,0.0,0.0,0.35,0.0,0.0,0.0,0.0,0.0,1.7629350521820535,stabilize,85.0,2.0,0.0,0.0,-2.0,0.23706494781794651,0.0,0,0
1761147621.7488286,8.092612504959106,0.0,0.0,1.7763810114819916,0.0,0.0,0.10972103426937001,0.0,0.0,0.0,0.35,0.0,0.0,0.0,0.0,0.0,1.7763810114819916,stabilize,85.0,2.0,0.0,0.0,-2.0,0.22361898851800843,0.0,0,0
1761147621.8553982,8.199182033538818,0.0,0.0,1.7896607557171325,0.0,0.0,0.08756316616063449,0.0,0.0,0.0,0.35,0.0,0.0,0.0,0.0,0.0,1.7896607557171325,stabilize,85.0,2.0,0.0,0.0,-2.0,0.21033924428286754,0.0,0,0
1761147621.9623919,8.306175708770752,0.0,0.0,1.8017954968638838,0.0,0.0,0.09886559775940373,0.0,0.0,0.0,0.35,0.0,0.0,0.0,0.0,0.0,1.8017954968638838,stabilize,85.0,2.0,0.0,0.0,-2.0,0.19820450313611615,0.0,0,0
1761147622.0690222,8.412806034088135,0.0,0.0,1.813907162366715,0.0,0.0,0.09824805046658663,0.0,0.0,0.0,0.35,0.0,0.0,0.0,0.0,0.0,1.813907162366715,stabilize,85.0,2.0,0.0,0.0,-2.0,0.1860928376332851,0.0,0,0
1761147622.1758342,8.519618034362793,0.0,0.0,1.8255091013111855,0.0,0.0,0.08278187407585205,0.0,0.0,0.0,0.35,0.0,0.0,0.0,0.0,0.0,1.8255091013111855,stabilize,85.0,2.0,0.0,0.0,-2.0,0.1744908986888145,0.0,0,0
1761147622.2824292,8.626213073730469,0.0,0.0,1.8368230456097556,0.0,0.0,0.08975442202354489,0.0,0.0,0.0,0.35,0.0,0.0,0.0,0.0,0.0,1.8368230456097556,stabilize,85.0,2.0,0.0,0.0,-2.0,0.16317695439024438,0.0,0,0
1761147622.3920648,8.735848665237427,0.0,0.0,1.8483029316815482,0.0,0.0,0.09055646567199693,0.0,0.0,0.0,0.35,0.0,0.0,0.0,0.0,0.0,1.8483029316815482,stabilize,85.0,2.0,0.0,0.0,-2.0,0.15169706831845176,0.0,0,0
1761147622.496802,8.840585947036743,0.0,0.0,1.8587210813886639,0.0,0.0,0.07412535980951483,0.0,0.0,0.0,0.35,0.0,0.0,0.0,0.0,0.0,1.8587210813886639,stabilize,85.0,2.0,0.0,0.0,-2.0,0.14127891861133612,0.0,0,0
1761147622.6024256,8.94620943069458,-0.002581864914614463,0.0,1.8610310869452646,-0.10654153647808468,0.0,0.04064427553811882,0.0,0.2927346065676746,0.0,0.75,0.0,-0.25,0.0,-0.002581864914614463,0.0,1.8610310869452646,auto,85.0,1.8576188704318837,10.0,0.0,0.0,10.174236122230278,0.2927346065676746,0,0
1761147622.7089207,9.052704572677612,-0.046913011848712736,0.0,1.8601057872480435,-0.9409311743297946,0.0,-0.10467219533852948,0.0,1.2371850945172538,0.0,0.75,0.0,-0.25,0.0,-0.046913011848712736,0.0,1.8601057872480435,auto,85.0,1.857746015333769,10.0,0.0,0.0,10.21765406575348,1.2371850945172538,0,0
1761147622.817049,9.16083288192749,-0.22124665843320995,0.0,1.7808159456062767,-2.1236404397304183,0.0,-1.7148392681619886,0.0,2.9137322548281523,0.0,0.75,0.0,-0.025,0.0,-0.22124665843320995,0.0,1.7808159456062767,auto,85.0,1.7947548641522506,10.0,0.0,0.0,10.375219934278869,2.9137322548281523,0,0
1761147622.9205647,9.26434850692749,-0.41698956140463833,0.0,1.486986166045497,-1.3161543683004049,0.0,-3.6508666316296257,0.0,-1.5520949826845085,0.0,0.75,0.0,0.025,0.0,-0.41698956140463833,0.0,1.486986166045497,auto,85.0,1.52207891097345,10.0,0.0,0.0,10.522585204236831,1.5520949826845085,0,0
1761147623.0357149,9.379498720169067,-0.4988468816704411,0.0,1.0857517438919044,-0.5403162863180105,0.0,-3.6327530933806615,0.0,0.2546088219714921,0.0,0.75,0.0,-0.025,0.0,-0.4988468816704411,0.0,1.0857517438919044,auto,85.0,1.123499068845365,10.0,0.0,0.0,10.554839775862325,0.25460882197149215,0,0
1761147623.1329162,9.476700067520142,-0.6074360790428605,0.0,0.695006019475216,-1.6658001607286557,0.0,-4.132331902840164,0.0,2.109727795693794,0.0,0.75,0.0,-0.025,0.0,-0.6074360790428605,0.0,0.695006019475216,auto,85.0,0.7325708544707451,10.0,0.0,0.0,10.630180315407964,2.109727795693794,0,0
1761147623.2393856,9.58316946029663,-0.8095229650877968,0.0,0.14137947511151328,-1.7039402628276823,0.0,-6.279015251177476,0.0,-2.2405382118285497,0.0,0.75,0.0,0.025,0.0,-0.8095229650877968,0.0,0.14137947511151328,auto,85.0,0.20118025768461242,10.0,0.0,0.0,10.81044748790462,2.2405382118285497,0,0
1761147623.3454232,9.689207077026367,-0.9192930029724978,0.0,-0.5726143808185258,-0.4834713142054793,0.0,-6.787462234306809,0.0,-0.3610996510756354,0.0,0.75,0.0,-0.025,0.0,-0.9192930029724978,0.0,-0.5726143808185258,auto,85.0,-0.5018401428666277,10.0,0.0,0.0,10.934296818446276,0.3610996510756354,0,0
1761147623.452613,9.796396970748901,-0.9887737489469326,0.0,-1.2785147058598558,-1.1610479062295453,0.0,-6.625220410803427,0.0,1.566648373129972,0.0,0.75,0.0,-0.025,0.0,-0.9887737489469326,0.0,-1.2785147058598558,auto,85.0,-1.2110876615364936,10.0,0.0,0.0,11.062899636110107,1.566648373129972,0,0
1761147623.5590281,9.902812004089355,-1.164863848314486,0.0,-2.068565435491658,-1.7810368054652317,0.0,-8.441392367428552,0.0,-2.728692969890357,0.0,0.75,0.0,0.025,0.0,-1.164863848314486,0.0,-2.068565435491658,auto,85.0,-1.9833799407986124,10.0,0.0,0.0,11.354873302345146,2.728692969890357,0,0
1761147623.6657968,10.009580612182617,-1.2914464230331884,0.0,-3.0407926858147647,-0.5250793742485758,0.0,-9.335522332787223,0.0,-0.7621792208614899,0.0,0.75,0.0,0.025,0.0,-1.2914464230331884,0.0,-3.0407926858147647,auto,85.0,-2.9441034227937566,10.0,0.0,0.0,11.693724063887156,0.7621792208614899,0,0
1761147623.7719,10.115683794021606,-1.3376473845651136,0.0,-3.9995550505168342,-0.7607672021882785,0.0,-8.833292100110103,0.0,1.1918388627554202,0.0,0.75,0.0,-0.025,0.0,-1.3376473845651136,0.0,-3.9995550505168342,auto,85.0,-3.9088739170497413,10.0,0.0,0.0,12.022424415185602,1.1918388627554202,0,0
1761147623.8790174,10.222801208496094,-1.4830535998850125,0.0,-5.002323855918428,-1.6784344122350259,0.0,-10.226697948291505,0.0,-3.041162536613663,0.0,0.75,0.0,-0.025,0.0,-1.4830535998850125,0.0,-5.002323855918428,auto,85.0,-4.903523567134414,10.0,0.0,0.0,12.525324903463492,3.041162536613663,0,0
1761147623.9865303,10.33031415939331,-1.6109833934480218,0.0,-6.180770415212018,-0.5199148070869284,0.0,-11.272238636569414,0.0,-0.9835524964938941,0.0,0.75,0.0,0.025,0.0,-1.6109833934480218,0.0,-6.180770415212018,auto,85.0,-6.059351427288565,10.0,0.0,0.0,13.15358727832396,0.9835524964938941,0,0
1761147624.093081,10.436864852905273,-1.6434023380963783,0.0,-7.344577719316258,-0.5259247323812131,0.0,-10.593241406833432,0.0,1.0278450717763885,0.0,0.75,0.0,-0.025,0.0,-1.6434023380963783,0.0,-7.344577719316258,auto,85.0,-7.227610083946008,10.0,0.0,0.0,13.766322670991881,1.0278450717763885,0,0
1761147624.195723,10.539506912231445,-1.7587568481522877,0.0,-8.466088908614974,-1.5269518180499422,0.0,-11.62044699217263,0.0,3.0354048370984694,0.0,0.75,0.0,-0.025,0.0,-1.7587568481522877,0.0,-8.466088908614974,auto,85.0,-8.336439265864334,10.0,0.0,0.0,14.489410754842373,3.0354048370984694,0,0
1761147624.3028316,10.646615505218506,-1.8803828218879057,0.0,-9.789810697092339,-0.4882836255911467,0.0,-12.706125746998955,0.0,-1.1396377000996147,0.0,0.75,0.0,0.025,0.0,-1.8803828218879057,0.0,-9.789810697092339,auto,85.0,-9.649835107428197,10.0,0.0,0.0,15.394281064067684,1.1396377000996147,0,0
1761147624.4100277,10.753811597824097,-1.9012739701048758,0.0,-11.110568719399662,-0.3526707682972064,0.0,-11.905863131117412,0.0,0.9428243092458173,0.0,0.75,0.0,-0.025,0.0,-1.9012739701048758,0.0,-11.110568719399662,auto,85.0,-10.979784711433142,10.0,0.0,0.0,16.281432964576496,0.9428243092458173,0,0
1761147624.5178146,10.861598491668701,-2.0060367422400938,0.0,-12.422429179071397,-1.375352991180159,0.0,-12.839945317116136,0.0,3.1122058696163664,0.0,0.75,0.0,-0.025,0.0,-2.0060367422400938,0.0,-12.422429179071397,auto,85.0,-12.287091736266758,10.0,0.0,0.0,17.276043093401437,3.1122058696163664,0,0
1761147624.618624,10.96240782737732,-2.1045854145276732,0.0,-13.779311899608315,-0.36153156212225857,0.0,-13.710247522379554,0.0,-1.1196024414988157,0.0,0.75,0.0,0.025,0.0,-2.1045854145276732,0.0,-13.779311899608315,auto,85.0,-13.627608573797291,10.0,0.0,0.0,18.34094938884799,1.1196024414988157,0,0
1761147624.7254198,11.069203615188599,-2.114887812866828,0.0,-15.196108321993323,-0.2908693028348324,0.0,-12.817141193441694,0.0,1.0180769553252695,0.0,0.75,0.0,-0.025,0.0,-2.114887812866828,0.0,-15.196108321993323,auto,85.0,-15.055186734185392,10.0,0.0,0.0,19.434305103401663,1.0180769553252695,0,0
1761147624.8314161,11.17519998550415,-2.2094863221760477,0.0,-16.58263974628596,-1.24500969704616,0.0,-13.725317831275994,0.0,-3.0738360302757237,0.0,0.75,0.0,-0.025,0.0,-2.2094863221760477,0.0,-16.58263974628596,auto,85.0,-16.433493371380415,10.0,0.0,0.0,20.592607829182462,3.0738360302757237,0,0
1761147624.9375422,11.281326055526733,-2.291056720242193,0.0,-18.096109312579646,-0.12178243835657966,0.0,-14.355187637586365,0.0,-0.8799291137673053,0.0,0.75,0.0,0.025,0.0,-2.291056720242193,0.0,-18.096109312579646,auto,85.0,-17.94629519293354,10.0,0.0,0.0,21.875539937405946,0.8799291137673053,0,0
1761147625.0448043,11.388588190078735,-2.2929533351165925,0.0,-19.579881334442973,-0.3721953303769253,0.0,-13.433486026467667,0.0,1.3230003092873133,0.0,0.75,0.0,-0.025,0.0,-2.2929533351165925,0.0,-19.579881334442973,auto,85.0,-19.431929862578002,10.0,0.0,0.0,23.11900635343618,1.3230003092873133,0,0
1761147625.1510315,11.494815349578857,-2.388900878086179,0.0,-21.050940740239565,-1.0596259926024643,0.0,-14.543673204671782,0.0,-2.703120664037965,0.0,0.75,0.0,0.025,0.0,-2.388900878086179,0.0,-21.050940740239565,auto,85.0,-20.893475354350457,10.0,0.0,0.0,24.425948722948764,2.703120664037965,0,0
1761147625.2575839,11.601367712020874,-2.4378103461846465,0.0,-22.631776918053255,0.1297009373902812,0.0,-14.650468206959482,0.0,-0.4534263855283287,0.0,0.75,0.0,-0.006392716766994155,0.0,-2.4378103461846465,0.0,-22.631776918053255,auto,85.0,-22.472274196068582,10.0,0.0,0.0,25.824338378285432,0.4534263855283287,0,0
1761147625.3597727,11.703556537628174,-2.4401669418260674,0.0,-24.07721898764444,-0.529157381344521,0.0,-13.91493427982889,0.0,1.7114184589664199,0.0,0.75,0.0,-0.025,0.0,-2.4401669418260674,0.0,-24.07721898764444,auto,85.0,-23.933758403449037,10.0,0.0,0.0,27.10111118975545,1.7114184589664199,0,0
1761147625.4664156,11.810199499130249,-2.5352804349451596,0.0,-25.622280983029512,-0.7786917133349818,0.0,-15.16296678690454,0.0,-2.2440173739613134,0.0,0.75,0.0,0.025,0.0,-2.5352804349451596,0.0,-25.622280983029512,auto,85.0,-25.456899413631934,10.0,0.0,0.0,28.52427980433572,2.2440173739613134,0,0
1761147625.5728781,11.916661977767944,-2.5508910601932935,0.0,-27.23430161961857,0.2529316196243467,0.0,-14.702679733077154,0.0,0.04742673132059064,0.0,0.75,0.0,-0.025,0.0,-2.5508910601932935,0.0,-27.23430161961857,auto,85.0,-27.073028303092332,10.0,0.0,0.0,29.987198120417965,0.04742673132059064,0,0
1761147625.6806514,12.02443528175354,-2.572485849115446,0.0,-28.781136163024854,-0.8114557526374171,0.0,-14.477331844923345,0.0,2.4074819805329417,0.0,0.75,0.0,-0.025,0.0,-2.572485849115446,0.0,-28.781136163024854,auto,85.0,-28.623075832127963,10.0,0.0,0.0,31.407343078662116,2.4074819805329417,0,0
1761147625.7871027,12.130886554718018,-2.653165557813712,0.0,-30.39255985565974,-0.2643690202552431,0.0,-15.553468470243018,0.0,-1.494711657171435,0.0,0.75,0.0,0.025,0.0,-2.653165557813712,0.0,-30.39255985565974,auto,85.0,-30.223889562703057,10.0,0.0,0.0,32.92127417359941,1.494711657171435,0,0
1761147625.8939955,12.237779378890991,-2.637500432402972,0.0,-32.00805868413493,0.08479591126609366,0.0,-14.542604174718052,0.0,0.8590770836422772,0.0,0.75,0.0,-0.025,0.0,-2.637500432402972,0.0,-32.00805868413493,auto,85.0,-31.846693810755596,10.0,0.0,0.0,34.41253024562435,0.8590770836422772,0,0
1761147626.0006745,12.34445834159851,-2.6927844590554693,0.0,-33.57156254894942,-0.8729567113448183,0.0,-15.197016108695315,0.0,-3.010182967106634,0.0,0.75,0.0,-0.025,0.0,-2.6927844590554693,0.0,-33.57156254894942,auto,85.0,-33.40665353229868,10.0,0.0,0.0,35.89089841870865,3.010182967106634,0,0
1761147626.1101947,12.453978538513184,-2.730934273819606,0.0,-35.27695367932907,0.26442558736397603,0.0,-15.4260701993775,0.0,-0.5330221388730263,0.0,0.75,0.0,0.025,0.0,-2.730934273819606,0.0,-35.27695367932907,auto,85.0,-35.11035200983745,10.0,0.0,0.0,37.503868445506306,0.5330221388730263,0,0
1761147626.2158859,12.559669733047485,-2.7190822963306918,0.0,-36.84891589628443,-0.4229605555335967,0.0,-14.640651750173939,0.0,1.856160170799063,0.0,0.75,0.0,-0.025,0.0,-2.7190822963306918,0.0,-36.84891589628443,auto,85.0,-36.68963821870545,10.0,0.0,0.0,38.98227362779493,1.856160170799063,0,0
1761147626.3210292,12.664813041687012,-2.791372327567426,0.0,-38.44849839727727,-0.4530622589861232,0.0,-15.791973119410068,0.0,-1.9873908009269392,0.0,0.75,0.0,0.025,0.0,-2.791372327567426,0.0,-38.44849839727727,auto,85.0,-38.278292988487834,10.0,0.0,0.0,40.52044218697385,1.9873908009269392,0,0
1761147626.4281309,12.771914720535278,-2.778794717657404,0.0,-40.11490851665621,0.3111816368108087,0.0,-14.995064299446742,0.0,0.45998748757653385,0.0,0.75,0.0,-0.025,0.0,-2.778794717657404,0.0,-40.11490851665621,auto,85.0,-39.94910666899163,10.0,0.0,0.0,42.10111019599989,0.45998748757653385,0,0
1761147626.5355344,12.879318237304688,-2.8078039040348046,0.0,-41.71166346255758,-0.7673756509889109,0.0,-15.246070420761392,0.0,2.9643590511719817,0.0,0.75,0.0,-0.025,0.0,-2.8078039040348046,0.0,-41.71166346255758,auto,85.0,-41.54800049308161,10.0,0.0,0.0,43.63373362042115,2.9643590511719817,0,0
1761147626.641303,12.985086917877197,-2.849130780886806,0.0,-43.37561032319108,0.2188288390527835,0.0,-15.761200305194778,0.0,-0.8378971177607637,0.0,0.75,0.0,0.025,0.0,-2.849130780886806,0.0,-43.37561032319108,auto,85.0,-43.21094757431459,10.0,0.0,0.0,45.23874150254021,0.8378971177607637,0,0
1761147626.7469792,13.090763092041016,-2.824387409789637,0.0,-44.97938392862364,-0.21169038147993863,0.0,-14.806647174002665,0.0,1.6269044804450639,0.0,0.75,0.0,-0.025,0.0,-2.824387409789637,0.0,-44.97938392862364,auto,85.0,-44.81791387159501,10.0,0.0,0.0,46.771892104499024,1.6269044804450639,0,0
1761147626.849837,13.193620920181274,-2.884240985389384,0.0,-46.55163904349547,-0.4772550717888234,0.0,-15.877946393966255,0.0,-2.1955837998377827,0.0,0.75,0.0,0.025,0.0,-2.884240985389384,0.0,-46.55163904349547,auto,85.0,-46.26752004477692,10.0,0.0,0.0,48.301747001588666,2.1955837998377827,0,0
1761147626.9552906,13.299074411392212,-2.8721099705500985,0.0,-48.21270937674609,0.4025703782953415,0.0,-15.229762883232796,0.0,0.29129870951784054,0.0,0.75,0.0,-0.025,0.0,-2.8721099705500985,0.0,-48.21270937674609,auto,85.0,-48.04478148983773,10.0,0.0,0.0,49.90146852088139,0.29129870951784054,0,0
1761147627.0613985,13.405182361602783,-2.886714519464688,0.0,-49.805063115141785,-0.6698298837466989,0.0,-15.300370723169822,0.0,2.8392494229577165,0.0,0.75,0.0,-0.025,0.0,-2.886714519464688,0.0,-49.805063115141785,auto,85.0,-49.63766117883178,10.0,0.0,0.0,51.44523032322276,2.8392494229577165,0,0
1761147627.1680603,13.511844158172607,-2.9233911530813463,0.0,-51.49129878854743,0.25713416120153215,0.0,-15.862445668291242,0.0,-0.8550557218859207,0.0,0.75,0.0,0.025,0.0,-2.9233911530813463,0.0,-51.49129878854743,auto,85.0,-51.31726297645334,10.0,0.0,0.0,53.08830275896007,0.8550557218859207,0,0
1761147627.274212,13.617995738983154,-2.8954597075302844,0.0,-53.11294433389987,-0.19945265542856813,0.0,-14.92738825955707,0.0,1.7078141421173256,0.0,0.75,0.0,-0.025,0.0,-2.8954597075302844,0.0,-53.11294433389987,auto,85.0,-52.9508707160145,10.0,0.0,0.0,54.65599451921521,1.7078141421173256,0,0
1761147627.3803678,13.724151611328125,-2.9497168279079102,0.0,-54.75284072712934,-0.2959115293406891,0.0,-16.00611012097175,0.0,-1.9494733991178927,0.0,0.75,0.0,0.025,0.0,-2.9497168279079102,0.0,-54.75284072712934,auto,85.0,-54.57981725086169,10.0,0.0,0.0,56.26338715020093,1.9494733991178927,0,0
1761147627.4871655,13.830949306488037,-2.924732170185015,0.0,-56.43173241477815,0.33332369317172306,0.0,-15.138745293286622,0.0,0.6595473289766219,0.0,0.75,0.0,-0.025,0.0,-2.924732170185015,0.0,-56.43173241477815,auto,85.0,-56.26597525131316,10.0,0.0,0.0,57.89291083547396,0.6595473289766219,0,0
1761147627.5883548,13.932138681411743,-2.948681236849203,0.0,-57.96178450507668,-0.6289474356302529,0.0,-15.554520294314027,0.0,-3.1013394123935183,0.0,0.75,0.0,-0.025,0.0,-2.948681236849203,0.0,-57.96178450507668,auto,85.0,-57.78907680945439,10.0,0.0,0.0,59.390544775969836,3.1013394123935183,0,0
1761147627.6945205,14.038304328918457,-2.9649617560460286,0.0,-59.650382299285276,0.4165811543451532,0.0,-15.731881926667443,0.0,-0.4560146144746487,0.0,0.75,0.0,-0.025,0.0,-2.9649617560460286,0.0,-59.650382299285276,auto,85.0,-59.47809980865893,10.0,0.0,0.0,61.04308594580243,0.4560146144746487,0,0
1761147627.80137,14.145153760910034,-2.946502583228402,0.0,-61.27539088276188,-0.40445322994885125,0.0,-15.114965064933422,0.0,2.2213348456607886,0.0,0.75,0.0,-0.025,0.0,-2.946502583228402,0.0,-61.27539088276188,auto,85.0,-61.111550153243556,10.0,0.0,0.0,62.628152271744355,2.2213348456607886,0,0
