timestamp,simulation_time,position_x,position_y,position_z,velocity_x,velocity_y,velocity_z,attitude_roll,attitude_pitch,attitude_yaw,control_throttle,control_roll,control_pitch,control_yaw,estimated_position_x,estimated_position_y,estimated_position_z,flight_mode,battery_level,setpoint_altitude,setpoint_position_x,setpoint_position_y,setpoint_position_z,position_error,attitude_error,waypoint_index,mission_complete
1761218659.7914295,0.10666203498840332,0.0,0.0,-0.0,0.0,0.0,-0.0,0.0,0.0,0.0,0.0,0.0,0.0,0.0,0.0,0.0,-0.0,manual,85.0,0.0,0.0,0.0,0.0,0.0,0.0,0,0
1761218659.8942006,0.20943307876586914,0.0,0.0,-0.0,0.0,0.0,-0.0,0.0,0.0,0.0,0.0,0.0,0.0,0.0,0.0,0.0,-0.0,manual,85.0,0.0,0.0,0.0,0.0,0.0,0.0,0,0
1761218659.9985824,0.3138148784637451,0.0,0.0,-0.0,0.0,0.0,-0.0,0.0,0.0,0.0,0.0,0.0,0.0,0.0,0.0,0.0,-0.0,manual,85.0,0.0,0.0,0.0,0.0,0.0,0.0,0,0
1761218660.1010807,0.41631317138671875,0.0,0.0,-0.0,0.0,0.0,-0.0,0.0,0.0,0.0,0.0,0.0,0.0,0.0,0.0,0.0,-0.0,manual,85.0,0.0,0.0,0.0,0.0,0.0,0.0,0,0
1761218660.2032182,0.5184507369995117,0.0,0.0,-0.0,0.0,0.0,-0.0,0.0,0.0,0.0,0.0,0.0,0.0,0.0,0.0,0.0,-0.0,manual,85.0,0.0,0.0,0.0,0.0,0.0,0.0,0,0
1761218660.3078198,0.6230523586273193,0.0,0.0,-0.0,0.0,0.0,-0.0,0.0,0.0,0.0,0.0,0.0,0.0,0.0,0.0,0.0,-0.0,manual,85.0,0.0,0.0,0.0,0.0,0.0,0.0,0,0
1761218660.414515,0.7297475337982178,0.0,0.0,-0.0,0.0,0.0,-0.0,0.0,0.0,0.0,0.0,0.0,0.0,0.0,0.0,0.0,-0.0,manual,85.0,0.0,0.0,0.0,0.0,0.0,0.0,0,0
1761218660.5187654,0.8339979648590088,0.0,0.0,-0.0,0.0,0.0,-0.0,0.0,0.0,0.0,0.0,0.0,0.0,0.0,0.0,0.0,-0.0,manual,85.0,0.0,0.0,0.0,0.0,0.0,0.0,0,0
1761218660.6210644,0.9362969398498535,0.0,0.0,-0.0,0.0,0.0,-0.0,0.0,0.0,0.0,0.0,0.0,0.0,0.0,0.0,0.0,-0.0,manual,85.0,0.0,0.0,0.0,0.0,0.0,0.0,0,0
1761218660.7248049,1.0400373935699463,0.0,0.0,-0.0,0.0,0.0,-0.0,0.0,0.0,0.0,0.0,0.0,0.0,0.0,0.0,0.0,-0.0,manual,85.0,0.0,0.0,0.0,0.0,0.0,0.0,0,0
1761218660.8327093,1.1479418277740479,0.0,0.0,-0.0,0.0,0.0,-0.0,0.0,0.0,0.0,0.0,0.0,0.0,0.0,0.0,0.0,-0.0,manual,85.0,0.0,0.0,0.0,0.0,0.0,0.0,0,0
1761218660.936356,1.2515885829925537,0.0,0.0,-0.0,0.0,0.0,-0.0,0.0,0.0,0.0,0.0,0.0,0.0,0.0,0.0,0.0,-0.0,manual,85.0,0.0,0.0,0.0,0.0,0.0,0.0,0,0
1761218661.0419319,1.3571643829345703,0.0,0.0,-0.0,0.0,0.0,-0.0,0.0,0.0,0.0,0.0,0.0,0.0,0.0,0.0,0.0,-0.0,manual,85.0,0.0,0.0,0.0,0.0,0.0,0.0,0,0
1761218661.147442,1.462674617767334,0.0,0.0,-0.0,0.0,0.0,-0.0,0.0,0.0,0.0,0.0,0.0,0.0,0.0,0.0,0.0,-0.0,manual,85.0,0.0,0.0,0.0,0.0,0.0,0.0,0,0
1761218661.2528934,1.5681259632110596,0.0,0.0,-0.0,0.0,0.0,-0.0,0.0,0.0,0.0,0.0,0.0,0.0,0.0,0.0,0.0,-0.0,manual,85.0,0.0,0.0,0.0,0.0,0.0,0.0,0,0
1761218661.3567688,1.6720013618469238,0.0,0.0,-0.0,0.0,0.0,-0.0,0.0,0.0,0.0,0.0,0.0,0.0,0.0,0.0,0.0,-0.0,manual,85.0,0.0,0.0,0.0,0.0,0.0,0.0,0,0
1761218661.460164,1.7753965854644775,0.0,0.0,0.011672169250856686,0.0,0.0,0.44414307715840096,0.0,0.0,0.0,0.95,0.0,0.0,0.0,0.0,0.0,0.011672169250856686,stabilize,85.0,2.0,0.0,0.0,-2.0,1.9883278307491432,0.0,0,0
1761218661.5646474,1.8798799514770508,0.0,0.0,0.08974793739212401,0.0,0.0,0.9218371827222425,0.0,0.0,0.0,0.934319851287039,0.0,0.0,0.0,0.0,0.0,0.08974793739212401,stabilize,85.0,2.0,0.0,0.0,-2.0,1.910252062607876,0.0,0,0
1761218661.668773,1.9840054512023926,0.0,0.0,0.18712001057361943,0.0,0.0,1.0369020951251091,0.0,0.0,0.0,0.95,0.0,0.0,0.0,0.0,0.0,0.18712001057361943,stabilize,85.0,2.0,0.0,0.0,-2.0,1.8128799894263805,0.0,0,0
1761218661.7952702,2.1105027198791504,0.0,0.0,0.307512262939682,0.0,0.0,0.7865765798223547,0.0,0.0,0.0,0.3785071194792615,0.0,0.0,0.0,0.0,0.0,0.307512262939682,stabilize,85.0,2.0,0.0,0.0,-2.0,1.692487737060318,0.0,0,0
1761218661.8991692,2.2144017219543457,0.0,0.0,0.4126519512994503,0.0,0.0,1.063169629248444,0.0,0.0,0.0,0.35,0.0,0.0,0.0,0.0,0.0,0.4126519512994503,stabilize,85.0,2.0,0.0,0.0,-2.0,1.5873480487005498,0.0,0,0
1761218662.0026329,2.3178653717041016,0.0,0.0,0.5297972465436007,0.0,0.0,1.1275983503828102,0.0,0.0,0.0,0.35,0.0,0.0,0.0,0.0,0.0,0.5297972465436007,stabilize,85.0,2.0,0.0,0.0,-2.0,1.4702027534563993,0.0,0,0
1761218662.1071355,2.422368049621582,0.0,0.0,0.6486271485601173,0.0,0.0,1.1719977242058348,0.0,0.0,0.0,0.9182318685161225,0.0,0.0,0.0,0.0,0.0,0.6486271485601173,stabilize,85.0,2.0,0.0,0.0,-2.0,1.3513728514398826,0.0,0,0
1761218662.210599,2.525831460952759,0.0,0.0,0.7624312979489892,0.0,0.0,1.0406138537781329,0.0,0.0,0.0,0.35,0.0,0.0,0.0,0.0,0.0,0.7624312979489892,stabilize,85.0,2.0,0.0,0.0,-2.0,1.2375687020510107,0.0,0,0
1761218662.3165786,2.6318111419677734,0.0,0.0,0.8736950407374096,0.0,0.0,0.9871073017826772,0.0,0.0,0.0,0.35,0.0,0.0,0.0,0.0,0.0,0.8736950407374096,stabilize,85.0,2.0,0.0,0.0,-2.0,1.1263049592625904,0.0,0,0
1761218662.4212558,2.7364883422851562,0.0,0.0,0.9778610689128316,0.0,0.0,0.9309240821942752,0.0,0.0,0.0,0.35300996623132946,0.0,0.0,0.0,0.0,0.0,0.9778610689128316,stabilize,85.0,2.0,0.0,0.0,-2.0,1.0221389310871682,0.0,0,0
1761218662.5271995,2.8424320220947266,0.0,0.0,1.07714717911841,0.0,0.0,0.9247823858796402,0.0,0.0,0.0,0.35,0.0,0.0,0.0,0.0,0.0,1.07714717911841,stabilize,85.0,2.0,0.0,0.0,-2.0,0.92285282088159,0.0,0,0
1761218662.6312509,2.9464833736419678,0.0,0.0,1.167295808760163,0.0,0.0,0.8807847022158622,0.0,0.0,0.0,0.8860958975030044,0.0,0.0,0.0,0.0,0.0,1.167295808760163,stabilize,85.0,2.0,0.0,0.0,-2.0,0.832704191239837,0.0,0,0
1761218662.7345877,3.0498201847076416,0.0,0.0,1.250487551921741,0.0,0.0,0.7514636392718936,0.0,0.0,0.0,0.4313384249975044,0.0,0.0,0.0,0.0,0.0,1.250487551921741,stabilize,85.0,2.0,0.0,0.0,-2.0,0.7495124480782589,0.0,0,0
1761218662.8389585,3.154191017150879,0.0,0.0,1.3280308532428526,0.0,0.0,0.7188571490029201,0.0,0.0,0.0,0.35,0.0,0.0,0.0,0.0,0.0,1.3280308532428526,stabilize,85.0,2.0,0.0,0.0,-2.0,0.6719691467571474,0.0,0,0
1761218662.9453855,3.260617971420288,0.0,0.0,1.4007078057547728,0.0,0.0,0.6289837307668749,0.0,0.0,0.0,0.35,0.0,0.0,0.0,0.0,0.0,1.4007078057547728,stabilize,85.0,2.0,0.0,0.0,-2.0,0.5992921942452272,0.0,0,0
1761218663.050789,3.3660216331481934,0.0,0.0,1.4667599230592605,0.0,0.0,0.5724196079728627,0.0,0.0,0.0,0.42701258474521975,0.0,0.0,0.0,0.0,0.0,1.4667599230592605,stabilize,85.0,2.0,0.0,0.0,-2.0,0.5332400769407395,0.0,0,0
1761218663.1571727,3.472405195236206,0.0,0.0,1.5286830392337734,0.0,0.0,0.5756105310899317,0.0,0.0,0.0,0.35,0.0,0.0,0.0,0.0,0.0,1.5286830392337734,stabilize,85.0,2.0,0.0,0.0,-2.0,0.47131696076622664,0.0,0,0
1761218663.2634811,3.5787136554718018,0.0,0.0,1.5842285068855535,0.0,0.0,0.5130510934939054,0.0,0.0,0.0,0.6893625915498129,0.0,0.0,0.0,0.0,0.0,1.5842285068855535,stabilize,85.0,2.0,0.0,0.0,-2.0,0.4157714931144465,0.0,0,0
1761218663.3687575,3.683990001678467,0.0,0.0,1.634614995820992,0.0,0.0,0.4817528535257976,0.0,0.0,0.0,0.35,0.0,0.0,0.0,0.0,0.0,1.634614995820992,stabilize,85.0,2.0,0.0,0.0,-2.0,0.3653850041790081,0.0,0,0
1761218663.4743319,3.789564371109009,0.0,0.0,1.6801422115974856,0.0,0.0,0.38433499276185257,0.0,0.0,0.0,0.35,0.0,0.0,0.0,0.0,0.0,1.6801422115974856,stabilize,85.0,2.0,0.0,0.0,-2.0,0.31985778840251444,0.0,0,0
1761218663.579792,3.895024538040161,0.0,0.0,1.7220787083113298,0.0,0.0,0.3742662890086357,0.0,0.0,0.0,0.35,0.0,0.0,0.0,0.0,0.0,1.7220787083113298,stabilize,85.0,2.0,0.0,0.0,-2.0,0.2779212916886702,0.0,0,0
1761218663.6848278,4.000060319900513,0.0,0.0,1.759268049315941,0.0,0.0,0.3184478874381696,0.0,0.0,0.0,0.4992812172036683,0.0,0.0,0.0,0.0,0.0,1.759268049315941,stabilize,85.0,2.0,0.0,0.0,-2.0,0.24073195068405906,0.0,0,0
1761218663.7860851,4.101317644119263,0.0,0.0,1.7912230283217616,0.0,0.0,0.31248884950342465,0.0,0.0,0.0,0.35,0.0,0.0,0.0,0.0,0.0,1.7912230283217616,stabilize,85.0,2.0,0.0,0.0,-2.0,0.2087769716782384,0.0,0,0
1761218663.8898988,4.20513129234314,0.0,0.0,1.8210330144308415,0.0,0.0,0.2508223371545556,0.0,0.0,0.0,0.35,0.0,0.0,0.0,0.0,0.0,1.8210330144308415,stabilize,85.0,2.0,0.0,0.0,-2.0,0.17896698556915847,0.0,0,0
1761218663.9936907,4.308923244476318,0.0,0.0,1.8496633854220836,0.0,0.0,0.2570348488176405,0.0,0.0,0.0,0.35,0.0,0.0,0.0,0.0,0.0,1.8496633854220836,stabilize,85.0,2.0,0.0,0.0,-2.0,0.15033661457791636,0.0,0,0
1761218664.1021466,4.417379140853882,0.0,0.0,1.8768222911738144,0.0,0.0,0.2256373629312255,0.0,0.0,0.0,0.5618426367351317,0.0,0.0,0.0,0.0,0.0,1.8768222911738144,stabilize,85.0,2.0,0.0,0.0,-2.0,0.12317770882618562,0.0,0,0
1761218664.2081459,4.523378372192383,0.0,0.0,1.899895031468408,0.0,0.0,0.2070869916251187,0.0,0.0,0.0,0.35,0.0,0.0,0.0,0.0,0.0,1.899895031468408,stabilize,85.0,2.0,0.0,0.0,-2.0,0.10010496853159201,0.0,0,0
1761218664.3143785,4.629611015319824,0.0,0.0,1.9211838209205199,0.0,0.0,0.16424960412810974,0.0,0.0,0.0,0.4411262979974134,0.0,0.0,0.0,0.0,0.0,1.9211838209205199,stabilize,85.0,2.0,0.0,0.0,-2.0,0.07881617907948013,0.0,0,0
1761218664.4184902,4.733722686767578,0.0,0.0,1.940691890947536,0.0,0.0,0.18682034213761176,0.0,0.0,0.0,0.7005708026659607,0.0,0.0,0.0,0.0,0.0,1.940691890947536,stabilize,85.0,2.0,0.0,0.0,-2.0,0.059308109052464086,0.0,0,0
1761218664.5244887,4.839721202850342,0.0,0.0,1.9587541830360222,0.0,0.0,0.1499853434151897,0.0,0.0,0.0,0.35,0.0,0.0,0.0,0.0,0.0,1.9587541830360222,stabilize,85.0,2.0,0.0,0.0,-2.0,0.04124581696397778,0.0,0,0
1761218664.6297686,4.945001125335693,0.0,0.0,1.9747066435527096,0.0,0.0,0.11853889190733315,0.0,0.0,0.0,0.4167995162547523,0.0,0.0,0.0,0.0,0.0,1.9747066435527096,stabilize,85.0,2.0,0.0,0.0,-2.0,0.02529335644729036,0.0,0,0
1761218664.7340891,5.04932165145874,0.0,0.0,1.9902339792028718,0.0,0.0,0.12129726697789979,0.0,0.0,0.0,0.5118540861027048,0.0,0.0,0.0,0.0,0.0,1.9902339792028718,stabilize,85.0,2.0,0.0,0.0,-2.0,0.009766020797128183,0.0,0,0
1761218664.8391044,5.154336929321289,0.0,0.0,2.003731568581646,0.0,0.0,0.1471023870430256,0.0,0.0,0.0,0.7960029932405265,0.0,0.0,0.0,0.0,0.0,2.003731568581646,stabilize,85.0,2.0,0.0,0.0,-2.0,0.0037315685816459165,0.0,0,0
1761218664.9431286,5.258361101150513,0.0,0.0,2.0160962319428846,0.0,0.0,0.09379526108744413,0.0,0.0,0.0,0.35,0.0,0.0,0.0,0.0,0.0,2.0160962319428846,stabilize,85.0,2.0,0.0,0.0,-2.0,0.016096231942884565,0.0,0,0
1761218665.0490985,5.364331007003784,0.0,0.0,2.026895913876793,0.0,0.0,0.12347799920050068,0.0,0.0,0.0,0.8041989036836816,0.0,0.0,0.0,0.0,0.0,2.026895913876793,stabilize,85.0,2.0,0.0,0.0,-2.0,0.02689591387679302,0.0,0,0
1761218665.1531599,5.468392372131348,0.0,0.0,2.036646992531384,0.0,0.0,0.09719272373950116,0.0,0.0,0.0,0.35,0.0,0.0,0.0,0.0,0.0,2.036646992531384,stabilize,85.0,2.0,0.0,0.0,-2.0,0.036646992531383926,0.0,0,0
1761218665.260303,5.575535535812378,0.0,0.0,2.0456335301662096,0.0,0.0,0.10304159379878347,0.0,0.0,0.0,0.7472425039568222,0.0,0.0,0.0,0.0,0.0,2.0456335301662096,stabilize,85.0,2.0,0.0,0.0,-2.0,0.045633530166209635,0.0,0,0
1761218665.3646321,5.6798646450042725,0.0,0.0,2.053329781059983,0.0,0.0,0.05486194122398299,0.0,0.0,0.0,0.5147157292342107,0.0,0.0,0.0,0.0,0.0,2.053329781059983,stabilize,85.0,2.0,0.0,0.0,-2.0,0.053329781059983095,0.0,0,0
1761218665.469952,5.785184621810913,0.0,0.0,2.0602452888808362,0.0,0.0,0.029456557351323694,0.0,0.0,0.0,0.4268085917287796,0.0,0.0,0.0,0.0,0.0,2.0602452888808362,stabilize,85.0,2.0,0.0,0.0,-2.0,0.060245288880836245,0.0,0,0
1761218665.5768669,5.892099380493164,0.0,0.0,2.0680962805432186,0.0,0.0,0.12515709600981642,0.0,0.0,0.0,0.9485500836105302,0.0,0.0,0.0,0.0,0.0,2.0680962805432186,stabilize,85.0,2.0,0.0,0.0,-2.0,0.06809628054321859,0.0,0,0
1761218665.6825943,5.997826814651489,0.0,0.0,2.0757714531638594,0.0,0.0,0.0703530702832268,0.0,0.0,0.0,0.35,0.0,0.0,0.0,0.0,0.0,2.0757714531638594,stabilize,85.0,2.0,0.0,0.0,-2.0,0.07577145316385936,0.0,0,0
1761218665.7878354,6.103067874908447,0.0,0.0,2.0826328533064324,0.0,0.0,0.06570204859385619,0.0,0.0,0.0,0.6731818553055327,0.0,0.0,0.0,0.0,0.0,2.0826328533064324,stabilize,85.0,2.0,0.0,0.0,-2.0,0.08263285330643244,0.0,0,0
1761218665.8939638,6.209196329116821,0.0,0.0,2.0889321837417785,0.0,0.0,0.07797065947608195,0.0,0.0,0.0,0.778529482004829,0.0,0.0,0.0,0.0,0.0,2.0889321837417785,stabilize,85.0,2.0,0.0,0.0,-2.0,0.08893218374177847,0.0,0,0
1761218666.0004687,6.315701246261597,0.0,0.0,2.0937726257899896,0.0,0.0,0.0098503681516246,0.0,0.0,0.0,0.35,0.0,0.0,0.0,0.0,0.0,2.0937726257899896,stabilize,85.0,2.0,0.0,0.0,-2.0,0.09377262578998957,0.0,0,0
1761218666.1063607,6.421593189239502,0.0,0.0,2.0987152863926597,0.0,0.0,0.07950426765758489,0.0,0.0,0.0,0.8524424997210256,0.0,0.0,0.0,0.0,0.0,2.0987152863926597,stabilize,85.0,2.0,0.0,0.0,-2.0,0.0987152863926597,0.0,0,0
1761218666.2115555,6.526787996292114,0.0,0.0,2.103642169009477,0.0,0.0,0.05347242690673735,0.0,0.0,0.0,0.35,0.0,0.0,0.0,0.0,0.0,2.103642169009477,stabilize,85.0,2.0,0.0,0.0,-2.0,0.10364216900947687,0.0,0,0
1761218666.3148317,6.630064249038696,0.0,0.0,2.1073321019555245,0.0,0.0,0.04635788262990943,0.0,0.0,0.0,0.35,0.0,0.0,0.0,0.0,0.0,2.1073321019555245,stabilize,85.0,2.0,0.0,0.0,-2.0,0.10733210195552445,0.0,0,0
1761218666.4197938,6.7350263595581055,0.0,0.0,2.1093063173861077,0.0,0.0,-0.007403404864752232,0.0,0.0,0.0,0.48506224594699576,0.0,0.0,0.0,0.0,0.0,2.1093063173861077,stabilize,85.0,2.0,0.0,0.0,-2.0,0.10930631738610774,0.0,0,0
1761218666.5226877,6.837920188903809,0.0,0.0,2.1105973658762927,0.0,0.0,0.05865890587644103,0.0,0.0,0.0,0.9107917230981641,0.0,0.0,0.0,0.0,0.0,2.1105973658762927,stabilize,85.0,2.0,0.0,0.0,-2.0,0.11059736587629265,0.0,0,0
1761218666.6270733,6.94230580329895,0.0,0.0,2.1124285228387856,0.0,0.0,-0.0028713065572859575,0.0,0.0,0.0,0.35,0.0,0.0,0.0,0.0,0.0,2.1124285228387856,stabilize,85.0,2.0,0.0,0.0,-2.0,0.11242852283878557,0.0,0,0
1761218666.7317824,7.047014951705933,0.0,0.0,2.1126129993884257,0.0,0.0,0.015948139263892977,0.0,0.0,0.0,0.726279137298265,0.0,0.0,0.0,0.0,0.0,2.1126129993884257,stabilize,85.0,2.0,0.0,0.0,-2.0,0.11261299938842573,0.0,0,0
1761218666.836295,7.151527404785156,0.0,0.0,2.1124976064836107,0.0,0.0,0.04983156094116089,0.0,0.0,0.0,0.95,0.0,0.0,0.0,0.0,0.0,2.1124976064836107,stabilize,85.0,2.0,0.0,0.0,-2.0,0.11249760648361073,0.0,0,0
1761218666.9411094,7.256341934204102,0.0,0.0,2.112530299795637,0.0,0.0,0.040420105451681086,0.0,0.0,0.0,0.8985958838319981,0.0,0.0,0.0,0.0,0.0,2.112530299795637,stabilize,85.0,2.0,0.0,0.0,-2.0,0.11253029979563678,0.0,0,0
1761218667.0464816,7.361714124679565,0.0,0.0,2.1132615234025502,0.0,0.0,0.0222366883611711,0.0,0.0,0.0,0.7262666051293586,0.0,0.0,0.0,0.0,0.0,2.1132615234025502,stabilize,85.0,2.0,0.0,0.0,-2.0,0.11326152340255025,0.0,0,0
1761218667.1500201,7.465252637863159,0.0,0.0,2.113642552054825,0.0,0.0,0.02073629136485449,0.0,0.0,0.0,0.35,0.0,0.0,0.0,0.0,0.0,2.113642552054825,stabilize,85.0,2.0,0.0,0.0,-2.0,0.11364255205482499,0.0,0,0
1761218667.2544098,7.5696423053741455,6.09103289634816e-07,0.0,2.114305088270156,0.00022324452707854676,0.0,0.0410593037769271,0.0,-0.004161031143095496,0.0,0.8299544735969906,0.0,-0.12,0.0,6.09103289634816e-07,0.0,2.114305088270156,auto,85.0,2.1111170587254318,10.0,0.0,0.0,10.221070091933605,0.0041610311430954955,0,0
1761218667.359341,7.6745734214782715,0.0024966462345768275,0.0,2.1164274292291823,0.05998666125051517,0.0,0.03025032230973706,0.0,-0.054224753064624605,0.0,0.35,0.0,0.12,0.0,0.0024966462345768275,0.0,2.1164274292291823,auto,85.0,2.1127508056702604,10.0,0.0,0.0,10.219067392465153,0.054224753064624605,0,0
1761218667.4615362,7.776768684387207,0.00903866138792912,0.0,2.1205882077825535,0.05956821711679175,0.0,0.01719878230862521,0.0,-0.01426960647254192,0.0,0.43587879882588687,0.0,-0.058985251320514985,0.0,0.00903866138792912,0.0,2.1205882077825535,auto,85.0,2.1172194298558185,10.0,0.0,0.0,10.213530379679082,0.01426960647254192,0,0
1761218667.5703712,7.885603666305542,0.016849955798152013,0.0,2.1266744966441706,0.07293444143060576,0.0,0.06223873346964386,0.0,0.012425367208516024,0.0,0.6704865260887574,0.0,-0.09171181408604821,0.0,0.016849955798152013,0.0,2.1266744966441706,auto,85.0,2.1213422263514325,10.0,0.0,0.0,10.207155785022785,0.012425367208516024,0,0
1761218667.6771357,7.992368221282959,0.025202284950982704,0.0,2.1334517358819256,0.08432081874918645,0.0,0.038146158946572625,0.0,0.007837066432911915,0.0,0.35,0.0,-0.020298916613626004,0.0,0.025202284950982704,0.0,2.1334517358819256,auto,85.0,2.1295907114383623,10.0,0.0,0.0,10.200402235475066,0.007837066432911915,0,0
1761218667.7826629,8.097895383834839,0.03406498754404909,0.0,2.142232829805926,0.09007162880341642,0.0,0.09091054429008955,0.0,-0.00859323758153417,0.0,0.35,0.0,0.05290767388764153,0.0,0.03406498754404909,0.0,2.142232829805926,auto,85.0,2.1380588661052813,10.0,0.0,0.0,10.1935774961293,0.008593237581534168,0,0
1761218667.8889368,8.204169273376465,0.04361818110374205,0.0,2.151651662409232,0.0920816031029364,0.0,0.06293593279916347,0.0,-0.013474467041933164,0.0,0.35,0.0,0.038782386803894335,0.0,0.04361818110374205,0.0,2.151651662409232,auto,85.0,2.1475544608386294,10.0,0.0,0.0,10.186223235330962,0.013474467041933164,0,0
1761218667.989015,8.304247617721558,0.05309045998604036,0.0,2.1636110000616666,0.09475614529620953,0.0,0.18351181902223687,0.0,-0.004817838367418239,0.0,0.95,0.0,-0.013387810192359734,0.0,0.05309045998604036,0.0,2.1636110000616666,auto,85.0,2.1590953026143933,10.0,0.0,0.0,10.179500083835581,0.004817838367418239,0,0
1761218668.0943878,8.40962028503418,0.06339403886690598,0.0,2.177712646004335,0.09879219595940185,0.0,0.10350165231595398,0.0,0.00108118288050275,0.0,0.35,0.0,-0.023760203276508688,0.0,0.06339403886690598,0.0,2.177712646004335,auto,85.0,2.1733763204173653,10.0,0.0,0.0,10.172441712558147,0.00108118288050275,0,0
1761218668.199898,8.515130519866943,0.07401908517790007,0.0,2.190566619398861,0.10271499446684956,0.0,0.0929246306781689,0.0,0.00044346453311897623,0.0,0.43542710709575033,0.0,-0.006017395092074088,0.0,0.07401908517790007,0.0,2.190566619398861,auto,85.0,2.186442577727448,10.0,0.0,0.0,10.164825588048087,0.00044346453311897623,0,0
1761218668.3059282,8.621160745620728,0.08498380131513898,0.0,2.20397105758107,0.1054516336565645,0.0,0.13128818937918227,0.0,-0.0027866411840611277,0.0,0.35,0.0,0.011903603346460678,0.0,0.08498380131513898,0.0,2.20397105758107,auto,85.0,2.1991210131623222,10.0,0.0,0.0,10.157018984073929,0.0027866411840611277,0,0
1761218668.4116147,8.726847171783447,0.09617676929269917,0.0,2.217725961594226,0.10702290385344596,0.0,0.10418619958127168,0.0,-0.004275749617892831,0.0,0.35,0.0,0.010352983462305128,0.0,0.09617676929269917,0.0,2.217725961594226,auto,85.0,2.213201652627012,10.0,0.0,0.0,10.149089763413595,0.00427574961789283,0,0
1761218668.517185,8.832417488098145,0.10758543480236629,0.0,2.2305385807756895,0.1086130755079125,0.0,0.09597421225322386,0.0,-0.0028266531198176273,0.0,0.46189346501761225,0.0,0.0007947244002669462,0.0,0.10758543480236629,0.0,2.2305385807756895,auto,85.0,2.2264249596317685,10.0,0.0,0.0,10.140767638106254,0.0028266531198176273,0,0
1761218668.6234047,8.938637256622314,0.11924894932647229,0.0,2.2431680111310235,0.11027707172781903,0.0,0.11568731896526956,0.0,-0.0009412582453732761,0.0,0.35,0.0,-0.0052271793606283755,0.0,0.11924894932647229,0.0,2.2431680111310235,auto,85.0,2.238495361071934,10.0,0.0,0.0,10.132178642895491,0.0009412582453732762,0,0
1761218668.7284963,9.043728828430176,0.13093616892325058,0.0,2.2556223507941504,0.11186264873315137,0.0,0.08165214954227396,0.0,-0.00034348653670553944,0.0,0.37763705542110465,0.0,-0.0033010640108083215,0.0,0.13093616892325058,0.0,2.2556223507941504,auto,85.0,2.2513537957900116,10.0,0.0,0.0,10.123549431462733,0.00034348653670553944,0,0
1761218668.834858,9.150090456008911,0.1428943735286906,0.0,2.2690614659381447,0.11314114297919738,0.0,0.10801205113594753,0.0,-0.0007957440210822051,0.0,0.35,0.0,0.0009502425429225771,0.0,0.1428943735286906,0.0,2.2690614659381447,auto,85.0,2.2642503518003063,10.0,0.0,0.0,10.114898480341644,0.0007957440210822051,0,0
1761218668.9396713,9.254903793334961,0.1547909563221451,0.0,2.2825687242344324,0.1140427697233532,0.0,0.1008836299223839,0.0,-0.001323030012986125,0.0,0.35,0.0,0.00267514933802659,0.0,0.1547909563221451,0.0,2.2825687242344324,auto,85.0,2.278311265007089,10.0,0.0,0.0,10.106347564504668,0.001323030012986125,0,0
1761218669.0471604,9.362392902374268,0.16709217000864574,0.0,2.295273324257246,0.11480718693823433,0.0,0.08514714632407396,0.0,-0.0012155625195652755,0.0,0.35,0.0,0.0014039714022685405,0.0,0.16709217000864574,0.0,2.295273324257246,auto,85.0,2.2910954575141247,10.0,0.0,0.0,10.097244972077888,0.0012155625195652755,0,0
1761218669.153744,9.468976497650146,0.1793764358792091,0.0,2.3083637439755242,0.11555120124063714,0.0,0.13364839812490628,0.0,-0.0008223790264435277,0.0,0.7559310415139939,0.0,-0.00034113873044622217,0.0,0.1793764358792091,0.0,2.3083637439755242,auto,85.0,2.3041457240506698,10.0,0.0,0.0,10.088269939026475,0.0008223790264435277,0,0
1761218669.2591808,9.574413299560547,0.19159827852417444,0.0,2.320667346211288,0.11618057783779946,0.0,0.13356034719250756,0.0,-0.00045216442194583853,0.0,0.7661566024924259,0.0,-0.0011006838085932157,0.0,0.19159827852417444,0.0,2.320667346211288,auto,85.0,2.316465595799619,10.0,0.0,0.0,10.079198443409142,0.00045216442194583853,0,0
1761218669.3644485,9.679681062698364,0.2038588149206726,0.0,2.3326657589425728,0.11673275178694326,0.0,0.09539874908704592,0.0,-0.0003886864045810358,0.0,0.5231174613866403,0.0,-0.00043641937622318825,0.0,0.2038588149206726,0.0,2.3326657589425728,auto,85.0,2.32856808196273,10.0,0.0,0.0,10.070040300860297,0.0003886864045810358,0,0
1761218669.4720604,9.787292957305908,0.21644452335120196,0.0,2.344376939468964,0.1172139281481329,0.0,0.11662834817751125,0.0,-0.0004508945027385639,0.0,0.35,0.0,0.0005603625273254153,0.0,0.21644452335120196,0.0,2.344376939468964,auto,85.0,2.339873477432649,10.0,0.0,0.0,10.060519916931657,0.0004508945027385639,0,0
1761218669.578427,9.893659591674805,0.22892848625580606,0.0,2.35486453348275,0.11754941625923039,0.0,0.06327902982121872,0.0,-0.000510988957264531,0.0,0.35,0.0,0.0005736798020226256,0.0,0.22892848625580606,0.0,2.35486453348275,auto,85.0,2.350774308454052,10.0,0.0,0.0,10.05083207987071,0.000510988957264531,0,0
1761218669.6814687,9.99670124053955,0.24105888124239827,0.0,2.36558520465462,0.11788410276028684,0.0,0.1497551330964984,0.0,-0.0004381772700577175,0.0,0.95,0.0,6.810090589714617e-05,0.0,0.24105888124239827,0.0,2.36558520465462,auto,85.0,2.361433272452789,10.0,0.0,0.0,10.041559894750353,0.0004381772700577175,0,0
1761218669.786601,10.101833581924438,0.25346680333445104,0.0,2.3772058600532664,0.11813734231679335,0.0,0.10741876424130709,0.0,-0.00031052789130651303,0.0,0.35,0.0,-0.00017203090236221988,0.0,0.25346680333445104,0.0,2.3772058600532664,auto,85.0,2.37238744888008,10.0,0.0,0.0,10.032248853311762,0.00031052789130651303,0,0
1761218669.892145,10.207377433776855,0.2659497720492378,0.0,2.388498312774314,0.118383614930679,0.0,0.09934640322759666,0.0,-0.00024251561228788362,0.0,0.35,0.0,-0.0001262696938219178,0.0,0.2659497720492378,0.0,2.388498312774314,auto,85.0,2.3840073659971344,10.0,0.0,0.0,10.022806893799462,0.0002425156122878836,0,0
1761218669.9974263,10.312658786773682,0.27842430611522817,0.0,2.399536651994202,0.11860581356489423,0.0,0.15801998048581672,0.0,-0.00024307299429534814,0.0,0.9240270748691435,0.0,-1.0629448828287181e-05,0.0,0.27842430611522817,0.0,2.399536651994202,auto,85.0,2.3949792646308365,10.0,0.0,0.0,10.013331619206204,0.00024307299429534812,0,0
1761218670.1023037,10.41753625869751,0.29087054582356564,0.0,2.4112796148729156,0.11875430731775188,0.0,0.08070737692171609,0.0,-0.0002490935811915845,0.0,0.35,0.0,0.00015229163563558557,0.0,0.29087054582356564,0.0,2.4112796148729156,auto,85.0,2.4071789553363776,10.0,0.0,0.0,10.00407237773988,0.0002490935811915845,0,0
1761218670.2067728,10.522005319595337,0.3032848833646686,0.0,2.423965194963763,0.11891183125407603,0.0,0.1735316556697064,0.0,-0.0002323898358149193,0.0,0.95,0.0,2.1930083325246207e-05,0.0,0.3032848833646686,0.0,2.423965194963763,auto,85.0,2.419519108698234,10.0,0.0,0.0,9.995093362224281,0.0002323898358149193,0,0
1761218670.310731,10.62596344947815,0.3156522314350022,0.0,2.436831850466861,0.11901488917651261,0.0,0.09326144738635324,0.0,-0.0001946218336134997,0.0,0.35,0.0,-6.216299728056867e-06,0.0,0.3156522314350022,0.0,2.436831850466861,auto,85.0,2.432571691305175,10.0,0.0,0.0,9.986227574512789,0.00019462183361349967,0,0
1761218670.415079,10.730311632156372,0.32807766879928635,0.0,2.449035081164945,0.11912314677287286,0.0,0.09235757858702892,0.0,-0.00016670786323161712,0.0,0.35,0.0,-1.6872747459241125e-05,0.0,0.32807766879928635,0.0,2.449035081164945,auto,85.0,2.4448339551215956,10.0,0.0,0.0,9.977166652389627,0.00016670786323161712,0,0
1761218670.5233998,10.838632345199585,0.34092657179481944,0.0,2.4619562567093674,0.11921635478112917,0.0,0.08969265667060208,0.0,-0.00015677894994153393,0.0,0.35,0.0,9.017952026711275e-06,0.0,0.34092657179481944,0.0,2.4619562567093674,auto,85.0,2.4574474931708066,10.0,0.0,0.0,9.96789486809576,0.00015677894994153393,0,0
1761218670.6279821,10.943214654922485,0.35345906455833753,0.0,2.474775972795629,0.119295693619792,0.0,0.11188555618662983,0.0,-0.00015649518397076723,0.0,0.6180753387376392,0.0,3.52690695449824e-05,0.0,0.35345906455833753,0.0,2.474775972795629,auto,85.0,2.470430725780873,10.0,0.0,0.0,9.9589290656515,0.00015649518397076723,0,0
1761218670.7338247,11.049057245254517,0.366089169218561,0.0,2.487456764725158,0.11935541482220596,0.0,0.0967283732353498,0.0,-0.00014589335380436912,0.0,0.35,0.0,2.9013700223765813e-05,0.0,0.366089169218561,0.0,2.487456764725158,auto,85.0,2.4831984084053738,10.0,0.0,0.0,9.94985824280049,0.00014589335380436912,0,0
1761218670.838719,11.153951406478882,0.37861232611565493,0.0,2.499368859056202,0.11941218144110619,0.0,0.09822965569578618,0.0,-0.00012816511095653844,0.0,0.35,0.0,-7.165486550257895e-06,0.0,0.37861232611565493,0.0,2.499368859056202,auto,85.0,2.494663986486071,10.0,0.0,0.0,9.940721576666027,0.00012816511095653844,0,0
1761218670.9436169,11.258849382400513,0.3910220508386861,0.0,2.511654364669991,0.1194634961021,0.0,0.13072997060636193,0.0,-0.00011992702142174097,0.0,0.35,0.0,2.5942252847534685e-05,0.0,0.3910220508386861,0.0,2.511654364669991,auto,85.0,2.507053210048519,10.0,0.0,0.0,9.931810755095679,0.00011992702142174097,0,0
1761218671.0468817,11.362114191055298,0.4034798292044637,0.0,2.523060373756493,0.11950174319635744,0.0,0.07969849200241536,0.0,-0.0001136862787932739,0.0,0.35,0.0,1.3020685587512841e-05,0.0,0.4034798292044637,0.0,2.523060373756493,auto,85.0,2.519026490509829,10.0,0.0,0.0,9.922652520274296,0.0001136862787932739,0,0
1761218671.151259,11.466491460800171,0.41595508476531307,0.0,2.535375409835834,0.11953747620399771,0.0,0.10281088515138682,0.0,-0.00011921547436710295,0.0,0.5749199114217377,0.0,2.7077075274462565e-05,0.0,0.41595508476531307,0.0,2.535375409835834,auto,85.0,2.531071810011232,10.0,0.0,0.0,9.913730145915617,0.00011921547436710295,0,0
1761218671.2567325,11.571964979171753,0.4285649401259306,0.0,2.5465861750133376,0.11956856111483605,0.0,0.11416029045520361,0.0,-0.00010805045311648719,0.0,0.35,0.0,2.9747653809278207e-05,0.0,0.4285649401259306,0.0,2.5465861750133376,auto,85.0,2.5418912136021254,10.0,0.0,0.0,9.90441670428681,0.00010805045311648719,0,0
1761218671.362712,11.677944421768188,0.4412382190510477,0.0,2.558511777759994,0.11959097287715387,0.0,0.08013496941630002,0.0,-0.00010118651415314548,0.0,0.40118421418115574,0.0,-1.9699552902407596e-05,0.0,0.4412382190510477,0.0,2.558511777759994,auto,85.0,2.5544762558226606,10.0,0.0,0.0,9.895246803484337,0.00010118651415314548,0,0
1761218671.4650965,11.78032898902893,0.45348395584760126,0.0,2.570430074118793,0.11961613141275576,0.0,0.11365233344858579,0.0,-9.920314168434072e-05,0.0,0.35,0.0,3.891800220223989e-05,0.0,0.45348395584760126,0.0,2.570430074118793,auto,85.0,2.5660863107442187,10.0,0.0,0.0,9.88650996799141,9.920314168434072e-05,0,0
1761218671.5704508,11.885683298110962,0.4660869249251537,0.0,2.582440332867191,0.11963001279628005,0.0,0.07610634357990656,0.0,-9.998282925900239e-05,0.0,0.36795516367579656,0.0,7.50714047444742e-06,0.0,0.4660869249251537,0.0,2.582440332867191,auto,85.0,2.5784395071159563,10.0,0.0,0.0,9.877474201226866,9.998282925900239e-05,0,0
1761218671.6747484,11.989980936050415,0.4785652312529066,0.0,2.594111869554536,0.11965496234823618,0.0,0.15808346518354682,0.0,-9.752677908681602e-05,0.0,0.9408406489756161,0.0,1.763770684467735e-06,0.0,0.4785652312529066,0.0,2.594111869554536,auto,85.0,2.5898453353174578,10.0,0.0,0.0,9.868492106054996,9.752677908681602e-05,0,0
1761218671.7809713,12.096203804016113,0.4912755329905938,0.0,2.605538885141161,0.11966122553724655,0.0,0.0708310014948704,0.0,-9.290057051601885e-05,0.0,0.35,0.0,1.2526622701448326e-05,0.0,0.4912755329905938,0.0,2.605538885141161,auto,85.0,2.601572565581376,10.0,0.0,0.0,9.859243067877268,9.290057051601885e-05,0,0
1761218671.8853016,12.200534105300903,0.5037607601875905,0.0,2.6164494812467582,0.11967968973947353,0.0,0.13365788713199314,0.0,-9.142891676445845e-05,0.0,0.8404898398806556,0.0,-3.0276622772086243e-06,0.0,0.5037607601875905,0.0,2.6164494812467582,auto,85.0,2.6121507172660765,10.0,0.0,0.0,9.850094800948334,9.142891676445845e-05,0,0
1761218671.9902816,12.305514097213745,0.5163249821052017,0.0,2.626813265910724,0.11968570503955624,0.0,0.06598147723283684,0.0,-8.93453055612962e-05,0.0,0.442297799822786,0.0,3.953749579806607e-06,0.0,0.5163249821052017,0.0,2.626813265910724,auto,85.0,2.622781958648424,10.0,0.0,0.0,9.8407438630932,8.934530556129622e-05,0,0
1761218672.0987477,12.41398024559021,0.5293077314262912,0.0,2.6366877252005128,0.11969735527004095,0.0,0.0647850359168571,0.0,-8.389078762044094e-05,0.0,0.5059511125995962,0.0,-1.2460911119886256e-05,0.0,0.5293077314262912,0.0,2.6366877252005128,auto,85.0,2.6325972998204943,10.0,0.0,0.0,9.830876573645144,8.389078762044094e-05,0,0
1761218672.2034261,12.518658638000488,0.5418383289219081,0.0,2.6462437727951227,0.1197087663993111,0.0,0.09878327295265873,0.0,-7.962484657477028e-05,0.0,0.35,0.0,2.5406969794201976e-06,0.0,0.5418383289219081,0.0,2.6462437727951227,auto,85.0,2.6419389046864974,10.0,0.0,0.0,9.821376090004277,7.962484657477028e-05,0,0
1761218672.3090863,12.624318838119507,0.5544872269460379,0.0,2.65682791781771,0.11971389214824621,0.0,0.07377409966225879,0.0,-7.870170333773219e-05,0.0,0.35,0.0,-4.345576052950805e-06,0.0,0.5544872269460379,0.0,2.65682791781771,auto,85.0,2.6526097608411785,10.0,0.0,0.0,9.812056162233334,7.870170333773219e-05,0,0
1761218672.4133363,12.72856879234314,0.566967939953549,0.0,2.6668800841161606,0.11972022894735632,0.0,0.06750158486344812,0.0,-7.917532826347273e-05,0.0,0.35,0.0,1.916176325586322e-06,0.0,0.566967939953549,0.0,2.6668800841161606,auto,85.0,2.6629376237452975,10.0,0.0,0.0,9.8027722216177,7.917532826347273e-05,0,0
1761218672.5169551,12.83218765258789,0.5793737155044694,0.0,2.6760505220493704,0.11972691460175673,0.0,0.07020383880561515,0.0,-7.785880589315843e-05,0.0,0.35,0.0,1.426924599611663e-05,0.0,0.5793737155044694,0.0,2.6760505220493704,auto,85.0,2.6720629886223035,10.0,0.0,0.0,9.793336815850294,7.785880589315843e-05,0,0
1761218672.6220117,12.937244176864624,0.5919521970960769,0.0,2.684656705985852,0.11973633662244555,0.0,0.10046749070976255,0.0,-8.03148525588215e-05,0.0,0.757176381605464,0.0,7.425334418973795e-06,0.0,0.5919521970960769,0.0,2.684656705985852,auto,85.0,2.68057823767761,10.0,0.0,0.0,9.783595713781315,8.03148525588215e-05,0,0
1761218672.724305,13.03953742980957,0.6042005163323896,0.0,2.6926311806501566,0.1197369506581481,0.0,0.041131345120339634,0.0,-7.768035917371865e-05,0.0,0.35,0.0,-2.0374829432932937e-06,0.0,0.6042005163323896,0.0,2.6926311806501566,auto,85.0,2.688973480645861,10.0,0.0,0.0,9.774012001849496,7.768035917371865e-05,0,0
1761218672.829299,13.144531488418579,0.6167728014587086,0.0,2.700938669517464,0.11974383386803468,0.0,0.05680871492680593,0.0,-7.344916412530919e-05,0.0,0.5012989692718781,0.0,-1.2554211868031835e-05,0.0,0.6167728014587086,0.0,2.700938669517464,auto,85.0,2.6972490536316513,10.0,0.0,0.0,9.764221543776022,7.344916412530919e-05,0,0
1761218672.9343987,13.24963116645813,0.6293583100531407,0.0,2.7091889706242003,0.1197496010895027,0.0,0.08256823784066501,0.0,-7.23047449594427e-05,0.0,0.35,0.0,1.0799671420332509e-05,0.0,0.6293583100531407,0.0,2.7091889706242003,auto,85.0,2.7050930419028023,10.0,0.0,0.0,9.754415951758565,7.230474495944269e-05,0,0
1761218673.0402222,13.355454683303833,0.6420307948395124,0.0,2.7177511493490445,0.11975468272797449,0.0,0.09216034999678857,0.0,-7.455705139972666e-05,0.0,0.7250870876255578,0.0,-1.0458409522230391e-06,0.0,0.6420307948395124,0.0,2.7177511493490445,auto,85.0,2.7139235674012028,10.0,0.0,0.0,9.744627183967587,7.455705139972666e-05,0,0
1761218673.145201,13.46043348312378,0.6546025683117868,0.0,2.72599600788106,0.1197574980733942,0.0,0.08737157834378396,0.0,-7.492946998144138e-05,0.0,0.35,0.0,3.6064125247390176e-05,0.0,0.6546025683117868,0.0,2.72599600788106,auto,85.0,2.7216251106604896,10.0,0.0,0.0,9.734860419707523,7.492946998144137e-05,0,0
1761218673.25727,13.572502613067627,0.6680236893798598,0.0,2.7351855345484273,0.1197550101467911,0.0,0.026231187464669167,0.0,-7.55162258288953e-05,0.0,0.35,0.0,1.730166723618462e-05,0.0,0.6680236893798598,0.0,2.7351855345484273,auto,85.0,2.728767372011286,10.0,0.0,0.0,9.724557664509911,7.55162258288953e-05,0,0
1761218673.361208,13.676440477371216,0.6804712672528758,0.0,2.743391991774314,0.11976301235477721,0.0,0.11641935753124796,0.0,-7.435382118199022e-05,0.0,0.8723335119120311,0.0,-1.3337573156264848e-05,0.0,0.6804712672528758,0.0,2.743391991774314,auto,85.0,2.7392996902858693,10.0,0.0,0.0,9.714927453204714,7.435382118199022e-05,0,0
1761218673.4670293,13.782261848449707,0.6931445927146056,0.0,2.751579646558838,0.11976280941758409,0.0,0.0721976712904393,0.0,-7.211548197619642e-05,0.0,0.6384464034909612,0.0,-9.33881255291289e-06,0.0,0.6931445927146056,0.0,2.751579646558838,auto,85.0,2.747670423692085,10.0,0.0,0.0,9.705088774631287,7.211548197619642e-05,0,0
1761218673.5727804,13.888012886047363,0.7058098015344862,0.0,2.759954180660998,0.1197622531451349,0.0,0.05159353495584142,0.0,-7.15179020562553e-05,0.0,0.35,0.0,-6.872969282600453e-06,0.0,0.7058098015344862,0.0,2.759954180660998,auto,85.0,2.7561245379998978,10.0,0.0,0.0,9.695324570358672,7.15179020562553e-05,0,0
1761218673.6775665,13.992799043655396,0.7183594990501145,0.0,2.769176561755289,0.11976868567492466,0.0,0.1360658651735637,0.0,-7.255775255369065e-05,0.0,0.95,0.0,-1.4875565286201104e-05,0.0,0.7183594990501145,0.0,2.769176561755289,auto,85.0,2.765165257697303,10.0,0.0,0.0,9.685927380434363,7.255775255369065e-05,0,0
1761218673.7825735,14.097805976867676,0.7309355883668291,0.0,2.7790668670774044,0.11976201239761151,0.0,0.062205795196710816,0.0,-7.422902161284572e-05,0.0,0.35,0.0,6.585092133531472e-06,0.0,0.7309355883668291,0.0,2.7790668670774044,auto,85.0,2.774986506908865,10.0,0.0,0.0,9.6767126504145,7.422902161284572e-05,0,0
1761218673.8880389,14.203271389007568,0.7435666419356193,0.0,2.788451057419486,0.11976467299375933,0.0,0.10074589806874595,0.0,-7.155170366234213e-05,0.0,0.35,0.0,1.6486056609351942e-05,0.0,0.7435666419356193,0.0,2.788451057419486,auto,85.0,2.784183333307697,10.0,0.0,0.0,9.667316991384471,7.155170366234213e-05,0,0
1761218673.9884884,14.303720951080322,0.7555969068232901,0.0,2.7967052542973385,0.11976404728776258,0.0,0.04792683640637768,0.0,-7.269635017257309e-05,0.0,0.4219101064570472,0.0,9.97741823331242e-06,0.0,0.7555969068232901,0.0,2.7967052542973385,auto,85.0,2.792751189325678,10.0,0.0,0.0,9.658185586772987,7.269635017257309e-05,0,0
1761218674.093362,14.408594608306885,0.7681571690728795,0.0,2.805281222173098,0.11977018648162965,0.0,0.12704007220746277,0.0,-7.54795029553466e-05,0.0,0.95,0.0,2.2673744329980815e-06,0.0,0.7681571690728795,0.0,2.805281222173098,auto,85.0,2.801356869194981,10.0,0.0,0.0,9.648654040352856,7.54795029553466e-05,0,0
1761218674.1994321,14.514664649963379,0.7807990791593974,0.0,2.814836070901365,0.11976511056878712,0.0,0.08677150377945952,0.0,-7.534499132583929e-05,0.0,0.35,0.0,2.319827683112783e-05,0.0,0.7807990791593974,0.0,2.814836070901365,auto,85.0,2.810791449524907,10.0,0.0,0.0,9.639344776740566,7.534499132583929e-05,0,0
1761218674.3035727,14.618805170059204,0.79333327622894,0.0,2.8244326435850904,0.11976272222762434,0.0,0.06064531704420956,0.0,-7.391443092618453e-05,0.0,0.35,0.0,-3.223294842298376e-06,0.0,0.79333327622894,0.0,2.8244326435850904,auto,85.0,2.8204736545158324,10.0,0.0,0.0,9.630167803353293,7.391443092618453e-05,0,0
1761218674.4094546,14.724687099456787,0.8060142270025111,0.0,2.834760322198499,0.11976524893872448,0.0,0.10803647220254424,0.0,-7.47298117557496e-05,0.0,0.35,0.0,3.492163396480026e-05,0.0,0.8060142270025111,0.0,2.834760322198499,auto,85.0,2.8301859610968747,10.0,0.0,0.0,9.621083123972642,7.472981175574961e-05,0,0
1761218674.5149527,14.830185174942017,0.8186491019329996,0.0,2.8443325582973733,0.11976240567032401,0.0,0.06549679060790736,0.0,-7.377203019424207e-05,0.0,0.35,0.0,8.693866162474049e-06,0.0,0.8186491019329996,0.0,2.8443325582973733,auto,85.0,2.8402166734759287,10.0,0.0,0.0,9.611838118467569,7.377203019424207e-05,0,0
1761218674.6195707,14.934803247451782,0.8311786691459475,0.0,2.8531992808061,0.11976756070171457,0.0,0.12567258682612137,0.0,-7.1625304283237e-05,0.0,0.8687537852515583,0.0,-1.9598133122363848e-05,0.0,0.8311786691459475,0.0,2.8531992808061,auto,85.0,2.8491929176129958,10.0,0.0,0.0,9.602501274830258,7.1625304283237e-05,0,0
1761218674.7260618,15.04129433631897,0.8439325379894335,0.0,2.86374344225152,0.11976403759920233,0.0,0.10580373955673011,0.0,-7.445920245611917e-05,0.0,0.35,0.0,2.922947727582497e-05,0.0,0.8439325379894335,0.0,2.86374344225152,auto,85.0,2.8589443044963936,10.0,0.0,0.0,9.593466415844025,7.445920245611917e-05,0,0
1761218674.8333852,15.1486177444458,0.8567859035268724,0.0,2.874785409332512,0.11976093274921354,0.0,0.08931157010768338,0.0,-7.617700827970518e-05,0.0,0.35,0.0,1.6077315197024767e-05,0.0,0.8567859035268724,0.0,2.874785409332512,auto,85.0,2.8706069413142945,10.0,0.0,0.0,9.584505994763424,7.617700827970518e-05,0,0
1761218674.9377782,15.253010749816895,0.8692882107557175,0.0,2.884435096606101,0.11976390736265674,0.0,0.12146509690567261,0.0,-7.395376806341467e-05,0.0,0.8141700267226534,0.0,-1.563058914878403e-05,0.0,0.8692882107557175,0.0,2.884435096606101,auto,85.0,2.880210807411572,10.0,0.0,0.0,9.575482421516817,7.395376806341467e-05,0,0
1761218675.0462348,15.361467361450195,0.8822772489761027,0.0,2.8940247890377617,0.11976542706453336,0.0,0.12501425915106534,0.0,-7.202741435318302e-05,0.0,0.8097550980194411,0.0,-1.680295915029783e-05,0.0,0.8822772489761027,0.0,2.8940247890377617,auto,85.0,2.8895650645054993,10.0,0.0,0.0,9.5659943364035,7.202741435318304e-05,0,0
1761218675.1519864,15.46721887588501,0.8949423387177191,0.0,2.904229899953029,0.1197629170756698,0.0,0.10742667543343738,0.0,-7.449981001801384e-05,0.0,0.35,0.0,3.6006017262069656e-05,0.0,0.8949423387177191,0.0,2.904229899953029,auto,85.0,2.8998941897860044,10.0,0.0,0.0,9.557019740853125,7.449981001801384e-05,0,0
1761218675.2593763,15.57460880279541,0.9078035491696689,0.0,2.9144361461109183,0.11976369904899777,0.0,0.13222765807679066,0.0,-7.579028279298851e-05,0.0,0.8541487001037948,0.0,-1.2690993978686785e-05,0.0,0.9078035491696689,0.0,2.9144361461109183,auto,85.0,2.910260711245881,10.0,0.0,0.0,9.547878002480422,7.579028279298851e-05,0,0
1761218675.364864,15.680096626281738,0.9204368364356388,0.0,2.9253844120875727,0.11975903700003132,0.0,0.1026165142611872,0.0,-7.608830332846298e-05,0.0,0.35,0.0,2.0780295335106642e-05,0.0,0.9204368364356388,0.0,2.9253844120875727,auto,85.0,2.920891430766365,10.0,0.0,0.0,9.539200238994871,7.608830332846298e-05,0,0
1761218675.4687498,15.783982276916504,0.9328780309628761,0.0,2.9355205412036405,0.11976332504939054,0.0,0.146567349669306,0.0,-7.705340210829692e-05,0.0,0.95,0.0,-1.8041248687940445e-06,0.0,0.9328780309628761,0.0,2.9355205412036405,auto,85.0,2.9313487737646153,10.0,0.0,0.0,9.530476464963552,7.705340210829692e-05,0,0
1761218675.5758355,15.89106798171997,0.9457024623345313,0.0,2.946803581354817,0.11975761703616425,0.0,0.1130848583549646,0.0,-7.843671929176087e-05,0.0,0.35,0.0,3.465832135887469e-05,0.0,0.9457024623345313,0.0,2.946803581354817,auto,85.0,2.942105313199509,10.0,0.0,0.0,9.52176219234972,7.843671929176087e-05,0,0
1761218675.6803448,15.995577335357666,0.958218135025523,0.0,2.9575011509568823,0.11975903961516601,0.0,0.13749599627524478,0.0,-7.721698900306635e-05,0.0,0.8877673128005373,0.0,-1.1348435550179362e-05,0.0,0.958218135025523,0.0,2.9575011509568823,auto,85.0,2.9533990727416013,10.0,0.0,0.0,9.513182030829254,7.721698900306635e-05,0,0
1761218675.7838852,16.099117755889893,0.9706176858948732,0.0,2.967698584927927,0.11975984599124263,0.0,0.1432110188217741,0.0,-7.730708948817167e-05,0.0,0.95,0.0,-7.897626284217216e-06,0.0,0.9706176858948732,0.0,2.967698584927927,auto,85.0,2.9636236099065534,10.0,0.0,0.0,9.50457678517343,7.730708948817167e-05,0,0
1761218675.8884242,16.203656673431396,0.9831368683662967,0.0,2.9778138327801105,0.11975824555457516,0.0,0.12569992811059158,0.0,-7.539400518667919e-05,0.0,0.8247161186591735,0.0,-1.5334096591679153e-05,0.0,0.9831368683662967,0.0,2.9778138327801105,auto,85.0,2.973714763823107,10.0,0.0,0.0,9.495851513019343,7.539400518667919e-05,0,0
1761218675.9949148,16.310147285461426,0.9958898403146011,0.0,2.9879462456433385,0.11975459457083172,0.0,0.0692366490860856,0.0,-7.296343976900555e-05,0.0,0.35,0.0,-8.083834540319998e-06,0.0,0.9958898403146011,0.0,2.9879462456433385,auto,85.0,2.9839733809840703,10.0,0.0,0.0,9.486929036026565,7.296343976900555e-05,0,0
1761218676.100474,16.415706634521484,1.0085313162754306,0.0,2.997814772711622,0.11975634398973631,0.0,0.06906329945137918,0.0,-7.244090564288115e-05,0.0,0.35,0.0,6.502876635189622e-06,0.0,1.0085313162754306,0.0,2.997814772711622,auto,85.0,2.9938823215034454,10.0,0.0,0.0,9.478048454290983,7.244090564288115e-05,0,0
1761218676.205157,16.520389556884766,1.0210679366374442,0.0,3.007199262163025,0.11976042212026378,0.0,0.1094764815853424,0.0,-7.446089068780803e-05,0.0,0.7710202055010614,0.0,-3.937175720802451e-06,0.0,1.0210679366374442,0.0,3.007199262163025,auto,85.0,3.0032283377025206,10.0,0.0,0.0,9.46913239958308,7.446089068780803e-05,0,0
