timestamp,simulation_time,position_x,position_y,position_z,velocity_x,velocity_y,velocity_z,attitude_roll,attitude_pitch,attitude_yaw,control_throttle,control_roll,control_pitch,control_yaw,estimated_position_x,estimated_position_y,estimated_position_z,flight_mode,battery_level,setpoint_altitude,setpoint_position_x,setpoint_position_y,setpoint_position_z,position_error,attitude_error,waypoint_index,mission_complete
1761255516.0126665,0.10849261283874512,0.0,0.0,-0.0,0.0,0.0,-0.0,0.0,0.0,0.0,0.0,0.0,0.0,0.0,0.0,0.0,-0.0,manual,85.0,0.0,0.0,0.0,0.0,0.0,0.0,0,0
1761255516.1163223,0.21214842796325684,0.0,0.0,-0.0,0.0,0.0,-0.0,0.0,0.0,0.0,0.0,0.0,0.0,0.0,0.0,0.0,-0.0,manual,85.0,0.0,0.0,0.0,0.0,0.0,0.0,0,0
1761255516.2188191,0.31464529037475586,0.0,0.0,-0.0,0.0,0.0,-0.0,0.0,0.0,0.0,0.0,0.0,0.0,0.0,0.0,0.0,-0.0,manual,85.0,0.0,0.0,0.0,0.0,0.0,0.0,0,0
1761255516.3223941,0.41822028160095215,0.0,0.0,-0.0,0.0,0.0,-0.0,0.0,0.0,0.0,0.0,0.0,0.0,0.0,0.0,0.0,-0.0,manual,85.0,0.0,0.0,0.0,0.0,0.0,0.0,0,0
1761255516.427937,0.5237631797790527,0.0,0.0,-0.0,0.0,0.0,-0.0,0.0,0.0,0.0,0.0,0.0,0.0,0.0,0.0,0.0,-0.0,manual,85.0,0.0,0.0,0.0,0.0,0.0,0.0,0,0
1761255516.5322843,0.628110408782959,0.0,0.0,-0.0,0.0,0.0,-0.0,0.0,0.0,0.0,0.0,0.0,0.0,0.0,0.0,0.0,-0.0,manual,85.0,0.0,0.0,0.0,0.0,0.0,0.0,0,0
1761255516.6342206,0.7300467491149902,0.0,0.0,-0.0,0.0,0.0,-0.0,0.0,0.0,0.0,0.0,0.0,0.0,0.0,0.0,0.0,-0.0,manual,85.0,0.0,0.0,0.0,0.0,0.0,0.0,0,0
1761255516.742411,0.8382370471954346,0.0,0.0,-0.0,0.0,0.0,-0.0,0.0,0.0,0.0,0.0,0.0,0.0,0.0,0.0,0.0,-0.0,manual,85.0,0.0,0.0,0.0,0.0,0.0,0.0,0,0
1761255516.8454611,0.9412872791290283,0.0,0.0,-0.0,0.0,0.0,-0.0,0.0,0.0,0.0,0.0,0.0,0.0,0.0,0.0,0.0,-0.0,manual,85.0,0.0,0.0,0.0,0.0,0.0,0.0,0,0
1761255516.949153,1.0449790954589844,0.0,0.0,-0.0,0.0,0.0,-0.0,0.0,0.0,0.0,0.0,0.0,0.0,0.0,0.0,0.0,-0.0,manual,85.0,0.0,0.0,0.0,0.0,0.0,0.0,0,0
1761255517.0535896,1.1494157314300537,0.0,0.0,-0.0,0.0,0.0,-0.0,0.0,0.0,0.0,0.0,0.0,0.0,0.0,0.0,0.0,-0.0,manual,85.0,0.0,0.0,0.0,0.0,0.0,0.0,0,0
1761255517.155826,1.2516522407531738,0.0,0.0,-0.0,0.0,0.0,-0.0,0.0,0.0,0.0,0.0,0.0,0.0,0.0,0.0,0.0,-0.0,manual,85.0,0.0,0.0,0.0,0.0,0.0,0.0,0,0
1761255517.260117,1.355943202972412,0.0,0.0,-0.0,0.0,0.0,-0.0,0.0,0.0,0.0,0.0,0.0,0.0,0.0,0.0,0.0,-0.0,manual,85.0,0.0,0.0,0.0,0.0,0.0,0.0,0,0
1761255517.364226,1.460052251815796,0.0,0.0,0.007584113613020693,0.0,0.0,0.47795009310652165,0.0,0.0,0.0,1.0,0.0,0.0,0.0,0.0,0.0,0.007584113613020693,stabilize,85.0,2.0,0.0,0.0,-2.0,1.9924158863869792,0.0,0,0
1761255517.4703667,1.566192865371704,0.0,0.0,0.12259185791344605,0.0,0.0,1.292581773909095,0.0,0.0,0.0,0.35,0.0,0.0,0.0,0.0,0.0,0.12259185791344605,stabilize,85.0,2.0,0.0,0.0,-2.0,1.877408142086554,0.0,0,0
1761255517.5763197,1.6721458435058594,0.0,0.0,0.2632710541377847,0.0,0.0,1.3536596494658273,0.0,0.0,0.0,0.6081349437961645,0.0,0.0,0.0,0.0,0.0,0.2632710541377847,stabilize,85.0,2.0,0.0,0.0,-2.0,1.7367289458622153,0.0,0,0
1761255517.712314,1.8081400394439697,0.0,0.0,0.4565031738005979,0.0,0.0,1.6378590168444527,0.0,0.0,0.0,0.6179290571905975,0.0,0.0,0.0,0.0,0.0,0.4565031738005979,stabilize,85.0,2.0,0.0,0.0,-2.0,1.543496826199402,0.0,0,0
1761255517.822565,1.918391227722168,0.0,0.0,0.6254189658167791,0.0,0.0,1.426815339931555,0.0,0.0,0.0,0.35,0.0,0.0,0.0,0.0,0.0,0.6254189658167791,stabilize,85.0,2.0,0.0,0.0,-2.0,1.3745810341832208,0.0,0,0
1761255517.9313855,2.0272116661071777,0.0,0.0,0.7730964042458062,0.0,0.0,1.3136878006134762,0.0,0.0,0.0,0.48201269288613724,0.0,0.0,0.0,0.0,0.0,0.7730964042458062,stabilize,85.0,2.0,0.0,0.0,-2.0,1.2269035957541938,0.0,0,0
1761255518.0364819,2.132308006286621,0.0,0.0,0.904236241171876,0.0,0.0,1.210300585437927,0.0,0.0,0.0,0.5109398162801428,0.0,0.0,0.0,0.0,0.0,0.904236241171876,stabilize,85.0,2.0,0.0,0.0,-2.0,1.0957637588281242,0.0,0,0
1761255518.141784,2.237610101699829,0.0,0.0,1.0249486004386272,0.0,0.0,1.0880711736681679,0.0,0.0,0.0,0.35,0.0,0.0,0.0,0.0,0.0,1.0249486004386272,stabilize,85.0,2.0,0.0,0.0,-2.0,0.9750513995613728,0.0,0,0
1761255518.2459419,2.3417680263519287,0.0,0.0,1.1339981901564955,0.0,0.0,0.9976256571488675,0.0,0.0,0.0,0.41503027208862553,0.0,0.0,0.0,0.0,0.0,1.1339981901564955,stabilize,85.0,2.0,0.0,0.0,-2.0,0.8660018098435045,0.0,0,0
1761255518.350087,2.445913076400757,0.0,0.0,1.2335584573989622,0.0,0.0,0.9087742394002217,0.0,0.0,0.0,0.35,0.0,0.0,0.0,0.0,0.0,1.2335584573989622,stabilize,85.0,2.0,0.0,0.0,-2.0,0.7664415426010378,0.0,0,0
1761255518.4560559,2.551882028579712,0.0,0.0,1.3258495703899595,0.0,0.0,0.8226878608480593,0.0,0.0,0.0,0.35,0.0,0.0,0.0,0.0,0.0,1.3258495703899595,stabilize,85.0,2.0,0.0,0.0,-2.0,0.6741504296100405,0.0,0,0
1761255518.5611136,2.656939744949341,0.0,0.0,1.408676518312793,0.0,0.0,0.7612430361355813,0.0,0.0,0.0,0.5083651210948115,0.0,0.0,0.0,0.0,0.0,1.408676518312793,stabilize,85.0,2.0,0.0,0.0,-2.0,0.591323481687207,0.0,0,0
1761255518.6675336,2.763359785079956,0.0,0.0,1.4846253286668947,0.0,0.0,0.6827123782764105,0.0,0.0,0.0,0.35,0.0,0.0,0.0,0.0,0.0,1.4846253286668947,stabilize,85.0,2.0,0.0,0.0,-2.0,0.5153746713331053,0.0,0,0
1761255518.7688093,2.864635467529297,0.0,0.0,1.549634206242751,0.0,0.0,0.5987235892195357,0.0,0.0,0.0,0.3872599533959882,0.0,0.0,0.0,0.0,0.0,1.549634206242751,stabilize,85.0,2.0,0.0,0.0,-2.0,0.45036579375724894,0.0,0,0
1761255518.8734257,2.969251871109009,0.0,0.0,1.6099186460932098,0.0,0.0,0.5457135089703129,0.0,0.0,0.0,0.4419667550728409,0.0,0.0,0.0,0.0,0.0,1.6099186460932098,stabilize,85.0,2.0,0.0,0.0,-2.0,0.3900813539067902,0.0,0,0
1761255518.9796987,3.0755248069763184,0.0,0.0,1.6652783838575158,0.0,0.0,0.4855459766997993,0.0,0.0,0.0,0.41407878861238956,0.0,0.0,0.0,0.0,0.0,1.6652783838575158,stabilize,85.0,2.0,0.0,0.0,-2.0,0.3347216161424842,0.0,0,0
1761255519.0839436,3.17976975440979,0.0,0.0,1.7132811312641123,0.0,0.0,0.46779803412019694,0.0,0.0,0.0,0.6211246797978294,0.0,0.0,0.0,0.0,0.0,1.7132811312641123,stabilize,85.0,2.0,0.0,0.0,-2.0,0.2867188687358877,0.0,0,0
1761255519.192711,3.2885372638702393,0.0,0.0,1.7595754980803398,0.0,0.0,0.4251597207406256,0.0,0.0,0.0,0.5945229738320363,0.0,0.0,0.0,0.0,0.0,1.7595754980803398,stabilize,85.0,2.0,0.0,0.0,-2.0,0.24042450191966025,0.0,0,0
1761255519.298156,3.393982172012329,0.0,0.0,1.7993426816589084,0.0,0.0,0.34158624223491996,0.0,0.0,0.0,0.3757914724639596,0.0,0.0,0.0,0.0,0.0,1.7993426816589084,stabilize,85.0,2.0,0.0,0.0,-2.0,0.20065731834109157,0.0,0,0
1761255519.402311,3.4981372356414795,0.0,0.0,1.8344966623057366,0.0,0.0,0.3374680080075654,0.0,0.0,0.0,0.5780459134582621,0.0,0.0,0.0,0.0,0.0,1.8344966623057366,stabilize,85.0,2.0,0.0,0.0,-2.0,0.1655033376942634,0.0,0,0
1761255519.5070722,3.602898359298706,0.0,0.0,1.8661189110486902,0.0,0.0,0.26673200300405625,0.0,0.0,0.0,0.35,0.0,0.0,0.0,0.0,0.0,1.8661189110486902,stabilize,85.0,2.0,0.0,0.0,-2.0,0.1338810889513098,0.0,0,0
1761255519.6127155,3.7085416316986084,0.0,0.0,1.8955261783352062,0.0,0.0,0.2740322453013303,0.0,0.0,0.0,0.35,0.0,0.0,0.0,0.0,0.0,1.8955261783352062,stabilize,85.0,2.0,0.0,0.0,-2.0,0.1044738216647938,0.0,0,0
1761255519.7179477,3.8137738704681396,0.0,0.0,1.9215939860077114,0.0,0.0,0.22764632314195765,0.0,0.0,0.0,0.35,0.0,0.0,0.0,0.0,0.0,1.9215939860077114,stabilize,85.0,2.0,0.0,0.0,-2.0,0.07840601399228864,0.0,0,0
1761255519.8224318,3.91825795173645,0.0,0.0,1.9447878785377672,0.0,0.0,0.18895820082243234,0.0,0.0,0.0,0.35,0.0,0.0,0.0,0.0,0.0,1.9447878785377672,stabilize,85.0,2.0,0.0,0.0,-2.0,0.055212121462232755,0.0,0,0
1761255519.9257202,4.021546363830566,0.0,0.0,1.9657540726873286,0.0,0.0,0.18308506997066096,0.0,0.0,0.0,0.35,0.0,0.0,0.0,0.0,0.0,1.9657540726873286,stabilize,85.0,2.0,0.0,0.0,-2.0,0.0342459273126714,0.0,0,0
1761255520.029116,4.124942064285278,0.0,0.0,1.9844151761937188,0.0,0.0,0.19206241809210484,0.0,0.0,0.0,0.6151243881449215,0.0,0.0,0.0,0.0,0.0,1.9844151761937188,stabilize,85.0,2.0,0.0,0.0,-2.0,0.015584823806281234,0.0,0,0
1761255520.1334083,4.229234457015991,0.0,0.0,2.000582554401856,0.0,0.0,0.125275172774507,0.0,0.0,0.0,0.35,0.0,0.0,0.0,0.0,0.0,2.000582554401856,stabilize,85.0,2.0,0.0,0.0,-2.0,0.0005825544018560613,0.0,0,0
1761255520.2373857,4.333211898803711,0.0,0.0,2.014478808076798,0.0,0.0,0.11733963963895222,0.0,0.0,0.0,0.35,0.0,0.0,0.0,0.0,0.0,2.014478808076798,stabilize,85.0,2.0,0.0,0.0,-2.0,0.014478808076797911,0.0,0,0
1761255520.3422759,4.4381020069122314,0.0,0.0,2.0258473473540133,0.0,0.0,0.08758354251910391,0.0,0.0,0.0,0.39350545957028327,0.0,0.0,0.0,0.0,0.0,2.0258473473540133,stabilize,85.0,2.0,0.0,0.0,-2.0,0.025847347354013284,0.0,0,0
1761255520.445988,4.541814088821411,0.0,0.0,2.0363537660922884,0.0,0.0,0.08319927455857365,0.0,0.0,0.0,0.35,0.0,0.0,0.0,0.0,0.0,2.0363537660922884,stabilize,85.0,2.0,0.0,0.0,-2.0,0.03635376609228835,0.0,0,0
1761255520.5561254,4.651951551437378,0.0,0.0,2.0450562725377366,0.0,0.0,0.05566915147791938,0.0,0.0,0.0,0.37624161039368503,0.0,0.0,0.0,0.0,0.0,2.0450562725377366,stabilize,85.0,2.0,0.0,0.0,-2.0,0.045056272537736586,0.0,0,0
1761255520.6601422,4.755968332290649,0.0,0.0,2.052276710272857,0.0,0.0,0.08611971382189015,0.0,0.0,0.0,0.35,0.0,0.0,0.0,0.0,0.0,2.052276710272857,stabilize,85.0,2.0,0.0,0.0,-2.0,0.05227671027285696,0.0,0,0
1761255520.7649007,4.860726833343506,0.0,0.0,2.0587266071877366,0.0,0.0,0.038537053957435875,0.0,0.0,0.0,0.35,0.0,0.0,0.0,0.0,0.0,2.0587266071877366,stabilize,85.0,2.0,0.0,0.0,-2.0,0.05872660718773659,0.0,0,0
1761255520.867611,4.963437080383301,0.0,0.0,2.064458636452702,0.0,0.0,0.04796246852025137,0.0,0.0,0.0,0.35,0.0,0.0,0.0,0.0,0.0,2.064458636452702,stabilize,85.0,2.0,0.0,0.0,-2.0,0.06445863645270178,0.0,0,0
1761255520.9777112,5.073537349700928,0.0,0.0,2.070694919542552,0.0,0.0,0.0344722649557196,0.0,0.0,0.0,0.39847214480783033,0.0,0.0,0.0,0.0,0.0,2.070694919542552,stabilize,85.0,2.0,0.0,0.0,-2.0,0.07069491954255192,0.0,0,0
1761255521.084349,5.180175065994263,0.0,0.0,2.0753003775660632,0.0,0.0,0.0655627494071599,0.0,0.0,0.0,0.35,0.0,0.0,0.0,0.0,0.0,2.0753003775660632,stabilize,85.0,2.0,0.0,0.0,-2.0,0.07530037756606323,0.0,0,0
1761255521.1878667,5.283692836761475,0.0,0.0,2.078859886153381,0.0,0.0,0.009687260143126954,0.0,0.0,0.0,0.35,0.0,0.0,0.0,0.0,0.0,2.078859886153381,stabilize,85.0,2.0,0.0,0.0,-2.0,0.07885988615338091,0.0,0,0
1761255521.2919567,5.38778281211853,0.0,0.0,2.0825840604644137,0.0,0.0,0.0493818929732973,0.0,0.0,0.0,0.6062501053961988,0.0,0.0,0.0,0.0,0.0,2.0825840604644137,stabilize,85.0,2.0,0.0,0.0,-2.0,0.08258406046441369,0.0,0,0
1761255521.3943417,5.490167856216431,0.0,0.0,2.085462268277003,0.0,0.0,0.006792286395625204,0.0,0.0,0.0,0.35,0.0,0.0,0.0,0.0,0.0,2.085462268277003,stabilize,85.0,2.0,0.0,0.0,-2.0,0.08546226827700298,0.0,0,0
1761255521.499931,5.595757246017456,0.0,0.0,2.0878257929916546,0.0,0.0,0.012973341998583618,0.0,0.0,0.0,0.35,0.0,0.0,0.0,0.0,0.0,2.0878257929916546,stabilize,85.0,2.0,0.0,0.0,-2.0,0.0878257929916546,0.0,0,0
1761255521.6044593,5.7002854347229,0.0,0.0,2.089319715699238,0.0,0.0,0.021848942338841677,0.0,0.0,0.0,0.35,0.0,0.0,0.0,0.0,0.0,2.089319715699238,stabilize,85.0,2.0,0.0,0.0,-2.0,0.0893197156992378,0.0,0,0
1761255521.7086093,5.80443549156189,0.0,0.0,2.0910886585678115,0.0,0.0,0.00817717216065628,0.0,0.0,0.0,0.35,0.0,0.0,0.0,0.0,0.0,2.0910886585678115,stabilize,85.0,2.0,0.0,0.0,-2.0,0.09108865856781145,0.0,0,0
1761255521.8134446,5.909270763397217,0.0,0.0,2.092220406231933,0.0,0.0,0.008416363141409861,0.0,0.0,0.0,0.478506782548423,0.0,0.0,0.0,0.0,0.0,2.092220406231933,stabilize,85.0,2.0,0.0,0.0,-2.0,0.09222040623193317,0.0,0,0
1761255521.9167175,6.012543678283691,0.0,0.0,2.0929908777629165,0.0,0.0,0.03448835324044118,0.0,0.0,0.0,0.636228444115545,0.0,0.0,0.0,0.0,0.0,2.0929908777629165,stabilize,85.0,2.0,0.0,0.0,-2.0,0.09299087776291648,0.0,0,0
1761255522.0218267,6.117652893066406,0.0,0.0,2.0938003343601856,0.0,0.0,-0.011955543987656386,0.0,0.0,0.0,0.35,0.0,0.0,0.0,0.0,0.0,2.0938003343601856,stabilize,85.0,2.0,0.0,0.0,-2.0,0.09380033436018564,0.0,0,0
1761255522.1263342,6.222160339355469,0.0,0.0,2.0947632433187886,0.0,0.0,-0.011124861195812089,0.0,0.0,0.0,0.35,0.0,0.0,0.0,0.0,0.0,2.0947632433187886,stabilize,85.0,2.0,0.0,0.0,-2.0,0.0947632433187886,0.0,0,0
1761255522.23009,6.325916051864624,0.0,0.0,2.0954878827586083,0.0,0.0,-0.016732929221432616,0.0,0.0,0.0,0.35,0.0,0.0,0.0,0.0,0.0,2.0954878827586083,stabilize,85.0,2.0,0.0,0.0,-2.0,0.09548788275860831,0.0,0,0
1761255522.3333657,6.429191827774048,0.0,0.0,2.0965037747810356,0.0,0.0,-0.013508498844200058,0.0,0.0,0.0,0.35,0.0,0.0,0.0,0.0,0.0,2.0965037747810356,stabilize,85.0,2.0,0.0,0.0,-2.0,0.09650377478103556,0.0,0,0
1761255522.4448397,6.540665864944458,0.0,0.0,2.0978275011648124,0.0,0.0,0.0254768371351757,0.0,0.0,0.0,0.35,0.0,0.0,0.0,0.0,0.0,2.0978275011648124,stabilize,85.0,2.0,0.0,0.0,-2.0,0.09782750116481242,0.0,0,0
1761255522.5484114,6.644237518310547,0.0,0.0,2.0998230900061277,0.0,0.0,0.0074384456733623434,0.0,0.0,0.0,0.35,0.0,0.0,0.0,0.0,0.0,2.0998230900061277,stabilize,85.0,2.0,0.0,0.0,-2.0,0.09982309000612766,0.0,0,0
1761255522.6528964,6.748722553253174,0.0,0.0,2.1007921733497135,0.0,0.0,0.03827731488122997,0.0,0.0,0.0,0.6531869277840732,0.0,0.0,0.0,0.0,0.0,2.1007921733497135,stabilize,85.0,2.0,0.0,0.0,-2.0,0.10079217334971347,0.0,0,0
1761255522.7548528,6.85067892074585,0.0,0.0,2.1016755022503335,0.0,0.0,0.025142191873503587,0.0,0.0,0.0,0.35,0.0,0.0,0.0,0.0,0.0,2.1016755022503335,stabilize,85.0,2.0,0.0,0.0,-2.0,0.1016755022503335,0.0,0,0
1761255522.8587031,6.954529285430908,0.0,0.0,2.1024633284248004,0.0,0.0,0.021003510804406617,0.0,0.0,0.0,0.35,0.0,0.0,0.0,0.0,0.0,2.1024633284248004,stabilize,85.0,2.0,0.0,0.0,-2.0,0.10246332842480044,0.0,0,0
1761255522.9635718,7.05939793586731,0.0,0.0,2.1034384758061875,0.0,0.0,-0.015957472385083184,0.0,0.0,0.0,0.35,0.0,0.0,0.0,0.0,0.0,2.1034384758061875,stabilize,85.0,2.0,0.0,0.0,-2.0,0.10343847580618748,0.0,0,0
1761255523.067756,7.16358208656311,0.0,0.0,2.1050179533803215,0.0,0.0,0.019510646797221722,0.0,0.0,0.0,0.35,0.0,0.0,0.0,0.0,0.0,2.1050179533803215,stabilize,85.0,2.0,0.0,0.0,-2.0,0.1050179533803215,0.0,0,0
1761255523.1715846,7.267410755157471,0.0,0.0,2.1055121281335536,0.0,0.0,-0.006213369090573883,0.0,0.0,0.0,0.35,0.0,0.0,0.0,0.0,0.0,2.1055121281335536,stabilize,85.0,2.0,0.0,0.0,-2.0,0.1055121281335536,0.0,0,0
1761255523.2788897,7.374715805053711,0.0,0.0,2.105466131107976,0.0,0.0,-0.020864199771972805,0.0,0.0,0.0,0.35,0.0,0.0,0.0,0.0,0.0,2.105466131107976,stabilize,85.0,2.0,0.0,0.0,-2.0,0.10546613110797587,0.0,0,0
1761255523.3835182,7.479344367980957,0.0,0.0,2.105823530985841,0.0,0.0,0.012639385578547546,0.0,0.0,0.0,0.5792994431237731,0.0,0.0,0.0,0.0,0.0,2.105823530985841,stabilize,85.0,2.0,0.0,0.0,-2.0,0.10582353098584107,0.0,0,0
1761255523.4894965,7.585322618484497,0.0,0.0,2.1053270595745426,0.0,0.0,-0.007894611942672845,0.0,0.0,0.0,0.4823881317914282,0.0,0.0,0.0,0.0,0.0,2.1053270595745426,stabilize,85.0,2.0,0.0,0.0,-2.0,0.10532705957454258,0.0,0,0
1761255523.593334,7.689160108566284,0.0,0.0,2.1042166090135015,0.0,0.0,-0.00645173094399934,0.0,0.0,0.0,0.35,0.0,0.0,0.0,0.0,0.0,2.1042166090135015,stabilize,85.0,2.0,0.0,0.0,-2.0,0.1042166090135015,0.0,0,0
1761255523.6955562,7.791382312774658,0.0,0.0,2.1023867349606453,0.0,0.0,0.023904255763426155,0.0,0.0,0.0,0.704434158235482,0.0,0.0,0.0,0.0,0.0,2.1023867349606453,stabilize,85.0,2.0,0.0,0.0,-2.0,0.10238673496064532,0.0,0,0
1761255523.79871,7.894536256790161,0.0,0.0,2.1012056903400156,0.0,0.0,-0.02858780242932164,0.0,0.0,0.0,0.35,0.0,0.0,0.0,0.0,0.0,2.1012056903400156,stabilize,85.0,2.0,0.0,0.0,-2.0,0.10120569034001559,0.0,0,0
1761255523.9029005,7.9987266063690186,0.0,0.0,2.099399129479975,0.0,0.0,-0.03369348638576984,0.0,0.0,0.0,0.35,0.0,0.0,0.0,0.0,0.0,2.099399129479975,stabilize,85.0,2.0,0.0,0.0,-2.0,0.0993991294799752,0.0,0,0
1761255524.0071561,8.10298228263855,0.0,0.0,2.0976659108473585,0.0,0.0,-0.035313050259721604,0.0,0.0,0.0,0.35,0.0,0.0,0.0,0.0,0.0,2.0976659108473585,stabilize,85.0,2.0,0.0,0.0,-2.0,0.09766591084735854,0.0,0,0
1761255524.111873,8.207699060440063,0.0,0.0,2.096027840693063,0.0,0.0,-0.0049754177632183524,0.0,0.0,0.0,0.549753366741126,0.0,0.0,0.0,0.0,0.0,2.096027840693063,stabilize,85.0,2.0,0.0,0.0,-2.0,0.09602784069306303,0.0,0,0
1761255524.2177014,8.313527584075928,0.0,0.0,2.094081769501021,0.0,0.0,-0.017824858265936806,0.0,0.0,0.0,0.5004225390071337,0.0,0.0,0.0,0.0,0.0,2.094081769501021,stabilize,85.0,2.0,0.0,0.0,-2.0,0.0940817695010212,0.0,0,0
1761255524.3210552,8.416881322860718,0.0,0.0,2.092236064536238,0.0,0.0,-0.03408652767577844,0.0,0.0,0.0,0.35,0.0,0.0,0.0,0.0,0.0,2.092236064536238,stabilize,85.0,2.0,0.0,0.0,-2.0,0.0922360645362379,0.0,0,0
1761255524.4261727,8.521998882293701,0.0,0.0,2.0911546783125456,0.0,0.0,-0.022605063359588645,0.0,0.0,0.0,0.35,0.0,0.0,0.0,0.0,0.0,2.0911546783125456,stabilize,85.0,2.0,0.0,0.0,-2.0,0.09115467831254565,0.0,0,0
1761255524.5321758,8.628001928329468,0.0,0.0,2.090619151587109,0.0,0.0,-0.022052887005479152,0.0,0.0,0.0,0.37882251867256844,0.0,0.0,0.0,0.0,0.0,2.090619151587109,stabilize,85.0,2.0,0.0,0.0,-2.0,0.09061915158710887,0.0,0,0
1761255524.6361716,8.731997728347778,0.0,0.0,2.0898456725245356,0.0,0.0,0.009422855902601238,0.0,0.0,0.0,0.5869504081407435,0.0,0.0,0.0,0.0,0.0,2.0898456725245356,stabilize,85.0,2.0,0.0,0.0,-2.0,0.08984567252453557,0.0,0,0
1761255524.7412763,8.83710241317749,0.0,0.0,2.0888211625840385,0.0,0.0,0.018233595605436935,0.0,0.0,0.0,0.6481091019262044,0.0,0.0,0.0,0.0,0.0,2.0888211625840385,stabilize,85.0,2.0,0.0,0.0,-2.0,0.0888211625840385,0.0,0,0
1761255524.845913,8.941739082336426,0.0,0.0,2.0876824394096944,0.0,0.0,-0.016490637781391138,0.0,0.0,0.0,0.35,0.0,0.0,0.0,0.0,0.0,2.0876824394096944,stabilize,85.0,2.0,0.0,0.0,-2.0,0.08768243940969445,0.0,0,0
1761255524.9509633,9.046789407730103,0.0,0.0,2.0871838220930132,0.0,0.0,-0.019864634766477183,0.0,0.0,0.0,0.41206017053823385,0.0,0.0,0.0,0.0,0.0,2.0871838220930132,stabilize,85.0,2.0,0.0,0.0,-2.0,0.08718382209301323,0.0,0,0
1761255525.0609548,9.15678095817566,0.0,0.0,2.0849896346250354,0.0,0.0,-0.04180615743789512,0.0,0.0,0.0,0.35,0.0,0.0,0.0,0.0,0.0,2.0849896346250354,stabilize,85.0,2.0,0.0,0.0,-2.0,0.08498963462503539,0.0,0,0
1761255525.1661751,9.262001276016235,0.0,0.0,2.0841845225551845,0.0,0.0,-0.009822419033668567,0.0,0.0,0.0,0.35,0.0,0.0,0.0,0.0,0.0,2.0841845225551845,stabilize,85.0,2.0,0.0,0.0,-2.0,0.0841845225551845,0.0,0,0
1761255525.2717326,9.367558717727661,0.0,0.0,2.082490131350921,0.0,0.0,-0.010822304418718467,0.0,0.0,0.0,0.5229186975959996,0.0,0.0,0.0,0.0,0.0,2.082490131350921,stabilize,85.0,2.0,0.0,0.0,-2.0,0.0824901313509212,0.0,0,0
1761255525.3769476,9.472773790359497,0.0,0.0,2.0810935384780236,0.0,0.0,0.027986217867492585,0.0,0.0,0.0,0.6852464065482256,0.0,0.0,0.0,0.0,0.0,2.0810935384780236,stabilize,85.0,2.0,0.0,0.0,-2.0,0.08109353847802359,0.0,0,0
1761255525.4778311,9.573657274246216,0.0,0.0,2.080401130708122,0.0,0.0,-0.006699571498842802,0.0,0.0,0.0,0.5202934218502799,0.0,0.0,0.0,0.0,0.0,2.080401130708122,stabilize,85.0,2.0,0.0,0.0,-2.0,0.08040113070812183,0.0,0,0
1761255525.582354,9.67818021774292,0.0,0.0,2.078658078099617,0.0,0.0,-0.034190424158423105,0.0,0.0,0.0,0.35,0.0,0.0,0.0,0.0,0.0,2.078658078099617,stabilize,85.0,2.0,0.0,0.0,-2.0,0.07865807809961689,0.0,0,0
1761255525.6879573,9.783783435821533,0.0,0.0,2.0772698160126364,0.0,0.0,0.02625638387963517,0.0,0.0,0.0,0.6915831501943401,0.0,0.0,0.0,0.0,0.0,2.0772698160126364,stabilize,85.0,2.0,0.0,0.0,-2.0,0.07726981601263638,0.0,0,0
1761255525.7925637,9.888389825820923,0.0,0.0,2.0768971071219027,0.0,0.0,0.014396118068416442,0.0,0.0,0.0,0.35,0.0,0.0,0.0,0.0,0.0,2.0768971071219027,stabilize,85.0,2.0,0.0,0.0,-2.0,0.07689710712190267,0.0,0,0
1761255525.8985841,9.994410276412964,0.0,0.0,2.076662260151556,0.0,0.0,0.028499248584474293,0.0,0.0,0.0,0.6613689019401208,0.0,0.0,0.0,0.0,0.0,2.076662260151556,stabilize,85.0,2.0,0.0,0.0,-2.0,0.07666226015155608,0.0,0,0
1761255526.0043352,10.10016131401062,0.0,0.0,2.0772284455243937,0.0,0.0,0.013239066212182866,0.0,0.0,0.0,0.35,0.0,0.0,0.0,0.0,0.0,2.0772284455243937,stabilize,85.0,2.0,0.0,0.0,-2.0,0.07722844552439367,0.0,0,0
1761255526.1102142,10.206040382385254,0.0,0.0,2.076347566281874,0.0,0.0,-0.012187799120526695,0.0,0.0,0.0,0.4690137110473873,0.0,0.0,0.0,0.0,0.0,2.076347566281874,stabilize,85.0,2.0,0.0,0.0,-2.0,0.076347566281874,0.0,0,0
1761255526.216761,10.312587261199951,0.0,0.0,2.0759123059156765,0.0,0.0,-0.020903454868771498,0.0,0.0,0.0,0.35,0.0,0.0,0.0,0.0,0.0,2.0759123059156765,stabilize,85.0,2.0,0.0,0.0,-2.0,0.07591230591567655,0.0,0,0
1761255526.3263054,10.422131538391113,0.0,0.0,2.073968307437056,0.0,0.0,-0.035844083763466046,0.0,0.0,0.0,0.35,0.0,0.0,0.0,0.0,0.0,2.073968307437056,stabilize,85.0,2.0,0.0,0.0,-2.0,0.07396830743705607,0.0,0,0
1761255526.4299393,10.525765419006348,0.0,0.0,2.0727117738546226,0.0,0.0,-0.02557544672995772,0.0,0.0,0.0,0.35,0.0,0.0,0.0,0.0,0.0,2.0727117738546226,stabilize,85.0,2.0,0.0,0.0,-2.0,0.07271177385462257,0.0,0,0
1761255526.5356107,10.631436824798584,0.0,0.0,2.0706654754951774,0.0,0.0,-0.0015241388285856736,0.0,0.0,0.0,0.5730253424715999,0.0,0.0,0.0,0.0,0.0,2.0706654754951774,stabilize,85.0,2.0,0.0,0.0,-2.0,0.07066547549517743,0.0,0,0
1761255526.6414459,10.737272024154663,0.0,0.0,2.0693265277136774,0.0,0.0,-0.019833630392204277,0.0,0.0,0.0,0.35,0.0,0.0,0.0,0.0,0.0,2.0693265277136774,stabilize,85.0,2.0,0.0,0.0,-2.0,0.06932652771367742,0.0,0,0
1761255526.746838,10.842664241790771,0.0,0.0,2.068760510475707,0.0,0.0,-0.024520911343959555,0.0,0.0,0.0,0.38144450879519404,0.0,0.0,0.0,0.0,0.0,2.068760510475707,stabilize,85.0,2.0,0.0,0.0,-2.0,0.06876051047570719,0.0,0,0
1761255526.8510003,10.946826457977295,0.0,0.0,2.067796901815729,0.0,0.0,-0.017941014112843757,0.0,0.0,0.0,0.44504298103810425,0.0,0.0,0.0,0.0,0.0,2.067796901815729,stabilize,85.0,2.0,0.0,0.0,-2.0,0.06779690181572917,0.0,0,0
1761255526.9566739,11.052500009536743,0.0,0.0,2.0665754474960276,0.0,0.0,0.018959175866937683,0.0,0.0,0.0,0.6413874246150103,0.0,0.0,0.0,0.0,0.0,2.0665754474960276,stabilize,85.0,2.0,0.0,0.0,-2.0,0.06657544749602762,0.0,0,0
1761255527.0628874,11.158713579177856,0.0,0.0,2.0656257683517327,0.0,0.0,-0.012460640303017268,0.0,0.0,0.0,0.48527200015292526,0.0,0.0,0.0,0.0,0.0,2.0656257683517327,stabilize,85.0,2.0,0.0,0.0,-2.0,0.06562576835173273,0.0,0,0
1761255527.170272,11.266098260879517,0.0,0.0,2.0647539377411017,0.0,0.0,-0.01854241187071142,0.0,0.0,0.0,0.4305206896244482,0.0,0.0,0.0,0.0,0.0,2.0647539377411017,stabilize,85.0,2.0,0.0,0.0,-2.0,0.06475393774110172,0.0,0,0
1761255527.2733884,11.369214534759521,0.0,0.0,2.0655378299146245,0.0,0.0,0.06062262441983478,0.0,0.0,0.0,0.35,0.0,0.0,0.0,0.0,0.0,2.0655378299146245,stabilize,85.0,2.0,0.0,0.0,-2.0,0.06553782991462453,0.0,0,0
1761255527.3786285,11.474454641342163,0.0,0.0,2.0674021983280237,0.0,0.0,0.04182072017168473,0.0,0.0,0.0,0.667026250221415,0.0,0.0,0.0,0.0,0.0,2.0674021983280237,stabilize,85.0,2.0,0.0,0.0,-2.0,0.06740219832802374,0.0,0,0
1761255527.4846833,11.580509424209595,0.0,0.0,2.068496668619957,0.0,0.0,0.000740421571594034,0.0,0.0,0.0,0.35,0.0,0.0,0.0,0.0,0.0,2.068496668619957,stabilize,85.0,2.0,0.0,0.0,-2.0,0.06849666861995685,0.0,0,0
1761255527.5899568,11.68578290939331,0.0,0.0,2.069010826990009,0.0,0.0,-0.0007647972630705005,0.0,0.0,0.0,0.35,0.0,0.0,0.0,0.0,0.0,2.069010826990009,stabilize,85.0,2.0,0.0,0.0,-2.0,0.06901082699000893,0.0,0,0
1761255527.694249,11.790075063705444,0.0,0.0,2.0694702853528115,0.0,0.0,-0.016759426546532286,0.0,0.0,0.0,0.35,0.0,0.0,0.0,0.0,0.0,2.0694702853528115,stabilize,85.0,2.0,0.0,0.0,-2.0,0.06947028535281152,0.0,0,0
1761255527.80097,11.896796226501465,0.0,0.0,2.0693141780046407,0.0,0.0,0.020699698528244905,0.0,0.0,0.0,0.6116185949418482,0.0,0.0,0.0,0.0,0.0,2.0693141780046407,stabilize,85.0,2.0,0.0,0.0,-2.0,0.06931417800464068,0.0,0,0
1761255527.9059575,12.001783609390259,0.0,0.0,2.068452463404582,0.0,0.0,0.01258701734925204,0.0,0.0,0.0,0.6074411482359643,0.0,0.0,0.0,0.0,0.0,2.068452463404582,stabilize,85.0,2.0,0.0,0.0,-2.0,0.068452463404582,0.0,0,0
1761255528.010264,12.106090068817139,0.0,0.0,2.0675003555841434,0.0,0.0,-0.028325320700688213,0.0,0.0,0.0,0.35,0.0,0.0,0.0,0.0,0.0,2.0675003555841434,stabilize,85.0,2.0,0.0,0.0,-2.0,0.06750035558414336,0.0,0,0
1761255528.1164014,12.212227582931519,0.0,0.0,2.066745572889033,0.0,0.0,0.02442696781970399,0.0,0.0,0.0,0.6602891827874027,0.0,0.0,0.0,0.0,0.0,2.066745572889033,stabilize,85.0,2.0,0.0,0.0,-2.0,0.06674557288903316,0.0,0,0
1761255528.2209945,12.316820621490479,0.0,0.0,2.066189279302071,0.0,0.0,0.011106418113046957,0.0,0.0,0.0,0.35,0.0,0.0,0.0,0.0,0.0,2.066189279302071,stabilize,85.0,2.0,0.0,0.0,-2.0,0.06618927930207086,0.0,0,0
1761255528.3282073,12.424033403396606,0.0,0.0,2.0656633174332235,0.0,0.0,0.03658578881935333,0.0,0.0,0.0,0.719328083763679,0.0,0.0,0.0,0.0,0.0,2.0656633174332235,stabilize,85.0,2.0,0.0,0.0,-2.0,0.06566331743322351,0.0,0,0
1761255528.4321609,12.527987003326416,0.0,0.0,2.0658483699594705,0.0,0.0,-0.02431913277228213,0.0,0.0,0.0,0.35,0.0,0.0,0.0,0.0,0.0,2.0658483699594705,stabilize,85.0,2.0,0.0,0.0,-2.0,0.06584836995947052,0.0,0,0
1761255528.538684,12.634510040283203,0.0,0.0,2.065615789105712,0.0,0.0,-0.001194423637700847,0.0,0.0,0.0,0.35,0.0,0.0,0.0,0.0,0.0,2.065615789105712,stabilize,85.0,2.0,0.0,0.0,-2.0,0.06561578910571209,0.0,0,0
1761255528.6448567,12.74068284034729,0.0,0.0,2.064532323774375,0.0,0.0,-0.02696193224002532,0.0,0.0,0.0,0.40249762836964487,0.0,0.0,0.0,0.0,0.0,2.064532323774375,stabilize,85.0,2.0,0.0,0.0,-2.0,0.06453232377437512,0.0,0,0
1761255528.7515295,12.847355604171753,0.0,0.0,2.06237648583831,0.0,0.0,-0.026883727192153442,0.0,0.0,0.0,0.35,0.0,0.0,0.0,0.0,0.0,2.06237648583831,stabilize,85.0,2.0,0.0,0.0,-2.0,0.062376485838310014,0.0,0,0
1761255528.8577805,12.953606605529785,0.0,0.0,2.0600646307407002,0.0,0.0,-0.03975220985969767,0.0,0.0,0.0,0.35,0.0,0.0,0.0,0.0,0.0,2.0600646307407002,stabilize,85.0,2.0,0.0,0.0,-2.0,0.06006463074070023,0.0,0,0
1761255528.9641974,13.060023546218872,0.0,0.0,2.058970639218137,0.0,0.0,0.027075214700029146,0.0,0.0,0.0,0.6758671300668492,0.0,0.0,0.0,0.0,0.0,2.058970639218137,stabilize,85.0,2.0,0.0,0.0,-2.0,0.058970639218137055,0.0,0,0
1761255529.073657,13.169483184814453,0.0,0.0,2.058559863264145,0.0,0.0,0.0275036282186846,0.0,0.0,0.0,0.6947870457267667,0.0,0.0,0.0,0.0,0.0,2.058559863264145,stabilize,85.0,2.0,0.0,0.0,-2.0,0.05855986326414486,0.0,0,0
1761255529.1789172,13.27474331855774,0.0,0.0,2.0587191868180548,0.0,0.0,-0.013518066261567974,0.0,0.0,0.0,0.35,0.0,0.0,0.0,0.0,0.0,2.0587191868180548,stabilize,85.0,2.0,0.0,0.0,-2.0,0.05871918681805477,0.0,0,0
1761255529.2845514,13.380377531051636,0.0,0.0,2.0574362258002656,0.0,0.0,0.03072815548028021,0.0,0.0,0.0,0.6874445350808408,0.0,0.0,0.0,0.0,0.0,2.0574362258002656,stabilize,85.0,2.0,0.0,0.0,-2.0,0.05743622580026564,0.0,0,0
1761255529.3882344,13.484060525894165,0.0,0.0,2.057980810178385,0.0,0.0,0.0011505996923695735,0.0,0.0,0.0,0.35,0.0,0.0,0.0,0.0,0.0,2.057980810178385,stabilize,85.0,2.0,0.0,0.0,-2.0,0.05798081017838497,0.0,0,0
1761255529.4955595,13.59138560295105,0.0,0.0,2.057841521398892,0.0,0.0,0.01255063810862686,0.0,0.0,0.0,0.35,0.0,0.0,0.0,0.0,0.0,2.057841521398892,stabilize,85.0,2.0,0.0,0.0,-2.0,0.05784152139889187,0.0,0,0
1761255529.6009035,13.69672966003418,0.0,0.0,2.0579390620868914,0.0,0.0,0.005199067538971959,0.0,0.0,0.0,0.35,0.0,0.0,0.0,0.0,0.0,2.0579390620868914,stabilize,85.0,2.0,0.0,0.0,-2.0,0.05793906208689137,0.0,0,0
1761255529.7068353,13.802661418914795,0.0,0.0,2.0573619371140786,0.0,0.0,-0.02806052774753969,0.0,0.0,0.0,0.36764059377246294,0.0,0.0,0.0,0.0,0.0,2.0573619371140786,stabilize,85.0,2.0,0.0,0.0,-2.0,0.057361937114078554,0.0,0,0
1761255529.8140476,13.909873723983765,0.0,0.0,2.057121145787266,0.0,0.0,-0.025437549223788866,0.0,0.0,0.0,0.35,0.0,0.0,0.0,0.0,0.0,2.057121145787266,stabilize,85.0,2.0,0.0,0.0,-2.0,0.05712114578726579,0.0,0,0
1761255529.9201705,14.01599669456482,0.0,0.0,2.0562679730248155,0.0,0.0,0.0036273933845953725,0.0,0.0,0.0,0.5678727147603276,0.0,0.0,0.0,0.0,0.0,2.0562679730248155,stabilize,85.0,2.0,0.0,0.0,-2.0,0.056267973024815454,0.0,0,0
1761255530.023646,14.11947226524353,0.0,0.0,2.0554948967234408,0.0,0.0,0.020295718144925416,0.0,0.0,0.0,0.6479061904930163,0.0,0.0,0.0,0.0,0.0,2.0554948967234408,stabilize,85.0,2.0,0.0,0.0,-2.0,0.05549489672344077,0.0,0,0
1761255530.1293855,14.22521162033081,0.0,0.0,2.0552948214023194,0.0,0.0,0.011988542529424946,0.0,0.0,0.0,0.35,0.0,0.0,0.0,0.0,0.0,2.0552948214023194,stabilize,85.0,2.0,0.0,0.0,-2.0,0.05529482140231945,0.0,0,0
1761255530.2371542,14.332980394363403,0.0,0.0,2.054851226526025,0.0,0.0,0.04030430650095709,0.0,0.0,0.0,0.7199028837094612,0.0,0.0,0.0,0.0,0.0,2.054851226526025,stabilize,85.0,2.0,0.0,0.0,-2.0,0.05485122652602481,0.0,0,0
1761255530.3416886,14.437514781951904,0.0,0.0,2.0546487157651296,0.0,0.0,-0.01622072034142351,0.0,0.0,0.0,0.35,0.0,0.0,0.0,0.0,0.0,2.0546487157651296,stabilize,85.0,2.0,0.0,0.0,-2.0,0.05464871576512964,0.0,0,0
1761255530.4450965,14.54092264175415,0.0,0.0,2.052891996389108,0.0,0.0,-0.028743690202643283,0.0,0.0,0.0,0.35,0.0,0.0,0.0,0.0,0.0,2.052891996389108,stabilize,85.0,2.0,0.0,0.0,-2.0,0.05289199638910791,0.0,0,0
1761255530.5497553,14.645581483840942,0.0,0.0,2.0511186454787858,0.0,0.0,-0.023511558859956885,0.0,0.0,0.0,0.35,0.0,0.0,0.0,0.0,0.0,2.0511186454787858,stabilize,85.0,2.0,0.0,0.0,-2.0,0.05111864547878575,0.0,0,0
1761255530.6552446,14.751070737838745,0.0,0.0,2.0492269084927655,0.0,0.0,0.010115167498065923,0.0,0.0,0.0,0.6188872525210547,0.0,0.0,0.0,0.0,0.0,2.0492269084927655,stabilize,85.0,2.0,0.0,0.0,-2.0,0.04922690849276545,0.0,0,0
1761255530.7609203,14.856746435165405,0.0,0.0,2.047684773491316,0.0,0.0,-0.03612185480803129,0.0,0.0,0.0,0.35,0.0,0.0,0.0,0.0,0.0,2.047684773491316,stabilize,85.0,2.0,0.0,0.0,-2.0,0.04768477349131617,0.0,0,0
1761255530.8658192,14.961645364761353,0.0,0.0,2.04624892791869,0.0,0.0,0.024364539255676165,0.0,0.0,0.0,0.6989305067950411,0.0,0.0,0.0,0.0,0.0,2.04624892791869,stabilize,85.0,2.0,0.0,0.0,-2.0,0.046248927918690175,0.0,0,0
1761255530.9752376,15.071063756942749,0.0,0.0,2.0464746879543716,0.0,0.0,-0.009787900863540484,0.0,0.0,0.0,0.35,0.0,0.0,0.0,0.0,0.0,2.0464746879543716,stabilize,85.0,2.0,0.0,0.0,-2.0,0.046474687954371596,0.0,0,0
1761255531.0791974,15.175023555755615,0.0,0.0,2.04615538229894,0.0,0.0,-0.02462469214341719,0.0,0.0,0.0,0.36554883896373325,0.0,0.0,0.0,0.0,0.0,2.04615538229894,stabilize,85.0,2.0,0.0,0.0,-2.0,0.046155382298939784,0.0,0,0
1761255531.1841,15.279926061630249,0.0,0.0,2.0461273306181322,0.0,0.0,0.015331244294544348,0.0,0.0,0.0,0.5963419645372638,0.0,0.0,0.0,0.0,0.0,2.0461273306181322,stabilize,85.0,2.0,0.0,0.0,-2.0,0.046127330618132234,0.0,0,0
1761255531.2861238,15.38194990158081,0.0,0.0,2.045632944420979,0.0,0.0,-0.024030825619610067,0.0,0.0,0.0,0.35,0.0,0.0,0.0,0.0,0.0,2.045632944420979,stabilize,85.0,2.0,0.0,0.0,-2.0,0.045632944420979094,0.0,0,0
1761255531.389928,15.485754251480103,0.0,0.0,2.045057049061662,0.0,0.0,0.00907844272227366,0.0,0.0,0.0,0.580271121138175,0.0,0.0,0.0,0.0,0.0,2.045057049061662,stabilize,85.0,2.0,0.0,0.0,-2.0,0.04505704906166219,0.0,0,0
1761255531.4942164,15.59004259109497,0.0,0.0,2.0446935108985755,0.0,0.0,-0.008985771743943577,0.0,0.0,0.0,0.35,0.0,0.0,0.0,0.0,0.0,2.0446935108985755,stabilize,85.0,2.0,0.0,0.0,-2.0,0.04469351089857554,0.0,0,0
1761255531.5987246,15.69455075263977,0.0,0.0,2.0442567908290235,0.0,0.0,-0.018064262824485578,0.0,0.0,0.0,0.35,0.0,0.0,0.0,0.0,0.0,2.0442567908290235,stabilize,85.0,2.0,0.0,0.0,-2.0,0.04425679082902345,0.0,0,0
1761255531.7019608,15.797786951065063,0.0,0.0,2.0431076093634783,0.0,0.0,-0.0044474571355269145,0.0,0.0,0.0,0.5312093078307061,0.0,0.0,0.0,0.0,0.0,2.0431076093634783,stabilize,85.0,2.0,0.0,0.0,-2.0,0.04310760936347835,0.0,0,0
1761255531.8019707,15.897796869277954,0.0,0.0,2.0445391786930127,0.0,0.0,-0.0026363312689137875,0.0,0.0,0.0,0.38617603899800157,0.0,0.0,0.0,0.0,0.0,2.0445391786930127,stabilize,85.0,2.0,0.0,0.0,-2.0,0.044539178693012715,0.0,0,0
1761255531.9054434,16.001269578933716,0.0,0.0,2.045821151330777,0.0,0.0,0.014657038053215395,0.0,0.0,0.0,0.35,0.0,0.0,0.0,0.0,0.0,2.045821151330777,stabilize,85.0,2.0,0.0,0.0,-2.0,0.04582115133077691,0.0,0,0
1761255532.0115657,16.107391834259033,0.0,0.0,2.0464460636673487,0.0,0.0,0.0016678490716219123,0.0,0.0,0.0,0.35,0.0,0.0,0.0,0.0,0.0,2.0464460636673487,stabilize,85.0,2.0,0.0,0.0,-2.0,0.046446063667348714,0.0,0,0
1761255532.1150243,16.210850477218628,0.0,0.0,2.0466441157725392,0.0,0.0,0.003852845579501763,0.0,0.0,0.0,0.5174401091601706,0.0,0.0,0.0,0.0,0.0,2.0466441157725392,stabilize,85.0,2.0,0.0,0.0,-2.0,0.04664411577253924,0.0,0,0
1761255532.2181265,16.313952684402466,0.0,0.0,2.0463237573782616,0.0,0.0,-0.023407729688622255,0.0,0.0,0.0,0.35,0.0,0.0,0.0,0.0,0.0,2.0463237573782616,stabilize,85.0,2.0,0.0,0.0,-2.0,0.046323757378261554,0.0,0,0
1761255532.3224118,16.418237924575806,0.0,0.0,2.0460037319195177,0.0,0.0,-0.009443980030187853,0.0,0.0,0.0,0.35,0.0,0.0,0.0,0.0,0.0,2.0460037319195177,stabilize,85.0,2.0,0.0,0.0,-2.0,0.046003731919517676,0.0,0,0
1761255532.4270723,16.52289843559265,0.0,0.0,2.045874285759256,0.0,0.0,-0.021975523341336373,0.0,0.0,0.0,0.3853368183904069,0.0,0.0,0.0,0.0,0.0,2.045874285759256,stabilize,85.0,2.0,0.0,0.0,-2.0,0.045874285759255784,0.0,0,0
1761255532.5300515,16.625877618789673,0.0,0.0,2.0451526932268633,0.0,0.0,-0.01503662740268347,0.0,0.0,0.0,0.4566219272172133,0.0,0.0,0.0,0.0,0.0,2.0451526932268633,stabilize,85.0,2.0,0.0,0.0,-2.0,0.04515269322686333,0.0,0,0
1761255532.6339054,16.729731559753418,0.0,0.0,2.044953842399409,0.0,0.0,0.03287660596899275,0.0,0.0,0.0,0.6825713116979988,0.0,0.0,0.0,0.0,0.0,2.044953842399409,stabilize,85.0,2.0,0.0,0.0,-2.0,0.044953842399408916,0.0,0,0
1761255532.7373831,16.83320927619934,0.0,0.0,2.0457629966075244,0.0,0.0,-0.001834911095138697,0.0,0.0,0.0,0.35,0.0,0.0,0.0,0.0,0.0,2.0457629966075244,stabilize,85.0,2.0,0.0,0.0,-2.0,0.045762996607524364,0.0,0,0
1761255532.841692,16.93751811981201,0.0,0.0,2.0461814347386014,0.0,0.0,-0.01649352381415754,0.0,0.0,0.0,0.38719465320667834,0.0,0.0,0.0,0.0,0.0,2.0461814347386014,stabilize,85.0,2.0,0.0,0.0,-2.0,0.04618143473860137,0.0,0,0
1761255532.9459114,17.04173755645752,0.0,0.0,2.046590203823699,0.0,0.0,0.022312616825666765,0.0,0.0,0.0,0.35,0.0,0.0,0.0,0.0,0.0,2.046590203823699,stabilize,85.0,2.0,0.0,0.0,-2.0,0.04659020382369894,0.0,0,0
1761255533.0515635,17.14738965034485,0.0,0.0,2.046752667192174,0.0,0.0,-0.0011540000005759686,0.0,0.0,0.0,0.4935313538411615,0.0,0.0,0.0,0.0,0.0,2.046752667192174,stabilize,85.0,2.0,0.0,0.0,-2.0,0.04675266719217408,0.0,0,0
1761255533.1568797,17.252705812454224,0.0,0.0,2.046784696261904,0.0,0.0,0.007292165130210637,0.0,0.0,0.0,0.35,0.0,0.0,0.0,0.0,0.0,2.046784696261904,stabilize,85.0,2.0,0.0,0.0,-2.0,0.046784696261903846,0.0,0,0
1761255533.260027,17.35585308074951,0.0,0.0,2.045585034169923,0.0,0.0,-0.034026316204711984,0.0,0.0,0.0,0.35,0.0,0.0,0.0,0.0,0.0,2.045585034169923,stabilize,85.0,2.0,0.0,0.0,-2.0,0.04558503416992288,0.0,0,0
1761255533.364185,17.46001124382019,0.0,0.0,2.0441204846294103,0.0,0.0,-0.027849747274653294,0.0,0.0,0.0,0.35,0.0,0.0,0.0,0.0,0.0,2.0441204846294103,stabilize,85.0,2.0,0.0,0.0,-2.0,0.04412048462941032,0.0,0,0
1761255533.4672506,17.563076734542847,0.0,0.0,2.042438365132948,0.0,0.0,-0.0204912275101736,0.0,0.0,0.0,0.35,0.0,0.0,0.0,0.0,0.0,2.042438365132948,stabilize,85.0,2.0,0.0,0.0,-2.0,0.042438365132948075,0.0,0,0
1761255533.5710988,17.666924953460693,0.0,0.0,2.041678669000929,0.0,0.0,-0.0036618457468303757,0.0,0.0,0.0,0.35,0.0,0.0,0.0,0.0,0.0,2.041678669000929,stabilize,85.0,2.0,0.0,0.0,-2.0,0.04167866900092898,0.0,0,0
1761255533.6750238,17.77084994316101,0.0,0.0,2.0400784370786114,0.0,0.0,-0.00041656975482183903,0.0,0.0,0.0,0.570582662577253,0.0,0.0,0.0,0.0,0.0,2.0400784370786114,stabilize,85.0,2.0,0.0,0.0,-2.0,0.04007843707861136,0.0,0,0
1761255533.780124,17.87595009803772,0.0,0.0,2.0385904758959645,0.0,0.0,-0.007335221560909766,0.0,0.0,0.0,0.35,0.0,0.0,0.0,0.0,0.0,2.0385904758959645,stabilize,85.0,2.0,0.0,0.0,-2.0,0.03859047589596454,0.0,0,0
1761255533.884449,17.98027515411377,0.0,0.0,2.037437128580574,0.0,0.0,-0.0228589967702542,0.0,0.0,0.0,0.35,0.0,0.0,0.0,0.0,0.0,2.037437128580574,stabilize,85.0,2.0,0.0,0.0,-2.0,0.03743712858057391,0.0,0,0
1761255533.9893792,18.08520531654358,0.0,0.0,2.0359100239906573,0.0,0.0,-0.019665427305895666,0.0,0.0,0.0,0.35,0.0,0.0,0.0,0.0,0.0,2.0359100239906573,stabilize,85.0,2.0,0.0,0.0,-2.0,0.03591002399065735,0.0,0,0
1761255534.0930588,18.188884973526,0.0,0.0,2.0352635084428425,0.0,0.0,0.01860140195892764,0.0,0.0,0.0,0.35,0.0,0.0,0.0,0.0,0.0,2.0352635084428425,stabilize,85.0,2.0,0.0,0.0,-2.0,0.03526350844284254,0.0,0,0
1761255534.1983733,18.294199466705322,0.0,0.0,2.0342328036106756,0.0,0.0,-0.014691255721272424,0.0,0.0,0.0,0.4656950540591822,0.0,0.0,0.0,0.0,0.0,2.0342328036106756,stabilize,85.0,2.0,0.0,0.0,-2.0,0.0342328036106756,0.0,0,0
1761255534.302155,18.3979811668396,0.0,0.0,2.0340119012845093,0.0,0.0,-0.0014988240226084353,0.0,0.0,0.0,0.35,0.0,0.0,0.0,0.0,0.0,2.0340119012845093,stabilize,85.0,2.0,0.0,0.0,-2.0,0.03401190128450926,0.0,0,0
1761255534.4060214,18.501847505569458,0.0,0.0,2.0340716614838947,0.0,0.0,0.011876599063923118,0.0,0.0,0.0,0.35,0.0,0.0,0.0,0.0,0.0,2.0340716614838947,stabilize,85.0,2.0,0.0,0.0,-2.0,0.03407166148389473,0.0,0,0
1761255534.5093248,18.605150938034058,0.0,0.0,2.034281356596108,0.0,0.0,0.01789313060140681,0.0,0.0,0.0,0.35,0.0,0.0,0.0,0.0,0.0,2.034281356596108,stabilize,85.0,2.0,0.0,0.0,-2.0,0.0342813565961082,0.0,0,0
1761255534.6135519,18.709378004074097,0.0,0.0,2.034544597825809,0.0,0.0,0.021575109621809384,0.0,0.0,0.0,0.6149655035817879,0.0,0.0,0.0,0.0,0.0,2.034544597825809,stabilize,85.0,2.0,0.0,0.0,-2.0,0.03454459782580921,0.0,0,0
1761255534.7189877,18.81481385231018,0.0,0.0,2.034910011369946,0.0,0.0,0.0009821723054960416,0.0,0.0,0.0,0.35,0.0,0.0,0.0,0.0,0.0,2.034910011369946,stabilize,85.0,2.0,0.0,0.0,-2.0,0.03491001136994587,0.0,0,0
1761255534.8233485,18.919174671173096,0.0,0.0,2.034778673360679,0.0,0.0,0.007513443336657717,0.0,0.0,0.0,0.35,0.0,0.0,0.0,0.0,0.0,2.034778673360679,stabilize,85.0,2.0,0.0,0.0,-2.0,0.03477867336067897,0.0,0,0
1761255534.928835,19.02466106414795,0.0,0.0,2.0343377726463965,0.0,0.0,-0.005037935017744893,0.0,0.0,0.0,0.35,0.0,0.0,0.0,0.0,0.0,2.0343377726463965,stabilize,85.0,2.0,0.0,0.0,-2.0,0.03433777264639648,0.0,0,0
1761255535.0347345,19.130560636520386,0.0,0.0,2.033555965688125,0.0,0.0,0.021834192122561026,0.0,0.0,0.0,0.6488108953573664,0.0,0.0,0.0,0.0,0.0,2.033555965688125,stabilize,85.0,2.0,0.0,0.0,-2.0,0.0335559656881248,0.0,0,0
1761255535.1394536,19.23527979850769,0.0,0.0,2.0324639730850538,0.0,0.0,-0.034130478118578784,0.0,0.0,0.0,0.35,0.0,0.0,0.0,0.0,0.0,2.0324639730850538,stabilize,85.0,2.0,0.0,0.0,-2.0,0.03246397308505378,0.0,0,0
1761255535.244306,19.340132236480713,0.0,0.0,2.0320983053306065,0.0,0.0,-0.02149579744284725,0.0,0.0,0.0,0.41398501260806464,0.0,0.0,0.0,0.0,0.0,2.0320983053306065,stabilize,85.0,2.0,0.0,0.0,-2.0,0.032098305330606536,0.0,0,0
1761255535.3485112,19.444337368011475,0.0,0.0,2.0313301457959567,0.0,0.0,0.027050977100560675,0.0,0.0,0.0,0.6754228032880871,0.0,0.0,0.0,0.0,0.0,2.0313301457959567,stabilize,85.0,2.0,0.0,0.0,-2.0,0.03133014579595672,0.0,0,0
1761255535.4580264,19.553852558135986,0.0,0.0,2.0322104461643917,0.0,0.0,0.01836141283033762,0.0,0.0,0.0,0.35,0.0,0.0,0.0,0.0,0.0,2.0322104461643917,stabilize,85.0,2.0,0.0,0.0,-2.0,0.032210446164391726,0.0,0,0
1761255535.56491,19.660736083984375,0.0,0.0,2.033522633364359,0.0,0.0,-0.009772769447238514,0.0,0.0,0.0,0.35,0.0,0.0,0.0,0.0,0.0,2.033522633364359,stabilize,85.0,2.0,0.0,0.0,-2.0,0.03352263336435879,0.0,0,0
1761255535.6687713,19.764597415924072,0.0,0.0,2.0345276649902786,0.0,0.0,0.004883954293509064,0.0,0.0,0.0,0.35,0.0,0.0,0.0,0.0,0.0,2.0345276649902786,stabilize,85.0,2.0,0.0,0.0,-2.0,0.034527664990278595,0.0,0,0
1761255535.7747295,19.870555639266968,0.0,0.0,2.0345573652997833,0.0,0.0,0.0007430967162679984,0.0,0.0,0.0,0.35,0.0,0.0,0.0,0.0,0.0,2.0345573652997833,stabilize,85.0,2.0,0.0,0.0,-2.0,0.03455736529978326,0.0,0,0
1761255535.880293,19.97611904144287,0.0,0.0,2.034658349830891,0.0,0.0,-0.0004195771221482715,0.0,0.0,0.0,0.35,0.0,0.0,0.0,0.0,0.0,2.034658349830891,stabilize,85.0,2.0,0.0,0.0,-2.0,0.03465834983089122,0.0,0,0
1761255535.98499,20.08081603050232,0.0,0.0,2.034729456082021,0.0,0.0,-0.019408719241572336,0.0,0.0,0.0,0.35,0.0,0.0,0.0,0.0,0.0,2.034729456082021,stabilize,85.0,2.0,0.0,0.0,-2.0,0.03472945608202105,0.0,0,0
1761255536.0919416,20.18776774406433,0.0,0.0,2.034418133177755,0.0,0.0,-0.018777196023164553,0.0,0.0,0.0,0.4135217609250148,0.0,0.0,0.0,0.0,0.0,2.034418133177755,stabilize,85.0,2.0,0.0,0.0,-2.0,0.034418133177755106,0.0,0,0
1761255536.1967144,20.292540550231934,0.0,0.0,2.032948023768368,0.0,0.0,-0.018753890633300078,0.0,0.0,0.0,0.35,0.0,0.0,0.0,0.0,0.0,2.032948023768368,stabilize,85.0,2.0,0.0,0.0,-2.0,0.03294802376836792,0.0,0,0
1761255536.302769,20.398595094680786,0.0,0.0,2.0323309329644803,0.0,0.0,-0.01278796666432146,0.0,0.0,0.0,0.35,0.0,0.0,0.0,0.0,0.0,2.0323309329644803,stabilize,85.0,2.0,0.0,0.0,-2.0,0.03233093296448031,0.0,0,0
1761255536.4085436,20.504369735717773,0.0,0.0,2.0320755156671484,0.0,0.0,0.005053900806799405,0.0,0.0,0.0,0.35,0.0,0.0,0.0,0.0,0.0,2.0320755156671484,stabilize,85.0,2.0,0.0,0.0,-2.0,0.03207551566714839,0.0,0,0
1761255536.513308,20.609134197235107,0.0,0.0,2.0315202408325637,0.0,0.0,0.005348888600686528,0.0,0.0,0.0,0.5500946401238409,0.0,0.0,0.0,0.0,0.0,2.0315202408325637,stabilize,85.0,2.0,0.0,0.0,-2.0,0.03152024083256366,0.0,0,0
1761255536.617751,20.713577032089233,0.0,0.0,2.0312003659294464,0.0,0.0,0.007225295299421862,0.0,0.0,0.0,0.5582785113904805,0.0,0.0,0.0,0.0,0.0,2.0312003659294464,stabilize,85.0,2.0,0.0,0.0,-2.0,0.031200365929446416,0.0,0,0
1761255536.7223318,20.81815791130066,0.0,0.0,2.030661740669315,0.0,0.0,0.0281155968527333,0.0,0.0,0.0,0.6648083958717562,0.0,0.0,0.0,0.0,0.0,2.030661740669315,stabilize,85.0,2.0,0.0,0.0,-2.0,0.03066174066931504,0.0,0,0
1761255536.8267484,20.922574520111084,0.0,0.0,2.031046065717219,0.0,0.0,-0.006441394594556012,0.0,0.0,0.0,0.35,0.0,0.0,0.0,0.0,0.0,2.031046065717219,stabilize,85.0,2.0,0.0,0.0,-2.0,0.03104606571721913,0.0,0,0
1761255536.9296033,21.025429487228394,0.0,0.0,2.0303132685559224,0.0,0.0,-0.002970022402948483,0.0,0.0,0.0,0.49593206872148415,0.0,0.0,0.0,0.0,0.0,2.0303132685559224,stabilize,85.0,2.0,0.0,0.0,-2.0,0.030313268555922424,0.0,0,0
1761255537.0353348,21.131160974502563,0.0,0.0,2.028742148758441,0.0,0.0,-0.03221930953219504,0.0,0.0,0.0,0.35,0.0,0.0,0.0,0.0,0.0,2.028742148758441,stabilize,85.0,2.0,0.0,0.0,-2.0,0.028742148758440944,0.0,0,0
1761255537.139871,21.235697031021118,0.0,0.0,2.027248055379267,0.0,0.0,-0.03386504971361555,0.0,0.0,0.0,0.35,0.0,0.0,0.0,0.0,0.0,2.027248055379267,stabilize,85.0,2.0,0.0,0.0,-2.0,0.02724805537926711,0.0,0,0
1761255537.2445517,21.340377807617188,0.0,0.0,2.0264597974831826,0.0,0.0,0.007747221221875943,0.0,0.0,0.0,0.35,0.0,0.0,0.0,0.0,0.0,2.0264597974831826,stabilize,85.0,2.0,0.0,0.0,-2.0,0.026459797483182612,0.0,0,0
1761255537.349869,21.445695161819458,0.0,0.0,2.0263197432086772,0.0,0.0,0.03764120333182293,0.0,0.0,0.0,0.7110202786534183,0.0,0.0,0.0,0.0,0.0,2.0263197432086772,stabilize,85.0,2.0,0.0,0.0,-2.0,0.02631974320867725,0.0,0,0
1761255537.4566712,21.552497386932373,0.0,0.0,2.0265755424489824,0.0,0.0,0.04062228429833262,0.0,0.0,0.0,0.7024039400040343,0.0,0.0,0.0,0.0,0.0,2.0265755424489824,stabilize,85.0,2.0,0.0,0.0,-2.0,0.026575542448982414,0.0,0,0
1761255537.5621784,21.65800452232361,0.0,0.0,2.0269139241842917,0.0,0.0,-0.018444589127385728,0.0,0.0,0.0,0.35,0.0,0.0,0.0,0.0,0.0,2.0269139241842917,stabilize,85.0,2.0,0.0,0.0,-2.0,0.026913924184291727,0.0,0,0
1761255537.6684313,21.764257431030273,0.0,0.0,2.026169060025084,0.0,0.0,-0.022141843375195525,0.0,0.0,0.0,0.35,0.0,0.0,0.0,0.0,0.0,2.026169060025084,stabilize,85.0,2.0,0.0,0.0,-2.0,0.0261690600250839,0.0,0,0
1761255537.7749627,21.87078881263733,0.0,0.0,2.0246577301702624,0.0,0.0,-0.025566048797914458,0.0,0.0,0.0,0.35,0.0,0.0,0.0,0.0,0.0,2.0246577301702624,stabilize,85.0,2.0,0.0,0.0,-2.0,0.024657730170262404,0.0,0,0
1761255537.8798094,21.975635528564453,0.0,0.0,2.0230352052749803,0.0,0.0,-0.032283533356095906,0.0,0.0,0.0,0.35,0.0,0.0,0.0,0.0,0.0,2.0230352052749803,stabilize,85.0,2.0,0.0,0.0,-2.0,0.023035205274980264,0.0,0,0
1761255537.9864366,22.082262754440308,0.0,0.0,2.0217793585447126,0.0,0.0,0.011119992696386409,0.0,0.0,0.0,0.35,0.0,0.0,0.0,0.0,0.0,2.0217793585447126,stabilize,85.0,2.0,0.0,0.0,-2.0,0.02177935854471258,0.0,0,0
1761255538.091988,22.187814235687256,0.0,0.0,2.021260459682289,0.0,0.0,0.006970712891130441,0.0,0.0,0.0,0.35,0.0,0.0,0.0,0.0,0.0,2.021260459682289,stabilize,85.0,2.0,0.0,0.0,-2.0,0.021260459682288957,0.0,0,0
1761255538.1954713,22.291297435760498,0.0,0.0,2.0206574925806278,0.0,0.0,0.004007935794793267,0.0,0.0,0.0,0.5516727375552601,0.0,0.0,0.0,0.0,0.0,2.0206574925806278,stabilize,85.0,2.0,0.0,0.0,-2.0,0.020657492580627768,0.0,0,0
1761255538.2989702,22.39479637145996,0.0,0.0,2.0199364409554095,0.0,0.0,-0.022865375337103457,0.0,0.0,0.0,0.35,0.0,0.0,0.0,0.0,0.0,2.0199364409554095,stabilize,85.0,2.0,0.0,0.0,-2.0,0.019936440955409473,0.0,0,0
1761255538.4028196,22.498645782470703,0.0,0.0,2.0198539688397315,0.0,0.0,0.017202227052969754,0.0,0.0,0.0,0.6025395448485393,0.0,0.0,0.0,0.0,0.0,2.0198539688397315,stabilize,85.0,2.0,0.0,0.0,-2.0,0.01985396883973145,0.0,0,0
1761255538.5073392,22.6031653881073,0.0,0.0,2.0192742425536645,0.0,0.0,-0.009879122467310968,0.0,0.0,0.0,0.47965495105363626,0.0,0.0,0.0,0.0,0.0,2.0192742425536645,stabilize,85.0,2.0,0.0,0.0,-2.0,0.0192742425536645,0.0,0,0
1761255538.6125062,22.708332300186157,0.0,0.0,2.019186795092782,0.0,0.0,0.029656912801476552,0.0,0.0,0.0,0.6593557745079106,0.0,0.0,0.0,0.0,0.0,2.019186795092782,stabilize,85.0,2.0,0.0,0.0,-2.0,0.019186795092782205,0.0,0,0
1761255538.7174616,22.81328773498535,0.0,0.0,2.020128822234562,0.0,0.0,0.022610461789403187,0.0,0.0,0.0,0.35,0.0,0.0,0.0,0.0,0.0,2.020128822234562,stabilize,85.0,2.0,0.0,0.0,-2.0,0.020128822234561916,0.0,0,0
1761255538.8253317,22.921157836914062,0.0,0.0,2.0209738484870394,0.0,0.0,0.022376780159867087,0.0,0.0,0.0,0.5940614332889688,0.0,0.0,0.0,0.0,0.0,2.0209738484870394,stabilize,85.0,2.0,0.0,0.0,-2.0,0.020973848487039426,0.0,0,0
1761255538.9287384,23.024564504623413,0.0,0.0,2.0212315385055613,0.0,0.0,0.039336558952746986,0.0,0.0,0.0,0.6993155586358557,0.0,0.0,0.0,0.0,0.0,2.0212315385055613,stabilize,85.0,2.0,0.0,0.0,-2.0,0.021231538505561254,0.0,0,0
1761255539.0349352,23.13076138496399,0.0011831326438066347,0.0,2.0458326378444394,0.06544538328139927,0.0,0.7139435207464063,0.0,-0.12236913502444406,0.0,1.0,0.0,-0.3,0.0,0.0011831326438066347,0.0,2.0458326378444394,auto,85.0,5,10.0,0.0,0.0,10.205967368603345,0.12236913502444406,0,0
1761255539.1394973,23.235323429107666,0.02952313001479767,0.0,2.1724624007269875,0.4955707430565068,0.0,1.4984481220354267,0.0,-0.3754780823453176,0.0,0.42374277809018457,0.0,-0.21068320179282896,0.0,0.02952313001479767,0.0,2.1724624007269875,auto,85.0,5,10.0,0.0,0.0,10.204410903990606,0.3754780823453176,0,0
1761255539.2433186,23.339144706726074,0.1100984590767044,0.0,2.3424854951104748,1.0121030257534491,0.0,1.6760081050750868,0.0,-0.35600619373544373,0.0,0.35,0.0,0.3,0.0,0.1100984590767044,0.0,2.3424854951104748,auto,85.0,5,10.0,0.0,0.0,10.163532396955299,0.35600619373544373,0,0
1761255539.349152,23.4449782371521,0.2361338937765784,0.0,2.527305518981317,1.3512605585943789,0.0,1.7812359776246194,0.0,-0.30235632913123367,0.0,0.35,0.0,0.3,0.0,0.2361338937765784,0.0,2.527305518981317,auto,85.0,5,10.0,0.0,0.0,10.085650922302037,0.30235632913123367,0,0
1761255539.4572747,23.55310082435608,0.39744903114462937,0.0,2.721433458863346,1.6323743682643312,0.0,1.806799945268212,0.0,-0.26541261307823866,0.0,0.35,0.0,0.3,0.0,0.39744903114462937,0.0,2.721433458863346,auto,85.0,5,10.0,0.0,0.0,9.980740713017553,0.26541261307823866,0,0
1761255539.5611336,23.656959772109985,0.5753992534069018,0.0,2.906700900607034,1.7532064863695418,0.0,1.768840337740881,0.0,-0.038782833552333716,0.0,0.42212480031330346,0.0,-0.3,0.0,0.5753992534069018,0.0,2.906700900607034,auto,85.0,5,10.0,0.0,0.0,9.862657317288933,0.038782833552333716,0,0
1761255539.6644197,23.76024580001831,0.7599068877102201,0.0,3.0871762139226626,1.820992177528253,0.0,1.7121287864762298,0.0,-0.047912852833947236,0.0,0.42252656642149466,0.0,-0.16892579443030356,0.0,0.7599068877102201,0.0,3.0871762139226626,auto,85.0,5,10.0,0.0,0.0,9.742175203700397,0.04791285283394723,0,0
1761255539.767712,23.86353826522827,0.9499000349565985,0.0,3.2597892280545313,1.8760783157274517,0.0,1.6312039028248726,0.0,-0.030688002082702896,0.0,0.35,0.0,-0.04218196661012754,0.0,0.9499000349565985,0.0,3.2597892280545313,auto,85.0,5,10.0,0.0,0.0,9.61927934871521,0.030688002082702896,0,0
1761255539.871698,23.96752405166626,1.1474665754191997,0.0,3.427016459940235,1.9084148157338596,0.0,1.5452234601256936,0.0,-0.01716303585353879,0.0,0.35,0.0,0.17235271640423955,0.0,1.1474665754191997,0.0,3.427016459940235,auto,85.0,5,10.0,0.0,0.0,9.492722994484858,0.01716303585353879,0,0
1761255539.9764433,24.072269439697266,1.3478671513357912,0.0,3.585202774428364,1.922416650190867,0.0,1.4489334098096676,0.0,-0.0034813390104711903,0.0,0.35,0.0,0.054470007913679085,0.0,1.3478671513357912,0.0,3.585202774428364,auto,85.0,5,10.0,0.0,0.0,9.36552624067132,0.0034813390104711907,0,0
1761255540.080944,24.176770210266113,1.5487702250321356,0.0,3.7331610808762368,1.92790549738791,0.0,1.3599481585758215,0.0,0.0027277358708011623,0.0,0.35,0.0,-0.07481636584021292,0.0,1.5487702250321356,0.0,3.7331610808762368,auto,85.0,5,10.0,0.0,0.0,9.239035467248321,0.0027277358708011623,0,0
1761255540.185848,24.28167414665222,1.7504151261796967,0.0,3.8701032755122826,1.9235110746267652,0.0,1.259598806512725,0.0,0.0017515463447117761,0.0,0.4002966226719068,0.0,0.3,0.0,1.7504151261796967,0.0,3.8701032755122826,auto,85.0,5,10.0,0.0,0.0,9.112263711805955,0.0017515463447117761,0,0
1761255540.2919524,24.387778520584106,1.953021276476223,0.0,3.997626548591862,1.906982696151095,0.0,1.1494059825406533,0.0,-0.024247586975553098,0.0,0.35,0.0,0.3,0.0,1.953021276476223,0.0,3.997626548591862,auto,85.0,5,10.0,0.0,0.0,8.985259295025983,0.024247586975553098,0,0
1761255540.3967774,24.492603540420532,2.151480331647334,0.0,4.112932757227796,1.8854310279481281,0.0,1.0464295116192164,0.0,-0.011423953765547118,0.0,0.35,0.0,0.19554376102930324,0.0,2.151480331647334,0.0,4.112932757227796,auto,85.0,5,10.0,0.0,0.0,8.860895939463237,0.011423953765547118,0,0
1761255540.5026271,24.598453283309937,2.3491944435472223,0.0,4.219448747522395,1.8604022612395181,0.0,0.9572540203310931,0.0,-0.03609020843613309,0.0,0.35,0.0,0.3,0.0,2.3491944435472223,0.0,4.219448747522395,auto,85.0,5,10.0,0.0,0.0,8.737194824176521,0.03609020843613309,0,0
1761255540.608523,24.704349040985107,2.544387842906944,0.0,4.316293941809462,1.8229272168418629,0.0,0.8939195507000245,0.0,-0.01148615556174905,0.0,0.5576651047275313,0.0,0.13044354603535074,0.0,2.544387842906944,0.0,4.316293941809462,auto,85.0,5,10.0,0.0,0.0,8.61490255482294,0.01148615556174905,0,0
1761255540.7141,24.80992603302002,2.7353933598315416,0.0,4.4045532311681415,1.7881674322747625,0.0,0.7859084340129444,0.0,-0.010463260227137183,0.0,0.35,0.0,-0.08679649110555211,0.0,2.7353933598315416,0.0,4.4045532311681415,auto,85.0,5,10.0,0.0,0.0,8.495563477637806,0.010463260227137183,0,0
1761255540.8195014,24.915327548980713,2.9227916843754618,0.0,4.4843567922840695,1.7527421259354203,0.0,0.7225477275478988,0.0,0.013316855579333292,0.0,0.35,0.0,-0.1223469595933212,0.0,2.9227916843754618,0.0,4.4843567922840695,auto,85.0,5,10.0,0.0,0.0,8.378325213504748,0.013316855579333292,0,0
1761255540.9279883,25.02381443977356,3.1115222368291744,0.0,4.559031286445056,1.7119567909096842,0.0,0.6705645670053701,0.0,0.0245948028270487,0.0,0.35,0.0,-0.3,0.0,3.1115222368291744,0.0,4.559031286445056,auto,85.0,5,10.0,0.0,0.0,8.26050193175232,0.0245948028270487,0,0
1761255541.0331903,25.129016399383545,3.289307669575536,0.0,4.6244943512740955,1.6694783228088639,0.0,0.579637260360108,0.0,-0.01688106447141241,0.0,0.35,0.0,0.207445805917214,0.0,3.289307669575536,0.0,4.6244943512740955,auto,85.0,5,10.0,0.0,0.0,8.14980610558213,0.01688106447141241,0,0
1761255541.138443,25.23426914215088,3.463646409859677,0.0,4.68257244825728,1.6374462698911771,0.0,0.5180427271052649,0.0,-0.004865114051148414,0.0,0.43143989183159276,0.0,0.00018892741796218415,0.0,3.463646409859677,0.0,4.68257244825728,auto,85.0,5,10.0,0.0,0.0,8.040547430897877,0.004865114051148414,0,0
1761255541.2423127,25.338138818740845,3.6320805037467747,0.0,4.734172182749034,1.6006598323685912,0.0,0.4705725380170834,0.0,0.011952069690126346,0.0,0.35,0.0,-0.02489008711595627,0.0,3.6320805037467747,0.0,4.734172182749034,auto,85.0,5,10.0,0.0,0.0,7.9349092601413345,0.011952069690126346,0,0
1761255541.3456795,25.441505670547485,3.795774640479186,0.0,4.780155259982861,1.564142658045186,0.0,0.4104952761595006,0.0,-0.0007493269096004937,0.0,0.35,0.0,0.06659484352765908,0.0,3.795774640479186,0.0,4.780155259982861,auto,85.0,5,10.0,0.0,0.0,7.8321323163786625,0.0007493269096004937,0,0
1761255541.4502108,25.546036958694458,3.95766947954079,0.0,4.822018048253373,1.524005340722986,0.0,0.3739969264380247,0.0,0.004776989429608702,0.0,0.35,0.0,-0.04379997107249979,0.0,3.95766947954079,0.0,4.822018048253373,auto,85.0,5,10.0,0.0,0.0,7.730563768325965,0.004776989429608702,0,0
1761255541.556976,25.652802228927612,4.119216519124307,0.0,4.8611916729082045,1.4864289223549016,0.0,0.33746495127787246,0.0,0.02209850667165655,0.0,0.38700812816474456,0.0,-0.3,0.0,4.119216519124307,0.0,4.8611916729082045,auto,85.0,5,10.0,0.0,0.0,7.6298623073875,0.02209850667165655,0,0
1761255541.6623704,25.758196592330933,4.274330209849641,0.0,4.8947541554967255,1.450743353594113,0.0,0.28324997096159865,0.0,0.007524484493525624,0.0,0.37423257543728516,0.0,-0.06610313042419268,0.0,4.274330209849641,0.0,4.8947541554967255,auto,85.0,5,10.0,0.0,0.0,7.532722800461525,0.007524484493525623,0,0
1761255541.771498,25.867324113845825,4.430998342785094,0.0,4.926435316131071,1.410084938304437,0.0,0.26997298765349487,0.0,0.034306243150399776,0.0,0.47844199190857456,0.0,0.017871708433362273,0.0,4.430998342785094,0.0,4.926435316131071,auto,85.0,5,10.0,0.0,0.0,7.435290470592646,0.034306243150399776,0,0
1761255541.8768613,25.972687482833862,4.578044644546622,0.0,4.952810774105102,1.3787331525433357,0.0,0.23290022456835519,0.0,0.051082651374120505,0.0,0.4616730473373537,0.0,-0.06285935016883093,0.0,4.578044644546622,0.0,4.952810774105102,auto,85.0,5,10.0,0.0,0.0,7.3435641510523455,0.051082651374120505,0,0
1761255541.9801786,26.07600474357605,4.718843134533403,0.0,4.974813759725971,1.3452942329503421,0.0,0.23030486751801055,0.0,0.06263329616439495,0.0,0.6159345986261141,0.0,-0.17811020244413772,0.0,4.718843134533403,0.0,4.974813759725971,auto,85.0,5,10.0,0.0,0.0,7.255300805729824,0.06263329616439495,0,0
1761255542.086705,26.182531118392944,4.860079607280391,0.0,4.995828289625462,1.3103082934130146,0.0,0.2065728538790354,0.0,0.052945691538140126,0.0,0.6082937616116655,0.0,0.13437260027797324,0.0,4.860079607280391,0.0,4.995828289625462,auto,85.0,5,10.0,0.0,0.0,7.167780824140549,0.05294569153814012,0,0
1761255542.1930947,26.288920879364014,4.997271855665746,0.0,5.014940571590477,1.2826868668759326,0.0,0.17277198821116288,0.0,0.032624502199814415,0.0,0.35,0.0,0.28516216461979854,0.0,4.997271855665746,0.0,5.014940571590477,auto,85.0,5,10.0,0.0,0.0,7.083566744423199,0.032624502199814415,0,0
1761255542.2976587,26.393484830856323,5.12864240298855,0.0,5.031044765128802,1.2465687750876981,0.0,0.13419899760114865,0.0,-0.0022907639149219953,0.0,0.35,0.0,0.3,0.0,5.12864240298855,0.0,5.031044765128802,auto,85.0,5,10.0,0.0,0.0,7.002966247718968,0.0022907639149219953,0,0
1761255542.4023,26.49812602996826,5.257005659076138,0.0,5.044960295180211,1.217005411678983,0.0,0.1323821121629426,0.0,-0.014253497931509035,0.0,0.35,0.0,0.3,0.0,5.257005659076138,0.0,5.044960295180211,auto,85.0,5,10.0,0.0,0.0,6.92442197573058,0.014253497931509037,0,0
1761255542.502755,26.598581075668335,5.377140130005753,0.0,5.058055732795509,1.1575574353402354,0.0,0.11900244559499004,0.0,0.06144476437955703,0.0,0.4308691181236747,0.0,-0.3,0.0,5.377140130005753,0.0,5.058055732795509,auto,85.0,5,10.0,0.0,0.0,6.852354425572917,0.06144476437955703,0,0
1761255542.607635,26.703461170196533,5.4978292788286325,0.0,5.069575818620657,1.1388080966721312,0.0,0.09686482490041078,0.0,0.05806221676278982,0.0,0.35,0.0,-0.3,0.0,5.4978292788286325,0.0,5.069575818620657,auto,85.0,5,10.0,0.0,0.0,6.780128330888437,0.05806221676278982,0,0
1761255542.712103,26.807929039001465,5.615494447750654,0.0,5.078921482073495,1.1105963672117214,0.0,0.08873131590736551,0.0,0.06098163026051302,0.0,0.35,0.0,-0.3,0.0,5.615494447750654,0.0,5.078921482073495,auto,85.0,5,10.0,0.0,0.0,6.709644726717873,0.06098163026051302,0,0
1761255542.816036,26.91186213493347,5.72960656169848,0.0,5.08656841196814,1.08385378714891,0.0,0.06697768643060589,0.0,0.04782118042686992,0.0,0.35,0.0,-0.1963976011648207,0.0,5.72960656169848,0.0,5.08656841196814,auto,85.0,5,10.0,0.0,0.0,6.641493681960464,0.04782118042686992,0,0
1761255542.9208474,27.01667356491089,5.842045849094318,0.0,5.092543595335921,1.0557408836861761,0.0,0.05244193199360167,0.0,0.0510649947582156,0.0,0.35,0.0,-0.3,0.0,5.842045849094318,0.0,5.092543595335921,auto,85.0,5,10.0,0.0,0.0,6.57438841196888,0.0510649947582156,0,0
1761255543.0269198,27.122745990753174,5.953065836948244,0.0,5.098656313846314,1.0285027524578163,0.0,0.05716901316289171,0.0,0.05486581017775078,0.0,0.35,0.0,-0.3,0.0,5.953065836948244,0.0,5.098656313846314,auto,85.0,5,10.0,0.0,0.0,6.509529347564254,0.05486581017775077,0,0
1761255543.1322892,27.22811532020569,6.0604725739951,0.0,5.103551465135547,1.0023110372834345,0.0,0.04659567294375859,0.0,0.05490078783166119,0.0,0.35,0.0,-0.3,0.0,6.0604725739951,0.0,5.103551465135547,auto,85.0,5,10.0,0.0,0.0,6.447178754892095,0.05490078783166119,0,0
1761255543.242042,27.337868213653564,6.169498704782224,0.0,5.10798985580845,0.9768615113709318,0.0,0.043130238738141535,0.0,0.05834904696109357,0.0,0.47375851259430823,0.0,0.2729672674125173,0.0,6.169498704782224,0.0,5.10798985580845,auto,85.0,5,10.0,0.0,0.0,6.384692673865132,0.05834904696109356,0,0
1761255543.3470488,27.442874908447266,6.269879049141294,0.0,5.111940432699061,0.9520517541388631,0.0,0.03706873561709141,0.0,0.02207319321416656,0.0,0.35,0.0,0.2747480831833348,0.0,6.269879049141294,0.0,5.111940432699061,auto,85.0,5,10.0,0.0,0.0,6.328170138001863,0.02207319321416656,0,0
1761255543.4520998,27.54792594909668,6.368144762149627,0.0,5.115454447634551,0.9309752835819424,0.0,0.03091364713097009,0.0,0.02234924350929732,0.0,0.35,0.0,0.2990202411774714,0.0,6.368144762149627,0.0,5.115454447634551,auto,85.0,5,10.0,0.0,0.0,6.273615120050425,0.02234924350929732,0,0
1761255543.5567148,27.652540922164917,6.463293382731537,0.0,5.11851799177344,0.8998123900247478,0.0,0.013349286744689095,0.0,0.010052863139417655,0.0,0.35,0.0,0.1821027814222564,0.0,6.463293382731537,0.0,5.11851799177344,auto,85.0,5,10.0,0.0,0.0,6.221536797989621,0.010052863139417653,0,0
1761255543.6620505,27.75787663459778,6.556761051189125,0.0,5.120750319445933,0.8829407733664931,0.0,0.009958367934255141,0.0,0.0015122821099682621,0.0,0.35,0.0,0.3,0.0,6.556761051189125,0.0,5.120750319445933,auto,85.0,5,10.0,0.0,0.0,6.170735636268486,0.0015122821099682621,0,0
1761255543.7660615,27.86188769340515,6.646918230075741,0.0,5.122370188985296,0.8601219211688327,0.0,0.02668058429729949,0.0,0.011466252955389816,0.0,0.35,0.0,0.27250393987810595,0.0,6.646918230075741,0.0,5.122370188985296,auto,85.0,5,10.0,0.0,0.0,6.122240905812483,0.011466252955389816,0,0
