timestamp,simulation_time,position_x,position_y,position_z,velocity_x,velocity_y,velocity_z,attitude_roll,attitude_pitch,attitude_yaw,angular_velocity_x,angular_velocity_y,angular_velocity_z,acceleration_x,acceleration_y,acceleration_z,motor_speed_1,motor_speed_2,motor_speed_3,motor_speed_4,control_throttle,control_roll,control_pitch,control_yaw,estimated_position_x,estimated_position_y,estimated_position_z,estimated_velocity_x,estimated_velocity_y,estimated_velocity_z,estimated_attitude_roll,estimated_attitude_pitch,estimated_attitude_yaw,sensor_accel_x,sensor_accel_y,sensor_accel_z,sensor_gyro_x,sensor_gyro_y,sensor_gyro_z,sensor_gps_x,sensor_gps_y,sensor_gps_z,sensor_gps_vx,sensor_gps_vy,sensor_gps_vz,sensor_baro_altitude,sensor_mag_x,sensor_mag_y,sensor_mag_z,flight_mode,battery_level,gps_fix,waypoint_index,mission_complete,setpoint_altitude,setpoint_position_x,setpoint_position_y,setpoint_position_z,position_error,attitude_error
1760893467.0981839,0.10141968727111816,-6.95851716753741e-13,7.51651637504681e-15,0.050395800628317805,-2.7561698854635232e-11,3.201316282401546e-13,0.9926955682612539,9.041596651835289e-08,1.2508577860625315e-05,-3.62515525795473e-09,,,,,,,,,,,0.8,-0.04414063334705132,1.0,0.20138129697748022,-0.04337410030571752,-0.05581393356378818,-2.3635953077217584,0.03000275667957823,-0.015256838348786557,0.43438408867295764,0.0003927362556859805,-0.0020759571621758125,-0.11357071175600011,,,,,,,,,,,,,,,,,auto,85.0,True,0,False,-10.0,15.0,0.0,-10.0,16.870711192512836,0.11359036230539184
1760893467.2058904,0.20912623405456543,-1.2648346300434197e-11,2.6629680983126675e-14,0.2134979329594177,-2.4294848861983236e-10,-7.796569538162218e-13,2.0321769324479946,-8.779658137611229e-07,5.331878363383916e-05,3.2951817405109026e-08,,,,,,,,,,,0.8,-0.2796997517331374,1.0,0.03287162157299969,-0.46868274696744083,-0.5503243055791558,-0.3070890063630515,0.0407016795693219,-0.01242668211729329,1.5219219981739815,-0.00047940033280498626,-0.009504951917257134,-0.010381381744620999,,,,,,,,,,,,,,,,,auto,85.0,True,0,False,-10.0,15.0,0.0,-10.0,18.262955026451973,0.01408357279087994
1760893467.3114805,0.3147163391113281,-6.502603308147234e-11,-1.1282769910684879e-12,0.4791374225993356,-8.302096224785348e-10,-3.107346491026229e-11,3.0177188725117072,-9.392995952327214e-06,0.00012090894336005063,3.6722485421587504e-07,,,,,,,,,,,0.8,-0.2537114339851595,1.0,0.08673860310478829,-0.2523439829656125,-0.5056808570199972,-0.2684191326380391,0.042361605798766695,-0.03302297579342682,2.6472932758308407,0.0003798761739499171,-0.008557915309292528,-0.04778525865702542,,,,,,,,,,,,,,,,,auto,85.0,True,0,False,-10.0,15.0,0.0,-10.0,18.09954077544149,0.04854702014817574
1760893467.4183598,0.42159557342529297,-2.1091540908153146e-10,-1.0068727699408703e-11,0.8554379380416254,-1.9876679327376416e-09,-1.5560207779465819e-10,3.9826876345680287,-2.7347638294196067e-05,0.00021858622288180687,1.078365769709182e-06,,,,,,,,,,,0.8,0.011738314480280003,1.0,0.09353878664996754,0.35348942028734814,-0.08676616341757501,-0.27824078090865356,-0.006396032135425808,-0.005856471147213884,3.6938638683690566,-0.0020370272522917134,-0.00651652737441657,-0.052992617124242844,,,,,,,,,,,,,,,,,auto,85.0,True,0,False,-10.0,15.0,0.0,-10.0,17.57954501239257,0.053430628657397394
1760893467.5256763,0.5289120674133301,-5.193346551705712e-10,-3.962913668915407e-11,1.3322486599922643,-3.911979417598029e-09,-4.236334994331427e-10,4.893727820985096,-5.1087108371778023e-05,0.000344844509672791,2.0203252824382307e-06,,,,,,,,,,,0.8,-0.14182813647908926,0.9955742362190543,-0.2386267714789923,-0.3799744685446529,-0.42072011833762646,-0.5987975702760727,0.012404406455791476,0.00594172017889575,4.704141121431565,-0.0035079689874711866,-0.0024048051862266585,0.1220941596567754,,,,,,,,,,,,,,,,,auto,85.0,True,0,False,-10.0,15.0,0.0,-10.0,18.030619157303125,0.1221682150016727
1760893467.6341753,0.6374111175537109,-1.0855652476189667e-09,-1.0788306728703912e-10,1.910387575735397,-6.681403036803408e-09,-8.666805058492953e-10,5.752277162810211,-8.193792616549194e-05,0.0005016251482787646,3.2448230387612477e-06,,,,,,,,,,,0.8,0.00044383698586671766,1.0,0.004676295835555426,0.0598704076112949,-0.13196156137332876,-1.042214463261641,0.0014638843063627916,0.00025954366005079196,5.565437192473149,-0.005268082006217479,-0.012312286784340916,-0.013787101537806518,,,,,,,,,,,,,,,,,auto,85.0,True,0,False,-10.0,15.0,0.0,-10.0,17.42029872916213,0.019220542726413194
1760893467.7436335,0.7468693256378174,-2.0110082837676615e-09,-2.354447817737105e-10,2.580921501050171,-1.0500735483689771e-08,-1.5085305656872805e-09,6.545505108929972,-0.00011393013266028769,0.0006879041485773253,4.514893333342547e-06,,,,,,,,,,,0.8,0.09061096685665712,1.0,-0.10426563039587015,0.23908861336709075,-0.040318853386274396,-1.6015575060717695,-0.020861544275299494,0.0589230055291265,6.401867712941184,-0.004465962202453443,-0.017862421773113563,0.05089707273773096,,,,,,,,,,,,,,,,,auto,85.0,True,0,False,-10.0,15.0,0.0,-10.0,16.982931634372992,0.054125067605169976
1760893467.8503194,0.8535552024841309,-3.385487450698213e-09,-4.386166673081933e-10,3.317635600569842,-1.5578074352423224e-08,-2.347176701009528e-09,7.252742000153469,-0.00014544761004390495,0.0008986246617806018,5.763921260214729e-06,,,,,,,,,,,0.8,-0.37025317725015333,1.0,0.23175314417637283,-0.46754265306473364,-0.8223518359686305,-2.449008694306418,0.000888962999167533,0.019618821173973483,7.1140148051311485,0.0010239315799351078,-0.017044345331878853,-0.1360022514946274,,,,,,,,,,,,,,,,,auto,85.0,True,0,False,-10.0,15.0,0.0,-10.0,17.23190668397313,0.1370699476737356
1760893467.9562502,0.9594860076904297,-5.371311664512684e-09,-7.423335418839908e-10,4.124069361771627,-2.188106066363658e-08,-3.388036317050374e-09,7.889288773054768,-0.00018823472150301696,0.0011377750044239256,7.454110433205137e-06,,,,,,,,,,,0.8,-0.32556167010553255,0.9985784185072735,0.017636974167798275,-0.036256763934942024,-0.7820407118365296,-3.189734015522738,-0.0069366413824933065,0.018765468728142505,7.774553694536239,0.0017529681400415887,-0.0162128129891641,-0.013181747109195487,,,,,,,,,,,,,,,,,auto,85.0,True,0,False,-10.0,15.0,0.0,-10.0,16.52514229667258,0.020968706664274566
1760893468.0648568,1.0680925846099854,-8.162637021191605e-09,-1.1807764271972434e-09,5.008691032737882,-3.0424131958954223e-08,-4.846516638915039e-09,8.466857098976057,-0.00024308808601321792,0.0014100300646567874,9.61015701622342e-06,,,,,,,,,,,0.8,-0.6683254924199468,1.0,0.08401757731441634,-0.2624721469106105,-1.405238836668585,-3.872939817154809,0.026023296737227655,-0.029183267910214757,8.377500860747645,0.0019215537144513905,-0.02175072469842541,-0.05422163697249685,,,,,,,,,,,,,,,,,auto,85.0,True,0,False,-10.0,15.0,0.0,-10.0,16.50632056842199,0.058453163383699366
1760893468.1735048,1.1767406463623047,-1.202651776093711e-08,-1.8078228809623118e-09,5.957155675903945,-4.040697558397188e-08,-6.6724747075614855e-09,8.980639516780178,-0.00031945831798337867,0.0017162380673912826,1.2588311891075326e-05,,,,,,,,,,,0.8,-0.3246753792155548,1.0,-0.2700005541392613,-0.4795693972893946,-0.7787359430071262,-4.679334487164245,0.045608717131824704,-0.014073365029775142,8.936466031874097,0.01003506965875872,-0.028300377810246788,0.1502719832292525,,,,,,,,,,,,,,,,,auto,85.0,True,0,False,-10.0,15.0,0.0,-10.0,16.386975922784206,0.15324256246523546
1760893468.2802677,1.283503532409668,-1.6794771420807962e-08,-2.6091642294900425e-09,6.944923575779766,-4.684843477596719e-08,-7.969582040157088e-09,9.42642799254011,-0.000403349380881357,0.002045194059078141,1.5843583719824383e-05,,,,,,,,,,,0.2,-0.32260909843387436,1.0,-0.14108428188985425,-0.4735736579432427,-0.77985106624991,-5.9888548058064925,0.0671183709855047,-0.005612876555006609,9.38866715756549,0.010754184222957841,-0.03962428245077705,0.0876166548613583,,,,,,,,,,,,,,,,,auto,85.0,True,0,False,-10.0,15.0,0.0,-10.0,16.00402871786438,0.09675957031288768
1760893468.3876371,1.3908729553222656,-2.204580851636635e-08,-3.514340592384173e-09,7.97844922112875,-5.2515020333580994e-08,-9.219716875363436e-09,9.816387416933642,-0.0004926405105255535,0.002389544248992881,1.9313192768256313e-05,,,,,,,,,,,0.8,0.06907662599906406,1.0,-0.12401563889802011,0.4983467471433281,-0.0747215416790471,-5.742762263605788,-0.008234130865858225,0.023468061746973332,9.81916334411543,0.01195568491745075,-0.040712671763478064,0.08121111309536189,,,,,,,,,,,,,,,,,auto,85.0,True,0,False,-10.0,15.0,0.0,-10.0,15.113821605373616,0.09162807939793195
1760893468.4953806,1.4986164569854736,-2.8080476858314338e-08,-4.593160050070487e-09,9.049725732229492,-5.8534794164663954e-08,-1.0597338039906912e-08,10.154879299221577,-0.0005826538264000963,0.0027520866127208905,2.2811670214798606e-05,,,,,,,,,,,0.2,0.04112248414984124,1.0,0.11234058567879693,0.4991375661360377,-0.07177363065404442,-7.634493406993737,0.023150538342084588,0.030859559783360864,10.163981937702077,0.009097871786838317,-0.042776838850688066,-0.056992315247177266,,,,,,,,,,,,,,,,,auto,85.0,True,0,False,-10.0,15.0,0.0,-10.0,14.692711942369947,0.07183838257046937
1760893468.601845,1.6050808429718018,-3.460030233038158e-08,-5.788929097587698e-09,10.151991766396751,-6.370299875737686e-08,-1.1835366647620494e-08,10.446974486801508,-0.0006707684456038797,0.003126751919702685,2.623440478222964e-05,,,,,,,,,,,0.2,0.2288335581388683,1.0,-0.1407967921900571,-0.0956591669496254,0.4623055716079738,-8.627377920159319,0.04288713229747642,-0.009931204078615152,10.417151378247322,0.01060143104239203,-0.03690705498069255,0.09241480788350123,,,,,,,,,,,,,,,,,auto,85.0,True,0,False,-10.0,15.0,0.0,-10.0,15.164984124631195,0.10007506064769033
1760893468.7084618,1.7116975784301758,-4.165870973732332e-08,-7.116013782094485e-09,11.274133344200902,-6.923925147092488e-08,-1.3155832567325334e-08,10.696790787279854,-0.0007529952609286237,0.0035115272738603233,2.9422393018117004e-05,,,,,,,,,,,0.2,-0.08366503539365527,1.0,0.019748413583180194,-0.2563146627056004,-0.10804247213926527,-9.084503049938109,0.003432887934769205,-0.016403447236225242,10.67317745384627,0.0059185271539432035,-0.032724040312427746,0.0019013790468006483,,,,,,,,,,,,,,,,,auto,85.0,True,0,False,-10.0,15.0,0.0,-10.0,15.284140307156452,0.033309263280969933
1760893468.8150415,1.818277359008789,-4.9351248660850165e-08,-8.591963402819819e-09,12.425812941409392,-7.519566563438646e-08,-1.455566698386726e-08,10.912384853925001,-0.0008362352095012966,0.003910372439665574,3.265042588089607e-05,,,,,,,,,,,0.2,-0.07959103211740191,1.0,-0.0016895274857668709,-0.2542382466476539,-0.1095727178241655,-11.207687884635558,0.03536719525323384,-0.011550022966141963,10.894566783428958,0.007178197251419898,-0.030508389002928047,0.01683440300896174,,,,,,,,,,,,,,,,,auto,85.0,True,0,False,-10.0,15.0,0.0,-10.0,15.302362585322404,0.0355764731248393
1760893468.9204211,1.923656940460205,-5.768586746333525e-08,-1.0218759518252872e-08,13.591393952347284,-8.299148433639726e-08,-1.633150004850066e-08,11.09596110964058,-0.0009206283163775084,0.004319233703700603,3.592516615282326e-05,,,,,,,,,,,0.2,-0.6765937593426183,1.0,-0.15064490104018824,-1.1967816726918503,-1.2504950560848809,-11.850431524182499,0.012484068673076018,-0.03929799371664985,11.10814507280679,0.006022998189563189,-0.03197729737272531,0.10155517166361377,,,,,,,,,,,,,,,,,auto,85.0,True,0,False,-10.0,15.0,0.0,-10.0,16.350032760328883,0.10664087840073921
1760893469.0293725,2.0326082706451416,-6.72982391778549e-08,-1.2126342286040322e-08,14.80354787409912,-9.40433018242886e-08,-1.8799412491009674e-08,11.256391907248757,-0.0010180919504596566,0.004753428132100935,3.972022225590543e-05,,,,,,,,,,,0.2,-0.6066608622306935,1.0,0.011416889637010048,-1.1935943381249539,-1.2545316405461373,-13.760235232987899,0.0450910552217115,-0.03368628401791218,11.273468468142955,0.0046780608855434185,-0.02860055376303057,0.006374991920434531,,,,,,,,,,,,,,,,,auto,85.0,True,0,False,-10.0,15.0,0.0,-10.0,16.671704059042302,0.02967349745457146
1760893469.1382113,2.141447067260742,-7.793419055990388e-08,-1.4265223700842407e-08,16.030711574834168,-1.0201896733372059e-07,-2.06283946399548e-08,11.392628862231236,-0.00112336359354667,0.0052019597792222335,4.382761598027692e-05,,,,,,,,,,,0.2,-0.11141072929884961,1.0,0.005224565298091974,-0.01770924221329495,-0.3162845584436759,-13.28428918906446,0.013802778474683357,0.000875110170196234,11.394776340810134,0.006480591189118252,-0.027578477292338147,0.000950649142704707,,,,,,,,,,,,,,,,,auto,85.0,True,0,False,-10.0,15.0,0.0,-10.0,15.375896145687712,0.028345620573856083
1760893469.2470691,2.250304937362671,-8.948028772152366e-08,-1.6612623540756415e-08,17.276157673639048,-1.1045140027219062e-07,-2.2571166387818238e-08,11.50859559289163,-0.0012284355652725791,0.005665039870828118,4.792656016777399e-05,,,,,,,,,,,0.2,0.09362455113357246,1.0,-0.09808499335575149,0.22463477286176242,0.15628461427617985,-15.497868382865313,0.03587663757022024,-0.012450902425146352,11.490987586241138,0.004918190416150909,-0.02914152704529276,0.06036414334783104,,,,,,,,,,,,,,,,,auto,85.0,True,0,False,-10.0,15.0,0.0,-10.0,15.765861829639865,0.06721046791697362
1760893469.3533888,2.3566246032714844,-1.0182686075038667e-07,-1.9147726175029147e-08,18.51791318046249,-1.19384305805648e-07,-2.4618860689509947e-08,11.605648558030401,-0.001329945442184038,0.006135248378339977,5.188420648987248e-05,,,,,,,,,,,0.2,-0.00885011362682614,1.0,-0.022767365160314777,-0.11514523409375295,0.08887180496719094,-16.759564256853555,0.0711718024627266,-0.057362494885809176,11.645430020503422,0.005343120087808337,-0.0308387186355145,0.01891339466496037,,,,,,,,,,,,,,,,,auto,85.0,True,0,False,-10.0,15.0,0.0,-10.0,16.557995729797653,0.036569003228222145
1760893469.4614656,2.4647014141082764,-1.1524597610499399e-07,-2.192585098240347e-08,19.776805482220542,-1.2904931011164627e-07,-2.6811556654237468e-08,11.688292420000048,-0.00143154612869628,0.006620955215807445,5.5844793185734964e-05,,,,,,,,,,,0.2,-0.01088649053702306,1.0,0.10320986605865273,-0.10557634064043928,0.08316855734654745,-18.77811138759943,0.10618249363705683,-0.049751513577357014,11.728732707380992,0.004829729332740492,-0.02765540786332967,-0.051807096556315865,,,,,,,,,,,,,,,,,auto,85.0,True,0,False,-10.0,15.0,0.0,-10.0,17.471135999841284,0.05892472420902863
1760893469.5702791,2.573514938354492,-1.2969627010735025e-07,-2.4937228207528297e-08,21.040728655938917,-1.3921588288482045e-07,-2.9091107216543824e-08,11.757966829642397,-0.0015333287182010148,0.00711810174744486,5.981283785042208e-05,,,,,,,,,,,0.2,-0.1831174757330612,1.0,0.05626916926261809,-0.21912041816239886,-0.28830017602262614,-17.63501398218867,0.05105686179891602,-0.014377170034939778,11.78849713531967,0.00808384299954114,-0.023672203731708866,-0.02366724554511135,,,,,,,,,,,,,,,,,auto,85.0,True,0,False,-10.0,15.0,0.0,-10.0,17.029332981718305,0.03443632179616973
1760893469.6782732,2.681509017944336,-1.4546459630424802e-07,-2.8239869389465777e-08,22.325703910106764,-1.5018651082051908e-07,-3.152009341310153e-08,11.81740718392677,-0.0016383963803884476,0.007633655854410265,6.391105736889032e-05,,,,,,,,,,,0.2,-0.14922516724671459,0.9916622626283349,0.023502459200130704,-0.21202527459876894,-0.28944242480760807,-20.87260549171301,0.07925372462479119,-0.00706908943750926,11.849170895633854,0.004106858768061096,-0.018568842121414863,-0.007537934915020743,,,,,,,,,,,,,,,,,auto,85.0,True,0,False,-10.0,15.0,0.0,-10.0,18.700348661207848,0.020456995122791616
1760893469.7853446,2.7885804176330566,-1.6207988279957544e-07,-3.173281365859738e-08,23.587691950463046,-1.6202906974853163e-07,-3.4113936156896935e-08,11.866439982783662,-0.0017448463610511861,0.008150246819134956,6.806682317482821e-05,,,,,,,,,,,0.2,-0.1493727256827948,1.0,0.21902028191305362,-0.20221061676523563,-0.28990776778562616,-22.203528430716695,0.10678719997310739,0.0003548173201495884,11.900274216089382,0.008517032507112726,-0.020765442818184394,-0.12539870003658943,,,,,,,,,,,,,,,,,auto,85.0,True,0,False,-10.0,15.0,0.0,-10.0,19.49659868565855,0.12739143389187924
1760893469.8888075,2.892043352127075,-1.799775588246366e-07,-3.550810704258319e-08,24.805628577459085,-1.8496165420666344e-07,-3.9073576545788426e-08,11.906395566195686,-0.0018579736560026734,0.008661872381368174,7.248304834733929e-05,,,,,,,,,,,0.2,-0.46677623394288126,0.9894073674521703,0.14887559167585232,0.0536482666221615,-1.1728558002592764,-21.761679891419213,0.06709479661161456,-0.0020263580551713734,11.888331381169438,0.00604244735299578,-0.017135300851156894,-0.08617159638123179,,,,,,,,,,,,,,,,,auto,85.0,True,0,False,-10.0,15.0,0.0,-10.0,19.055343994120484,0.08806630302313878
1760893469.9951572,2.9983930587768555,-2.005888605971477e-07,-3.986815857373339e-08,26.085809280642412,-1.9873604767130148e-07,-4.209702502475987e-08,11.941842999002878,-0.0019876555455483687,0.00921308647360585,7.755311227810814e-05,,,,,,,,,,,0.2,0.24209384019835445,0.9819578234274575,-0.0257964960439135,1.5918881945166121,0.11846069414335297,-22.537667269162135,0.05035834546840357,0.022182133532618154,11.888030088820717,0.008291230054952536,-0.01377543110944247,0.014301852362079183,,,,,,,,,,,,,,,,,auto,85.0,True,0,False,-10.0,15.0,0.0,-10.0,18.35714018240912,0.021518596122002326
1760893470.1032388,3.1064746379852295,-2.22822777557911e-07,-4.4584734900336175e-08,27.384216453448495,-2.1071586684118083e-07,-4.4766443356504055e-08,11.972034994822188,-0.0021226161462198235,0.009783813098874284,8.283286434103925e-05,,,,,,,,,,,0.2,-0.09755039910022065,0.9827510201110528,-0.14063392122482765,1.1469552242626522,-0.5723086001768741,-23.89095787173259,0.08538471704368315,0.08967134351690335,11.923423929833707,0.015789440962182662,-0.012825085807785734,0.07892948603617463,,,,,,,,,,,,,,,,,auto,85.0,True,0,False,-10.0,15.0,0.0,-10.0,19.626336828014285,0.0815086071394304
1760893470.2124612,3.2156970500946045,-2.466303443729437e-07,-4.9651469828924706e-08,28.69326538344168,-2.244274885532379e-07,-4.784264820791121e-08,11.997558477640414,-0.002262795674189459,0.010371094782771756,8.832055334606318e-05,,,,,,,,,,,0.2,-0.13280927796994502,0.9883992802510005,-0.06501178009558643,0.35589436873313257,-0.5669182375339225,-25.907805444590814,0.08626464101200183,0.06631579987723371,11.95087137157811,0.01794585590736184,-0.013334547225297805,0.03671662138454769,,,,,,,,,,,,,,,,,auto,85.0,True,0,False,-10.0,15.0,0.0,-10.0,21.629366613257627,0.04298807020381022
1760893470.3202124,3.3234481811523438,-2.715963568239917e-07,-5.498347342203105e-08,29.9871890669935,-2.395010058829283e-07,-5.124605604294268e-08,12.01872597134814,-0.0024038111120789295,0.010963403161896682,9.384315945343321e-05,,,,,,,,,,,0.2,-0.14473667718760097,1.0,0.0906220082939361,0.551169151674848,-0.4503781929711187,-23.460845262248167,0.047941276081225656,0.00969811332955676,12.021423212806503,0.021383613020461083,-0.0205023681420234,-0.04869736825378981,,,,,,,,,,,,,,,,,auto,85.0,True,0,False,-10.0,15.0,0.0,-10.0,19.752617765106613,0.05700034806985923
1760893470.4289887,3.4322245121002197,-2.98440423207313e-07,-6.073823684193268e-08,31.29554751340024,-2.5404703432870544e-07,-5.45643463529752e-08,12.036691971163437,-0.002550582242985995,0.011574685939177093,9.959473397812667e-05,,,,,,,,,,,0.2,-0.12484667343404568,1.0,-0.17793566444423656,0.5582326510915643,-0.44801110184820153,-28.911306364065016,0.08172927615500411,0.03340797097379449,12.04065566585429,0.01971127781037876,-0.020935341504048428,0.09974396223711252,,,,,,,,,,,,,,,,,auto,85.0,True,0,False,-10.0,15.0,0.0,-10.0,23.79921987172905,0.10380597766779902
1760893470.5385802,3.541815996170044,-3.2709126870555213e-07,-6.690391205855896e-08,32.61552329294662,-2.688473465686076e-07,-5.7966900098134385e-08,12.051883634241767,-0.002700484460019778,0.01220365563826559,0.00010547051322513313,,,,,,,,,,,0.2,-0.1005607426738891,1.0,-0.15718167107276865,0.5689623123975428,-0.44310325811735163,-31.416161718971836,0.11532530585846085,0.05554604828702435,12.057087232201459,0.017153969566792496,-0.01988912446123236,0.09393665442169145,,,,,,,,,,,,,,,,,auto,85.0,True,0,False,-10.0,15.0,0.0,-10.0,25.828340481175157,0.09753938172693694
1760893470.6487868,3.65202260017395,-3.5759820753697016e-07,-7.349463450001372e-08,33.9444468311802,-2.85324244994265e-07,-6.176276311479824e-08,12.064687662160514,-0.0028535650601425938,0.01284940232806296,0.00011147260098551704,,,,,,,,,,,0.2,-0.3438852117062006,0.9848578424632624,-0.06032916053985629,-0.8395670079417548,-0.9962230696799729,-31.17706547149746,0.0967701123008289,0.08746507240973657,12.009197577535465,0.014440832166646121,-0.014569435243713923,0.0379975825456023,,,,,,,,,,,,,,,,,auto,85.0,True,0,False,-10.0,15.0,0.0,-10.0,26.46417286422777,0.043181273213001435
1760893470.7573366,3.7605724334716797,-3.8933618643407506e-07,-8.037816649573232e-08,35.24855976494278,-3.023455022866801e-07,-6.570026883597233e-08,12.075219055023565,-0.003009612925179444,0.013495717472123792,0.00011759560037621061,,,,,,,,,,,0.2,-0.3060896641112496,0.9852651587655494,0.06499644950769129,-0.8276219522027299,-0.9857025065669509,-33.83149659269461,0.12392143952928748,0.10713596174268535,12.019846365255253,0.015885037178111135,-0.013686342181336027,-0.02889419129523616,,,,,,,,,,,,,,,,,auto,85.0,True,0,False,-10.0,15.0,0.0,-10.0,28.62560839424932,0.03570048541771235
1760893470.8654444,3.868680238723755,-4.231234500742224e-07,-8.773469283709829e-08,36.5605798175103,-3.1984360460293365e-07,-6.97750235733904e-08,12.084111563864688,-0.0031721708037165067,0.014158616278947102,0.00012397821106486677,,,,,,,,,,,0.2,-0.20994652777840847,0.9934740491303234,-0.005513689615056221,-1.4909908460675128,-0.8114430711891594,-34.644264409482915,0.14769306342886718,0.11364366241686552,12.05286649243798,0.016376887883126908,-0.015200002785179379,0.00486938796449346,,,,,,,,,,,,,,,,,auto,85.0,True,0,False,-10.0,15.0,0.0,-10.0,29.663967826765344,0.02286817615278323
1760893470.9739635,3.9771993160247803,-4.588058858599921e-07,-9.553460585862639e-08,37.872352969544714,-3.3823259831995265e-07,-7.408398409748719e-08,12.091570565033399,-0.003339564680103582,0.014834077089858014,0.0001305541916005981,,,,,,,,,,,0.2,-0.2587734202324576,0.9889927074041097,-0.13683395835206658,-0.3092211588346223,-0.8267378916664819,-34.96657662360178,0.10393876698229523,0.08126311755141993,12.06395436970987,0.017147960876364464,-0.01312101131121311,0.07247185717700283,,,,,,,,,,,,,,,,,auto,85.0,True,0,False,-10.0,15.0,0.0,-10.0,29.29822001988868,0.07561999459620587
1760893471.0808446,4.084080457687378,-4.959128464275801e-07,-1.0367859467620262e-07,39.165053320460224,-3.5731271306667193e-07,-7.858324641918733e-08,12.097745748198163,-0.0035084344657287203,0.015512235619106505,0.00013719083836408538,,,,,,,,,,,0.2,0.3538695464295032,0.9866966473972703,-0.0027688333270002798,-0.1949533844569251,0.4042421447947555,-33.999516964219005,0.13894452728920104,0.0709339455196644,12.075196236830271,0.01743752415415706,-0.011646716329039996,-0.00047687341535967986,,,,,,,,,,,,,,,,,auto,85.0,True,0,False,-10.0,15.0,0.0,-10.0,28.408217729792256,0.02097476240938654
1760893471.1879957,4.1912314891815186,-5.354403447922281e-07,-1.1239066427513212e-07,40.46162637351161,-3.81154030648047e-07,-8.41837623077528e-08,12.102954812352454,-0.0036718079778339198,0.016205714949090688,0.00014360715561628076,,,,,,,,,,,0.2,0.46462308668385705,0.9959932672599577,0.04011444845724077,-0.3335708382726467,0.7496623439273838,-37.90246520583657,0.1398218882556293,0.0810461594389302,12.117294359643108,0.019422106537122664,-0.013340377446237442,-0.022139601206602008,,,,,,,,,,,,,,,,,auto,85.0,True,0,False,-10.0,15.0,0.0,-10.0,31.846945738094703,0.03233180839877035
1760893471.2961822,4.299417972564697,-5.77876511469663e-07,-1.2178147914394718e-07,41.765025018218296,-4.070241454587373e-07,-9.022701554120451e-08,12.107356180361439,-0.0038257347982281454,0.016917088421371435,0.00014964485262401698,,,,,,,,,,,0.2,0.44454997772484417,0.9928288418427418,-0.19870471893877878,-0.3167638508500146,0.7596935663999761,-40.16069950190882,0.17247921760618307,0.10456862978710846,12.122626879884939,0.01881599924020756,-0.012051026100465257,0.11573370283481273,,,,,,,,,,,,,,,,,auto,85.0,True,0,False,-10.0,15.0,0.0,-10.0,33.835605264602236,0.11787094226033117
1760893471.4013443,4.404580116271973,-6.22250387431965e-07,-1.316316333985739e-07,43.04468169138701,-4.319309913532267e-07,-9.598817123216095e-08,12.110992469166929,-0.003966785595998867,0.017629526235055,0.0001551695589949673,,,,,,,,,,,0.2,0.44422455702855096,0.9872420181650612,-0.09781831965153467,-0.29691806063994663,0.7719114304340654,-41.78706434589429,0.20280610380240763,0.12541438961688375,12.126183244649514,0.016988870732734904,-0.009708546405553697,0.06159895179202805,,,,,,,,,,,,,,,,,auto,85.0,True,0,False,-10.0,15.0,0.0,-10.0,35.28468519259299,0.06463210087842544
1760893471.5093458,4.5125815868377686,-6.703721419038716e-07,-1.4233394341971005e-07,44.3528604827512,-4.6183337760385976e-07,-1.0277001182704576e-07,12.114119832922595,-0.004100885936063207,0.01837208792034545,0.00016041350678573567,,,,,,,,,,,0.2,0.6057118922688315,0.9849011786582268,0.034499406513895416,-0.942164569844545,1.1951738455494147,-41.48803589626323,0.11822899122291337,0.0981936756001568,12.098779973442264,0.016302116713346335,-0.008066372252172703,-0.009480624183894254,,,,,,,,,,,,,,,,,auto,85.0,True,0,False,-10.0,15.0,0.0,-10.0,35.31398386330058,0.02051115807462924
1760893471.6161518,4.619387626647949,-7.212464523085365e-07,-1.5365517064653415e-07,45.64686449474589,-4.894758942257021e-07,-1.0890013594534227e-07,12.116720056927788,-0.0042208051166866935,0.01912186429065579,0.0001650913900630209,,,,,,,,,,,0.2,0.5961111604981594,0.9804529432961845,0.07069283533314784,-0.9282594734331214,1.2067939403276926,-44.24021032639858,0.14140980005103732,0.12044603123872241,12.101931316407667,0.018494721225036124,-0.0053562420746079845,-0.03513577380292873,,,,,,,,,,,,,,,,,auto,85.0,True,0,False,-10.0,15.0,0.0,-10.0,37.78303593761935,0.040065778952669516
1760893471.7252698,4.728505611419678,-7.758321416745641e-07,-1.657900583281768e-07,46.96301062739073,-5.173602637048828e-07,-1.1488993973522921e-07,12.118942061321132,-0.004331906922577871,0.01989897741551591,0.00016941442957128694,,,,,,,,,,,0.2,0.6079635655201371,0.9842547445049504,0.03282908105378814,-0.9114529222829919,1.221247749683789,-45.75508114477158,0.1679422226388845,0.1462738327991382,12.10557536705751,0.019069794699346616,-0.005546671494485116,-0.020925790213747242,,,,,,,,,,,,,,,,,auto,85.0,True,0,False,-10.0,15.0,0.0,-10.0,39.15471373708836,0.028849806422448
1760893471.8323402,4.835576057434082,-8.323541565417563e-07,-1.7832488803387607e-07,48.26682473912265,-5.337655998923063e-07,-1.1818553435303946e-07,12.120790678397613,-0.004435398005736832,0.02068244660946226,0.00017343406579729275,,,,,,,,,,,0.2,-0.03557221105743062,0.998733524178822,0.05397272940061921,-0.6386488816667067,0.08841473039902037,-43.617473367541784,0.08413379978319488,0.05579833587069757,12.100555197611241,0.0205587940684874,-0.00904025590719408,-0.02811266377794322,,,,,,,,,,,,,,,,,auto,85.0,True,0,False,-10.0,15.0,0.0,-10.0,37.07707744181016,0.03598210812486827
1760893471.939172,4.942407846450806,-8.903404449652827e-07,-1.911378504598612e-07,49.56179532250986,-5.522060996153768e-07,-1.217443611632278e-07,12.122334385539562,-0.0045376256836341345,0.021472816589495087,0.0001774038711432418,,,,,,,,,,,0.2,0.09087265401351638,0.9959458795769565,-0.21251535487124587,-1.4303463331114699,0.2733962346488916,-44.42308451313811,0.0899632868795676,0.029657843891091946,12.105269665927656,0.015019910990427644,-0.007823082348413897,0.12320247081275043,,,,,,,,,,,,,,,,,auto,85.0,True,0,False,-10.0,15.0,0.0,-10.0,38.14419711470879,0.12436095511838535
1760893472.046158,5.049393892288208,-9.504496120418987e-07,-2.0435492023321605e-07,50.85878752248794,-5.717569170424762e-07,-1.2536632920094971e-07,12.123634987904012,-0.004637855907127562,0.022276802598659894,0.00018129348050934018,,,,,,,,,,,0.2,0.12691813608935143,0.9953184365990433,-0.04757213587582188,-1.4190521489943562,0.2776783857923118,-49.041257143138544,0.1211873665839985,0.05167269654413419,12.108194598868215,0.016886257207420024,-0.008322616462218808,0.031058334753773696,,,,,,,,,,,,,,,,,auto,85.0,True,0,False,-10.0,15.0,0.0,-10.0,42.35424580929282,0.036318477183519236
1760893472.1535485,5.156784296035767,-1.0129009007722174e-06,-2.1800496729799663e-07,52.16081023376276,-5.912900829662413e-07,-1.2881499861443423e-07,12.124732862651236,-0.0047372469204885895,0.02309634248904214,0.0001851489436370431,,,,,,,,,,,0.2,0.06698964874870507,0.9921469881932946,-0.047754258311533876,-0.9485854435200589,0.13661794381203068,-49.1630431266333,0.10332700776802492,0.0446586230903528,12.060738804122172,0.016438024417362126,-0.006763146988561171,0.028981613349442208,,,,,,,,,,,,,,,,,auto,85.0,True,0,False,-10.0,15.0,0.0,-10.0,42.28616782176378,0.033998275195533736
1760893472.260177,5.263412714004517,-1.0770621234840113e-06,-2.3193185826809488e-07,53.45370160300194,-6.120715523010023e-07,-1.3236202021351588e-07,12.12564973929039,-0.004833765794500669,0.023922421595265943,0.00018889024919763197,,,,,,,,,,,0.2,0.09060214085639037,0.9899641043443073,0.2952159134089357,-0.9359601002045455,0.1428939041643667,-52.003692304382334,0.1344294441999786,0.07196716034735583,12.063409388765102,0.021500181262909385,-0.005410541912621308,-0.1649820504179348,,,,,,,,,,,,,,,,,auto,85.0,True,0,False,-10.0,15.0,0.0,-10.0,44.925331497768454,0.16646503752509764
1760893472.3675377,5.370773553848267,-1.143865825796306e-06,-2.463204180458948e-07,54.75556443579549,-6.332319212714494e-07,-1.358200839937421e-07,12.126426301558451,-0.004930112652070525,0.024766535555366797,0.00019262372836822283,,,,,,,,,,,0.2,0.12063822407264209,0.9869377281467343,-0.22265005048108483,-0.9197261444779773,0.15200401995423024,-53.111482826322295,0.16668954560090077,0.09833544217417041,12.066328513246797,0.023324797191365945,-0.0036768678192303232,0.12464766607308264,,,,,,,,,,,,,,,,,auto,85.0,True,0,False,-10.0,15.0,0.0,-10.0,45.957161979625546,0.12686451898953136
1760893472.4738336,5.47706937789917,-1.2123342277968035e-06,-2.609416957997426e-07,56.044588276408106,-6.546188545245908e-07,-1.391782321321305e-07,12.127073191841657,-0.00502226978819171,0.025614602623267865,0.0001961906900010506,,,,,,,,,,,0.2,0.14599307791621463,0.985454676238604,-0.02956920100307243,-0.9005854133934643,0.1641349415604649,-54.6864020012844,0.19439472669636323,0.12968492390035397,12.06811139516331,0.027101605124328503,-0.0021641587186903505,0.017492434520809987,,,,,,,,,,,,,,,,,auto,85.0,True,0,False,-10.0,15.0,0.0,-10.0,47.43131961676858,0.03232902486527451
1760893472.5807118,5.583947658538818,-1.2835598396911096e-06,-2.7601225154751475e-07,57.3407391040114,-6.774347143159277e-07,-1.426559883827184e-07,12.127620642204636,-0.005112306951598188,0.026479638727283716,0.00019967207799688903,,,,,,,,,,,0.2,-0.03641122674840459,0.9853203464386878,0.18439251003214904,-0.1120145547564163,-0.15734312051774907,-54.33905718419269,0.12949915936135384,0.10966923193929774,12.236032615620852,0.02823065333877632,-0.0012560556274089647,-0.09862786849439882,,,,,,,,,,,,,,,,,auto,85.0,True,0,False,-10.0,15.0,0.0,-10.0,46.84388682361716,0.10259631527214678
1760893472.6873071,5.690542936325073,-1.3569757554136646e-06,-2.9139511517232826e-07,58.63351138706844,-7.000260541397291e-07,-1.4593963072865028e-07,12.128080116503106,-0.005201860159380677,0.02735458167324405,0.00020313430512794404,,,,,,,,,,,0.2,0.0414244074344855,0.9852729174729274,-0.025459579185948603,-0.09667065912444073,-0.14399098984103167,-57.12509585614411,0.15935756160914646,0.14001315686207946,12.236996065637982,0.020516591558374223,-0.0004108433492043819,0.01920668946646192,,,,,,,,,,,,,,,,,auto,85.0,True,0,False,-10.0,15.0,0.0,-10.0,49.48439004217385,0.028106871787729013
1760893472.7949975,5.798233270645142,-1.4333268886266352e-06,-3.072272894877293e-07,59.93348549582809,-7.251964458179202e-07,-1.4955966535701134e-07,12.128468740174837,-0.005291259127287344,0.028246727489196564,0.00020658957651983296,,,,,,,,,,,0.2,0.03917521178378601,0.99911408999542,-0.012133365405474099,0.24320983471955257,-0.03771234124862144,-51.192058300078386,0.07283881770912029,0.0824459112970604,12.180619069434178,0.02443195093320915,-0.005472018044505991,0.014814128956103519,,,,,,,,,,,,,,,,,auto,85.0,True,0,False,-10.0,15.0,0.0,-10.0,43.7555704476568,0.029091607460059735
1760893472.9009857,5.904221534729004,-1.5118960724966076e-06,-3.233412982922575e-07,61.22510315680213,-7.498578896473178e-07,-1.5295048107898895e-07,12.128793616337926,-0.005379651690003218,0.029145571075077703,0.00021000524824078183,,,,,,,,,,,0.2,0.09258203714266058,0.986579292115689,0.023670459920432166,-0.8089889818733689,0.041671939308323636,-53.900586433745126,0.07454480649083446,0.09997664130914728,12.225861183510279,0.025575882538029653,-0.0013008183625431045,-0.0094260399616444,,,,,,,,,,,,,,,,,auto,85.0,True,0,False,-10.0,15.0,0.0,-10.0,46.66034031601405,0.027288607977871217
1760893473.0084527,6.011688470840454,-1.5933757204424401e-06,-3.398677913902721e-07,62.52243787255298,-7.737616386022496e-07,-1.5606160484463823e-07,12.129068246379095,-0.005468292238740767,0.030060578161906732,0.00021343018663518926,,,,,,,,,,,0.2,0.11899655180604903,0.9757495222322125,-0.023699003159884408,-0.7993134144658165,0.05396890773709521,-60.34336926921761,0.1040809061814387,0.1314473177345116,12.228643694369064,0.027024493096766668,0.002702689682251775,0.013029208951478598,,,,,,,,,,,,,,,,,auto,85.0,True,0,False,-10.0,15.0,0.0,-10.0,52.764344460898265,0.030122882407847853
1760893473.114914,6.118149757385254,-1.6771057918932805e-06,-3.5665727370570833e-07,63.813616785326346,-7.991810674675335e-07,-1.5932436024083562e-07,12.129298214633417,-0.005553006246221585,0.030983386782976817,0.0002166985153932301,,,,,,,,,,,0.2,0.16660732435823672,0.9711252113262995,0.038565412331079144,-0.7868623918731962,0.0697489823957794,-62.37192676042228,0.13007351739721207,0.16412870411078803,12.230827928214518,0.02267652573928902,0.005260027015202779,-0.012720264955546644,,,,,,,,,,,,,,,,,auto,85.0,True,0,False,-10.0,15.0,0.0,-10.0,54.699621586438056,0.02652730375188192
1760893473.2231653,6.226401090621948,-1.7651853693022635e-06,-3.741077360993931e-07,65.126747435319,-8.319217354344492e-07,-1.6372794455332004e-07,12.129494627173871,-0.0056392611180460725,0.03193450379997424,0.0002200263134823144,,,,,,,,,,,0.2,-0.5472851679296141,0.9743792464415247,0.044156784420066264,0.5699405558440076,-1.0581352742956887,-56.22549847464278,0.06665259435743333,0.015842105070179444,12.185809016231596,0.023373773013849033,0.005184711818049456,-0.021291116248533526,,,,,,,,,,,,,,,,,auto,85.0,True,0,False,-10.0,15.0,0.0,-10.0,48.437000062450046,0.03203944650969688
1760893473.3301892,6.333425045013428,-1.8568831764335952e-06,-3.9202949534676403e-07,66.4310308945998,-8.727421909364035e-07,-1.6943486342285824e-07,12.129658241048919,-0.00573431495548056,0.0328933096190782,0.00022370676389551724,,,,,,,,,,,0.2,-0.4724714683301551,0.9652580310338064,0.02990350637802639,0.5784859829193989,-1.0547216659011152,-63.82223763917308,0.0912497691647493,0.04902319951403116,12.18651427006183,0.029602334340504653,0.009058862168105287,-0.017040253048972692,,,,,,,,,,,,,,,,,auto,85.0,True,0,False,-10.0,15.0,0.0,-10.0,55.7308331969386,0.03533739387901679
1760893473.4384525,6.441688299179077,-1.953191180415958e-06,-4.106086808557624e-07,67.74423488714606,-9.079822241887611e-07,-1.7404718652053588e-07,12.129796759865854,-0.005839753136213944,0.033872598982553424,0.00022780160566781234,,,,,,,,,,,0.2,-0.40687992846424026,0.9532335503362633,0.1458208352622271,0.5896230043495411,-1.0474534031105647,-66.25498441786058,0.11491813936135113,0.08629052582754526,12.187539458903649,0.03225237788726799,0.01386261386298617,-0.0856562382401103,,,,,,,,,,,,,,,,,auto,85.0,True,0,False,-10.0,15.0,0.0,-10.0,58.0808005768016,0.09257094086128716
1760893473.5461392,6.549375057220459,-2.052908979971586e-06,-4.29604357760088e-07,69.0504597854049,-9.391231576156108e-07,-1.7789925770882285e-07,12.129912583691574,-0.00595398895175098,0.0348604739314517,0.00023224883814631548,,,,,,,,,,,0.2,0.2219992286706744,0.9570879380906392,0.06505332693942764,0.26187298358646005,0.13297931742886826,-63.88817223383341,0.026606951249246384,0.12867371806207042,12.157302917871482,0.04213990710375598,0.014075971764582659,-0.04877087434339082,,,,,,,,,,,,,,,,,auto,85.0,True,0,False,-10.0,15.0,0.0,-10.0,55.86738921906139,0.06597350177191846
1760893473.6559732,6.6592090129852295,-2.1571729723377392e-06,-4.492501017502007e-07,70.38274168773151,-9.588837226551494e-07,-1.797339636446239e-07,12.130012002373803,-0.006070751947899601,0.0358805603541102,0.00023679453778062566,,,,,,,,,,,0.2,0.25989977922145835,0.9433631196628045,0.03758422031223782,0.24071976562172778,0.25926827444256273,-61.964785285632956,-0.008202301098576307,0.1290647966443144,12.137328180374638,0.041404601287898433,0.018589819458510216,-0.03686027356035458,,,,,,,,,,,,,,,,,auto,85.0,True,0,False,-10.0,15.0,0.0,-10.0,54.02075973972392,0.058468813586851756
1760893473.7631764,6.766412258148193,-2.261543256616313e-06,-4.687041027934431e-07,71.68312281499061,-9.860391003373215e-07,-1.8281878433284975e-07,12.130093239332442,-0.006179981377169093,0.0368883805800278,0.0002410417075787366,,,,,,,,,,,0.2,0.11716028538473285,0.9345494995431578,-0.015817369326015653,-0.4085721019775636,0.02505416427883624,-64.68205758277205,-0.03324192376419813,0.14344383239923017,12.15500237449931,0.036880495054091134,0.0227496046047279,0.006393750875351947,,,,,,,,,,,,,,,,,auto,85.0,True,0,False,-10.0,15.0,0.0,-10.0,56.81154938406967,0.04380177479694585
1760893473.8713198,6.874555587768555,-2.3692017371896583e-06,-4.885638339901971e-07,72.9949153306571,-1.0052045826896064e-06,-1.8449292760669773e-07,12.130162320243434,-0.006286210510843049,0.037916889950683014,0.0002451676250987848,,,,,,,,,,,0.2,0.16576755590608366,0.9419823503724767,-0.06203674689626677,-0.4112950996813901,0.042966370316880734,-70.89026263351253,-0.016480927323751435,0.1861702332024042,12.156155188650493,0.03227184614617779,0.02212172151593884,0.028829500914298777,,,,,,,,,,,,,,,,,auto,85.0,True,0,False,-10.0,15.0,0.0,-10.0,62.81030127563929,0.04860023394469285
1760893473.9782996,6.9815354347229,-2.4777548637325493e-06,-5.083875764129852e-07,74.29260140066764,-1.0241765533001385e-06,-1.8610028149715333e-07,12.130219774171652,-0.006389516764606144,0.038945618046258415,0.0002491777869364763,,,,,,,,,,,0.2,0.18850747101543594,0.9342542276308571,0.06131902303374129,-0.41221901380955217,0.06508087455876403,-72.84328749056093,-0.0015003323900820873,0.22760807095502264,12.157492459105612,0.03596178765446433,0.025762183738465654,-0.0494326577493122,,,,,,,,,,,,,,,,,auto,85.0,True,0,False,-10.0,15.0,0.0,-10.0,64.70563741337502,0.06633647514331677
1760893474.0865912,7.089827060699463,-2.5899917816771956e-06,-5.286733454924927e-07,75.60620534086326,-1.0510951706822838e-06,-1.8893262128569875e-07,12.130268482140108,-0.006491505704905962,0.039998526453929435,0.00025313359197670957,,,,,,,,,,,0.2,0.23103022667554324,0.9527102488674629,0.004902865890435137,-0.4115610214042022,0.09230805636099039,-74.21757784364648,0.013819320068390605,0.2756188424714825,12.159094441297457,0.037496355154760914,0.021327138586529768,-0.011327590135894947,,,,,,,,,,,,,,,,,auto,85.0,True,0,False,-10.0,15.0,0.0,-10.0,66.04106327125972,0.04459975099109677
1760893474.1931856,7.196421384811401,-2.7037345272170976e-06,-5.490048950501591e-07,76.89922531424001,-1.0821070922826999e-06,-1.923778468046899e-07,12.13030869058952,-0.0065861946917303476,0.04104712684360001,0.0002567991796394222,,,,,,,,,,,0.2,-0.24524407284056832,0.9440729977427581,0.13760575075181827,-0.22175727942790846,-0.7154617757603525,-70.14090436129835,0.052639926859863996,0.2352303599855497,12.131650334081094,0.03740958801665338,0.024465952112949475,-0.08107521560929862,,,,,,,,,,,,,,,,,auto,85.0,True,0,False,-10.0,15.0,0.0,-10.0,62.04145515396319,0.09258104921885002
1760893474.3003125,7.303548336029053,-2.821033905294517e-06,-5.697482400850384e-07,78.1987101824629,-1.1077698488523812e-06,-1.948704809841369e-07,12.130342824525526,-0.00668227241812865,0.042112848122497444,0.0002605195517867126,,,,,,,,,,,0.2,-0.12943560995638975,0.9598761901296657,-0.11085703565339103,-0.2150712183490853,-0.6877766393481218,-76.04469363791542,0.07207921321600777,0.280452830791068,12.134559161801052,0.03304149377323551,0.020406795956213832,0.06708564948667872,,,,,,,,,,,,,,,,,auto,85.0,True,0,False,-10.0,15.0,0.0,-10.0,67.77811583845609,0.0775155597219992
1760893474.4102063,7.413442134857178,-2.942120378735887e-06,-5.909601150478919e-07,79.5256069328674,-1.0792101642933726e-06,-1.8870774422473774e-07,12.130373348224927,-0.0067814142569597065,0.043211398342431304,0.00026435192630779996,,,,,,,,,,,0.2,-0.10389105651034922,-0.07216002331133617,0.10638433165843308,0.625227415557041,-0.24029522707760184,-75.06615962213498,0.08651650436257095,0.24869433730934215,12.114507404261973,0.03134574777232891,0.021709392687082135,-0.05876415471832892,,,,,,,,,,,,,,,,,stabilize,85.0,True,0,False,-10.0,15.0,0.0,-10.0,66.6355532476752,0.07005054970525283
1760893474.5173252,7.52056097984314,-3.053941735420885e-06,-6.105023328464432e-07,80.83115437866732,-1.0002857677344562e-06,-1.7470363307143063e-07,12.130399727118144,-0.006879656463312993,0.04429332045559989,0.00026811424931549296,,,,,,,,,,,0.2,-0.11607762886252421,-0.05682170108465645,0.12855751924422393,0.6358616314453021,-0.21124622592328496,-79.04112829393996,0.11146070255113032,0.29247395667966186,12.117480617029845,0.038109983652348994,0.019089726478699866,-0.07258471429133215,,,,,,,,,,,,,,,,,stabilize,85.0,True,0,False,-10.0,15.0,0.0,-10.0,70.5198588493995,0.08417439788776751
1760893474.6251256,7.628361463546753,-3.157894540678147e-06,-6.286446212342017e-07,82.13881856641544,-9.301121754901979e-07,-1.6218318679125006e-07,12.130421881290212,-0.0069788434648203335,0.0453766021875228,0.0002718774116103435,,,,,,,,,,,0.2,-0.10348307251524752,-0.06595688919250942,0.1263113312009166,2.0147737681762456,-0.7258912931776009,-79.03671877872945,0.13281658584137787,0.2940260893578253,12.134043004760814,0.036800358741874414,0.022910089429922457,-0.07794872541598444,,,,,,,,,,,,,,,,,stabilize,85.0,True,0,False,-10.0,15.0,0.0,-10.0,70.25106090440578,0.08919160495917895
1760893474.7331405,7.7363762855529785,-3.2539626966840925e-06,-6.453810331001098e-07,83.4368946674198,-8.655895303225776e-07,-1.5066909531778173e-07,12.130440387095895,-0.007077977047235922,0.0464516213848523,0.0002756186918742077,,,,,,,,,,,0.2,-0.09922346855457234,-0.06174359841610192,0.022353947538651393,0.6107497692801293,-0.7310515995665843,-80.27377806695102,0.12595946732801194,0.2671156043992521,12.157918351495889,0.03682800282866689,0.02261694117112008,-0.01470892900544335,,,,,,,,,,,,,,,,,stabilize,85.0,True,0,False,-10.0,15.0,0.0,-10.0,71.7355479692362,0.04565282480606622
1760893474.840254,7.8434898853302,-3.3437702473057423e-06,-6.610002821882826e-07,84.74221158140853,-8.046409658587166e-07,-1.3981327261861086e-07,12.130456066505158,-0.007178372676044504,0.04753219556565739,0.0002793705177798894,,,,,,,,,,,0.2,-0.08996026990106937,-0.06410355526790931,-0.12712306100798787,0.6257822959233816,-0.6999412668887118,-83.13678192258472,0.15316292893718772,0.31110769074551703,12.158810935055948,0.03469514801553053,0.023636890351710047,0.07093422725654827,,,,,,,,,,,,,,,,,stabilize,85.0,True,0,False,-10.0,15.0,0.0,-10.0,74.53923076053977,0.0824264549632093
1760893474.9451103,7.948346138000488,-3.4252295241241308e-06,-6.751414904185047e-07,86.01407678571653,-7.500944527009639e-07,-1.3008504583355434e-07,12.130468937460197,-0.00727686012966047,0.04858456161345961,0.0002830105270377684,,,,,,,,,,,0.2,-0.08660871597270188,-0.07030137472847267,0.010301578078373013,2.6101008813012476,-0.35457256116602553,-82.47971077519398,0.10672184731493171,0.21090285698793776,12.111897621342239,0.03393575797663356,0.026094543754702323,-0.0029931288765465205,,,,,,,,,,,,,,,,,stabilize,85.0,True,0,False,-10.0,15.0,0.0,-10.0,73.53192365176118,0.042912931660355466
1760893475.0504754,8.053711175918579,-3.5020250348608036e-06,-6.88443656655209e-07,87.29850375794267,-7.020289617918938e-07,-1.2142633308112962e-07,12.13047985423145,-0.007376907174183107,0.04964684495408969,0.0002866802455286154,,,,,,,,,,,0.2,-0.08623163394242599,-0.07529329203652178,-0.1286521537118659,2.6226183350148817,-0.32992876031259677,-85.68013942647796,0.13074230140517545,0.2536599584105484,12.112329296991948,0.033916729745068375,0.028115740864420983,0.06816648427553182,,,,,,,,,,,,,,,,,stabilize,85.0,True,0,False,-10.0,15.0,0.0,-10.0,76.68632168437038,0.08116347096718822
1760893475.1581733,8.161409139633179,-3.5749067973919482e-06,-7.010301746942319e-07,88.59881249849502,-6.591696357474313e-07,-1.1363305602976418e-07,12.13048912860413,-0.0074787877273286086,0.050721775750380255,0.0002903911930158818,,,,,,,,,,,0.2,-0.0887720944518331,-0.07237803395776142,0.2299784058235892,2.4964350071709327,0.25267168517135574,-85.9925669453872,0.11411367577514367,0.2182050208958367,12.159051689389024,0.0345386354224229,0.02753487710272758,-0.13709168471206687,,,,,,,,,,,,,,,,,stabilize,85.0,True,0,False,-10.0,15.0,0.0,-10.0,77.01475969877166,0.14403199926092156
1760893475.2653186,8.268554449081421,-3.6432229806957516e-06,-7.127904079795121e-07,89.89843093410482,-6.171083834964649e-07,-1.0606423576877603e-07,12.130496981300675,-0.007581151877793315,0.05179576320400514,0.0002941075689396827,,,,,,,,,,,0.2,-0.090448468934085,-0.0647713043426367,0.13019726250470207,2.6724868552389855,0.3416219729699228,-85.70175001922854,0.06425611676575305,0.2105009443582442,12.099177168945177,0.03528559721299147,0.02571503527372496,-0.07823036070989778,,,,,,,,,,,,,,,,,stabilize,85.0,True,0,False,-10.0,15.0,0.0,-10.0,76.6996691119358,0.08958976362624868
1760893475.372304,8.375539779663086,-3.707193353991185e-06,-7.237667109730463e-07,91.19621074193378,-5.793422645227975e-07,-9.922993100102616e-08,12.1305035673571,-0.007684081583263839,0.052867657034630255,0.0002978032085344829,,,,,,,,,,,0.2,-0.09320416404844664,-0.07568851964988271,-0.03312780692023049,2.680738941492807,0.36656064894399504,-89.5118430362417,0.08896707808091199,0.25671648882007536,12.100114006619098,0.03619604772771217,0.028914120057089404,0.019203927978615906,,,,,,,,,,,,,,,,,stabilize,85.0,True,0,False,-10.0,15.0,0.0,-10.0,80.46136801445115,0.050149487131878674
1760893475.4782157,8.481451511383057,-3.766956337255578e-06,-7.33985204361191e-07,92.48720624014922,-5.444184334436245e-07,-9.291330315875342e-08,12.130509093457418,-0.007787189726212384,0.05393331272957729,0.00030146067599060315,,,,,,,,,,,0.2,-0.08084888992492535,-0.08243212933793076,-0.09458456529194029,2.6914791639164473,0.39621169075979584,-91.2266213799345,0.11225866220106046,0.2994939550920999,12.101308170091023,0.032552998692370425,0.03133704112625833,0.05564955731857147,,,,,,,,,,,,,,,,,stabilize,85.0,True,0,False,-10.0,15.0,0.0,-10.0,82.15485797976545,0.0716838970771487
1760893475.5863576,8.589593410491943,-3.82409676572131e-06,-7.43716976034981e-07,93.79902279267603,-5.13546509761849e-07,-8.725611855541508e-08,12.13051378937972,-0.007892517690434229,0.05501556898998321,0.00030516975931781917,,,,,,,,,,,0.2,-0.07101820991815858,-0.09237347938531305,-0.08956759593293329,2.704840278648149,0.4308980025953913,-92.58986351639102,0.13448989615373708,0.3413963401242086,12.101744687183578,0.029271128669814333,0.034597371992646835,0.054623177546367974,,,,,,,,,,,,,,,,,stabilize,85.0,True,0,False,-10.0,15.0,0.0,-10.0,83.50115077840718,0.07097512696476456
1760893475.6933317,8.69656753540039,-3.877491423411434e-06,-7.527689594483457e-07,95.09667410542409,-4.851996277262945e-07,-8.206302996990515e-08,12.13051770420845,-0.00799734654118238,0.05608540032812139,0.0003088174266935684,,,,,,,,,,,0.2,-0.06874858569507299,-0.08714416466348025,0.0838050326448445,0.4044028001079862,-1.3612439887596426,-87.08433337079285,0.04618298735214864,0.20692516508044959,12.122233455874222,0.027899031078342428,0.033558071705550564,-0.04307183540352355,,,,,,,,,,,,,,,,,stabilize,85.0,True,0,False,-10.0,15.0,0.0,-10.0,78.46578167607812,0.06131625491444674
1760893475.8011644,8.804400205612183,-3.92844838488352e-06,-7.613649017850221e-07,96.40474040358075,-4.60473639910139e-07,-7.74613690639452e-08,12.130521000968269,-0.008103528358175125,0.05716312018279756,0.00031248269379275095,,,,,,,,,,,0.2,-0.06763896397157511,-0.10622753816121824,-0.04435043957690289,0.41040703685809116,-1.3368919410883509,-93.98244684601522,0.06522121075795959,0.24479859569210582,12.124647977260894,0.027281450662270557,0.0397175882187191,0.03170205767652688,,,,,,,,,,,,,,,,,stabilize,85.0,True,0,False,-10.0,15.0,0.0,-10.0,85.25077642541491,0.05767828729318749
1760893475.9096756,8.912911415100098,-3.977072208155986e-06,-7.695237298338272e-07,97.72103806635398,-4.3674879971125206e-07,-7.307418878145075e-08,12.130523806194011,-0.008211008076495484,0.05824678114771234,0.0003161508467674408,,,,,,,,,,,0.2,-0.07549821808569582,-0.09771607681320679,0.14553331871419206,0.5384574854986682,-0.4210377596060332,-94.40671772952525,0.06039396298679777,0.2417407655161568,12.06139563666027,0.02925653287991045,0.03784207353905784,-0.07516288939252808,,,,,,,,,,,,,,,,,stabilize,85.0,True,0,False,-10.0,15.0,0.0,-10.0,85.6376522480941,0.08909223977273302
1760893476.0162892,9.019525051116943,-4.02265365141411e-06,-7.771247794359993e-07,99.0143174404781,-4.187581377222085e-07,-6.958805477426269e-08,12.130526071877163,-0.008316993243829297,0.059310864085172395,0.0003197600567424926,,,,,,,,,,,0.2,-0.08239724514756823,-0.12753697357309446,0.1533178551208402,-0.958959509679935,-0.8693723881180637,-94.26970174539049,0.0194883193268892,0.20982111395019404,12.067708217653385,0.031336252418681244,0.046961347031685016,-0.09265387320710106,,,,,,,,,,,,,,,,,stabilize,85.0,True,0,False,-10.0,15.0,0.0,-10.0,85.77194663313813,0.10849916613022985
1760893476.1243155,9.127551317214966,-4.066866778231146e-06,-7.844438848540677e-07,100.31860742439399,-4.0558404394220987e-07,-6.683617648294409e-08,12.130527942646212,-0.008424190656794069,0.060383288694732015,0.00032341199180685047,,,,,,,,,,,0.2,-0.08245529991394286,-0.13093797976557345,-0.2842120619190148,-1.0648314333359346,-0.06527604774567006,-91.5168273491119,-0.017338083977502413,0.1497746275346884,12.087800606876815,0.03158692181188966,0.048920035695614324,0.15387062851441918,,,,,,,,,,,,,,,,,stabilize,85.0,True,0,False,-10.0,15.0,0.0,-10.0,83.08475318016433,0.16452073985194998
1760893476.2304816,9.233717441558838,-4.1092841780739805e-06,-7.914095968720993e-07,101.61258421081759,-3.89723943000945e-07,-6.377760655952415e-08,12.130529571376648,-0.008531320930648631,0.0614461781488631,0.00032700908904179576,,,,,,,,,,,0.2,-0.07521372099418244,-0.13130983915635897,-0.020791696884903954,-0.4359396321838953,-0.148367345176334,-97.44557134178162,-0.004982449374779845,0.13318582780597055,12.089746074537684,0.029215012434676346,0.04965637393735434,0.011397840101714019,,,,,,,,,,,,,,,,,stabilize,85.0,True,0,False,-10.0,15.0,0.0,-10.0,88.79762492594134,0.058729747003957854
1760893476.3361173,9.339353084564209,-4.149390094484535e-06,-7.979524284631596e-07,102.88776511526561,-3.7359066745618546e-07,-6.075139092496302e-08,12.130530955897036,-0.00863743403825234,0.06249274179977206,0.0003305392606294481,,,,,,,,,,,0.2,-0.08109821183787069,-0.11547311177661254,-0.05193753884076051,0.37775440951521394,-0.1326203895898686,-97.70219345447033,-0.02605356959251566,0.10779649315843104,12.071602284653986,0.030833668451054393,0.045364412460442,0.029615932803329033,,,,,,,,,,,,,,,,,stabilize,85.0,True,0,False,-10.0,15.0,0.0,-10.0,88.91289215294667,0.0623357722647434
1760893476.4432023,9.446438074111938,-4.188818371186252e-06,-8.043415669886228e-07,104.19299842360644,-3.6048727149429695e-07,-5.8182533804577776e-08,12.130532121697966,-0.008746600304846672,0.06356315032815686,0.00033414015662728153,,,,,,,,,,,0.2,-0.07536347387450998,-0.12694995036549409,-0.050051353424751394,0.3760081363594631,-0.11877350234033969,-102.25472835480014,-0.008417685236677908,0.1493185240078937,12.072680348500732,0.02919306769468727,0.04847814392578406,0.03227233658307917,,,,,,,,,,,,,,,,,stabilize,85.0,True,0,False,-10.0,15.0,0.0,-10.0,93.40669220666497,0.06514498713214377
1760893476.5505393,9.553775072097778,-4.227022052523037e-06,-8.104807282702128e-07,105.49505337725675,-3.512530722460301e-07,-5.620178733667826e-08,12.13053306326676,-0.008856357159221671,0.06462989281559393,0.00033769797910781536,,,,,,,,,,,0.2,-0.0761450734939126,-0.13381412618171715,0.1689593043809136,0.7571364301335339,-0.11938947993250305,-100.29811984574077,0.027617179979745957,0.07162964685513318,12.079210161576738,0.02931166792952695,0.05064634798870379,-0.08699529307495106,,,,,,,,,,,,,,,,,stabilize,85.0,True,0,False,-10.0,15.0,0.0,-10.0,91.41457139971456,0.10484468254804517
1760893476.658845,9.662080764770508,-4.264500085894675e-06,-8.16453413295805e-07,106.80885920929236,-3.4106987330477785e-07,-5.4132883256499415e-08,12.130533890404804,-0.008967804432034312,0.06570523348593003,0.00034126484484912147,,,,,,,,,,,0.2,-0.07991500286898216,-0.14533701570183405,0.016009098721754864,-0.14563232461357262,-0.3664913803262772,-103.65016487320297,0.0429003087731115,0.06446868052115223,12.0843858015561,0.030256046749875087,0.05435873962613326,-0.00032877356383091,,,,,,,,,,,,,,,,,stabilize,85.0,True,0,False,-10.0,15.0,0.0,-10.0,94.86768614877424,0.06221261150866962
1760893476.7650652,9.768301010131836,-4.300329706221182e-06,-8.221156535945974e-07,108.09736753155897,-3.3485189955761107e-07,-5.266403962186353e-08,12.13053453383532,-0.00907761250766607,0.06675891739661532,0.00034475284502982984,,,,,,,,,,,0.2,-0.08571210110509934,-0.13561044787791013,0.24129795545704408,-0.33272950483579766,0.3901424552508914,-104.81293245742195,0.07910444096818393,0.054373317319298606,12.095596556466493,0.032101694488200716,0.05202935309555896,-0.13378561349870474,,,,,,,,,,,,,,,,,stabilize,85.0,True,0,False,-10.0,15.0,0.0,-10.0,96.04549425339799,0.14709236129650285
1760893476.8731399,9.876375675201416,-4.335979044714201e-06,-8.276982292382891e-07,109.40223967282824,-3.2811426430000435e-07,-5.1158035001521346e-08,12.130535101283945,-0.009189185080759344,0.06782513810906105,0.00034828983653357207,,,,,,,,,,,0.2,-0.09382523551652859,-0.11496577497094329,0.004861260606792106,-0.2057013974243879,1.259570431763578,-103.55946268671477,0.042428456157175595,0.1203900395013144,12.137381315844065,0.034587179321320556,0.046129997974950085,-0.004880234604329056,,,,,,,,,,,,,,,,,stabilize,85.0,True,0,False,-10.0,15.0,0.0,-10.0,94.7954267403601,0.05786247813883687
1760893476.9793053,9.98254108428955,-4.37055915535718e-06,-8.330687247551768e-07,110.69621426902846,-3.2065242193580464e-07,-4.959743415130639e-08,12.130535597689281,-0.009300411993455103,0.06888158910679018,0.0003517865257480191,,,,,,,,,,,0.2,-0.09540405066090002,-0.13149332868771016,-0.06878407508218189,-0.6948029515535373,1.1290408514558654,-99.201159663993,0.0318272596253374,0.0898703806778148,12.118390170515513,0.03535009275721277,0.05070408084205046,0.03525718503293772,,,,,,,,,,,,,,,,,stabilize,85.0,True,0,False,-10.0,15.0,0.0,-10.0,90.57841055314185,0.07115899077718531
1760893477.0872142,10.090450048446655,-4.404948936346552e-06,-8.383637478843443e-07,112.00520782134517,-3.166507094830682e-07,-4.853604018275666e-08,12.130535984125645,-0.009413570341148304,0.069949362579752,0.0003553100892161696,,,,,,,,,,,0.2,-0.08115819292780238,-0.13066982259229723,0.1970956477442063,-0.6903591878099168,1.1412453082664404,-109.1714280306491,0.051912347318908564,0.13518611714991471,12.119032744098117,0.03123862878544734,0.05038170218873336,-0.11839139773885424,,,,,,,,,,,,,,,,,stabilize,85.0,True,0,False,-10.0,15.0,0.0,-10.0,100.41146323968367,0.13240351544573423
1760893477.1947658,10.198001623153687,-4.438727987465443e-06,-8.435200501690996e-07,113.30986608767759,-3.1052065114011093e-07,-4.722328721852141e-08,12.13053634644909,-0.00952675134591903,0.07101279688446477,0.0003588243203000479,,,,,,,,,,,0.2,-0.05289913098205185,-0.12786559176075277,0.026531622137700352,0.7188835837165318,0.9708192445479611,-103.91362243606437,0.07531837945565324,0.09747386325060267,12.124625684388189,0.02272701151002114,0.04931372076521873,-0.02078512008031344,,,,,,,,,,,,,,,,,stabilize,85.0,True,0,False,-10.0,15.0,0.0,-10.0,94.9982171157158,0.058141046814102405
1760893477.3011634,10.304399251937866,-4.471554490533867e-06,-8.484916838431192e-07,114.60052640627839,-3.062631192808952e-07,-4.619937281421389e-08,12.1305366341795,-0.009639135342641686,0.07206390088175248,0.00036229161202349535,,,,,,,,,,,0.2,-0.053414651348237585,-0.14277779476114122,0.006799563877553673,0.6908696614137428,1.5953757588231803,-104.03607775786273,0.08318270311730638,0.10970065907252712,12.126086782306361,0.02178326968706103,0.053787866654966654,-0.009243918047422577,,,,,,,,,,,,,,,,,stabilize,85.0,True,0,False,-10.0,15.0,0.0,-10.0,95.13191028745977,0.058763045006357276
1760893477.4087882,10.412024021148682,-4.50435881658595e-06,-8.534194872278731e-07,115.90607262489333,-3.032194561259894e-07,-4.536264820676613e-08,12.130536871176231,-0.00975314032077891,0.07312616609825476,0.000365794072701211,,,,,,,,,,,0.2,-0.058678674421139845,-0.13558091725554697,0.03845146268006841,0.7009824548915808,1.6089136456005677,-113.39153637237304,0.10577942197903309,0.14060055823140763,12.127643216761376,0.022517652541129106,0.05171257637138184,-0.03213828657485485,,,,,,,,,,,,,,,,,stabilize,85.0,True,0,False,-10.0,15.0,0.0,-10.0,104.38802756692961,0.06491613585924931
1760893477.5163567,10.519592523574829,-4.536940124372241e-06,-8.582724650154473e-07,117.21093631941608,-3.0319925659597563e-07,-4.495770876386389e-08,12.130537038180272,-0.00986741856277086,0.07418692826551931,0.0003692910981508408,,,,,,,,,,,0.2,-0.06620845460072554,-0.14609912076989803,0.04592792544263247,0.7135172675987181,1.6257369452158568,-115.5997220489224,0.12854452241049844,0.17215223886064462,12.127916479324519,0.02437401220912999,0.05481815607311102,-0.03434992256326619,,,,,,,,,,,,,,,,,stabilize,85.0,True,0,False,-10.0,15.0,0.0,-10.0,106.57414276590691,0.0691306002182041
1760893477.6237614,10.626997232437134,-4.5693695048008884e-06,-8.630625864090961e-07,118.51381312807096,-3.008256834811125e-07,-4.426427573362222e-08,12.130537213362837,-0.009981863278205098,0.07524505369713437,0.00037278028832732915,,,,,,,,,,,0.2,-0.05542063727280467,-0.16592031251851094,-0.09680932837990472,0.5722196506821248,1.4693574012694484,-110.23653470545325,0.08435451655093656,0.06994484180349346,12.118961071737846,0.021138252414506446,0.061155760214563024,0.05014565118809858,,,,,,,,,,,,,,,,,stabilize,85.0,True,0,False,-10.0,15.0,0.0,-10.0,101.28021893113365,0.08186231767815379
1760893477.7292778,10.732513666152954,-4.601287158784041e-06,-8.677380335595912e-07,119.79378415821597,-3.0320284033185554e-07,-4.4232749997149744e-08,12.130537305602891,-0.010095031857149791,0.07628332967901644,0.00037617856001803186,,,,,,,,,,,0.2,-0.06188692582417279,-0.16534981089939121,-0.11907856422870619,0.5817550710519287,1.478397478341875,-117.44590085280244,0.09858877290645517,0.10156658398404948,12.11933472442616,0.022759862938335054,0.06179957813723814,0.06651710329754223,,,,,,,,,,,,,,,,,stabilize,85.0,True,0,False,-10.0,15.0,0.0,-10.0,108.41906223540838,0.09360408244306605
