timestamp,simulation_time,position_x,position_y,position_z,velocity_x,velocity_y,velocity_z,attitude_roll,attitude_pitch,attitude_yaw,angular_velocity_x,angular_velocity_y,angular_velocity_z,acceleration_x,acceleration_y,acceleration_z,motor_speed_1,motor_speed_2,motor_speed_3,motor_speed_4,control_throttle,control_roll,control_pitch,control_yaw,estimated_position_x,estimated_position_y,estimated_position_z,estimated_velocity_x,estimated_velocity_y,estimated_velocity_z,estimated_attitude_roll,estimated_attitude_pitch,estimated_attitude_yaw,sensor_accel_x,sensor_accel_y,sensor_accel_z,sensor_gyro_x,sensor_gyro_y,sensor_gyro_z,sensor_gps_x,sensor_gps_y,sensor_gps_z,sensor_gps_vx,sensor_gps_vy,sensor_gps_vz,sensor_baro_altitude,sensor_mag_x,sensor_mag_y,sensor_mag_z,flight_mode,battery_level,gps_fix,waypoint_index,mission_complete,setpoint_altitude,setpoint_position_x,setpoint_position_y,setpoint_position_z,position_error,attitude_error
1760870137.8803613,0.11193203926086426,-1.108358067894674e-13,5.750558363321455e-14,0.06080220366870792,-3.900490163186611e-12,2.0057833332149834e-12,1.090006362769804,2.457661057439958e-06,5.010107738639104e-06,-9.830643545962873e-08,3.343009990239658e-05,8.910286480058126e-05,-1.3372037662845933e-06,-9.09393581664627e-11,4.556680438552435e-11,9.73865072088749,0.8996670936717632,1.1003329063282368,0.0,0.0,0.0,-0.06582682739517588,1.0,0.034506078933060874,0.17098646084083707,-0.1671424230441364,-3.965010305628449,0.0033443686518445067,0.012590028806461831,0.2289462866117902,0.004148111061147652,0.0006204862787431153,-0.010886729952885726,-0.015319700713220044,-0.003735651818145475,-0.05556990771906432,-0.031004258752511605,0.0929102250083392,0.012012769523460618,0.0,0.0,0.0,0.0,0.0,0.0,0.7082930751741098,1.0509486110629076,0.0023352627728280384,-0.048611323753167276,auto,85.0,True,0,False,-10.0,0,0,-10,6.039724627045737,0.011666735518763731
1760870137.9872587,0.21882939338684082,-1.5338885362280907e-12,6.737416600227251e-13,0.23153164451640437,-2.778639691738981e-11,1.0690231389065401e-11,2.1150034107640376,5.584744495553119e-06,1.877104912702173e-05,-2.2338971693612892e-07,2.5231925914924098e-05,0.00016968822292607607,-1.009276166233861e-06,-3.674845503812953e-10,1.1167592843250706e-10,9.526340445064672,0.8018208565994858,1.1981791434005145,0.0,0.0,0.0,-0.05217938607095467,1.0,0.14599975732955964,0.1713670473613714,-0.16577294855407865,-0.5162452903192769,0.004213239611723226,0.013138020189362755,1.25685296926858,0.004084487641898171,-0.0026306171571843784,-0.06633496176533202,0.013904227518890625,-0.036379776658148025,-0.2569482558085404,-0.07592549534202332,-0.04806446820487923,0.0011584693795767178,0.0,0.0,0.0,0.0,0.0,0.0,0.5221521009049864,1.1635742419839308,-0.1623850097274804,0.05690769078291938,auto,85.0,True,0,False,-10.0,0,0,-10,9.486751326391188,0.06651263292287077
1760870138.0954816,0.32705235481262207,-7.618471639607809e-12,2.608330397487268e-12,0.5186483594925895,-9.232816953624867e-11,2.5791245546195133e-11,3.1355996761991776,8.461792568891211e-06,4.181754173719079e-05,-3.384714973294947e-07,3.475965867911882e-05,0.0002528155345506255,-1.3903844971900543e-06,-8.174435246533642e-10,1.6588505114834536e-10,9.175623556602874,1.1826349753451504,0.8173650246548497,0.0,0.0,0.0,0.1600368367843276,1.0,-0.022598138560822746,0.5942602978177843,0.5629952796554847,0.5298301109161475,0.011262106173499578,0.02726918704682115,2.40396451608439,0.002968746907122455,-0.0017032775195962024,0.015671126222036383,0.027970779538458994,-0.034260504134170686,-0.607115592865603,-0.07317835115793733,-0.001999173912102348,0.10358221432691724,0.0,0.0,0.0,0.0,0.0,0.0,-0.5112023371956416,0.9966461476819619,0.0032588042870980143,0.21216758292915017,auto,85.0,True,0,False,-10.0,0,0,-10,10.561601732276843,0.01604053644908135
1760870138.2054603,0.4370310306549072,-2.3935735627143034e-11,6.603261456215312e-12,0.9158764528170635,-2.1685347235703428e-10,4.880666290012552e-11,4.112858152265957,1.3289830373195003e-05,7.411173096275363e-05,-5.315926971031047e-07,5.267124433517244e-05,0.00033713084942281897,-2.1068456173431183e-06,-1.3886891435351495e-09,2.471326011544777e-10,8.708391969345632,0.9951438705974932,1.0048561294025067,0.0,0.0,0.0,0.09966400583834487,1.0,0.10452013524085167,0.5954650027068086,0.5660294209727317,0.8858904961738737,0.01003734892592461,0.028322076535591482,3.3843517900166558,0.0077030042075603156,0.0007469307030913974,-0.04953150443080032,-0.03345043020207508,0.026210477478623886,-1.1053320293758406,0.16191822818472698,-0.05562738831673548,-0.06567962935338674,0.0,0.0,0.0,0.0,0.0,0.0,-0.6481740363389237,1.0830204370596213,-0.08306744993248363,-0.09906533885016915,auto,85.0,True,0,False,-10.0,0,0,-10,10.91684843576863,0.05013246563331296
1760870138.3123693,0.5439400672912598,-5.702739987409254e-11,1.3560766121183256e-11,1.4067222230868341,-4.1214496214373147e-10,8.285882417977073e-11,5.016571868338734,1.9998990666577893e-05,0.00011475531739670165,-7.999584602692466e-07,6.735474855113204e-05,0.0004194183391995331,-2.6941817053382783e-06,-2.1153772325517468e-09,3.656010026519819e-10,8.163080604971325,1.0101583443110767,0.9898416556889235,0.0,0.0,0.0,0.07765904686133811,1.0,0.0675007025502615,-0.11394139677590856,0.5333107232055063,1.3171712609287611,0.019326695996279866,0.04223329943245166,4.5065662884411255,0.006215433169452389,0.002487531595894321,-0.03437042082531456,-0.012657171218109067,-0.019047161198989256,-1.5736772893744353,-0.008498843811330597,-0.09456348637800205,-0.17430936649954606,0.0,0.0,0.0,0.0,0.0,0.0,-1.5019474407585953,1.2491776295846684,-0.08890866408027796,-0.1838174661091766,auto,85.0,True,0,False,-10.0,0,0,-10,11.330303099148633,0.035016356901221436
1760870138.4204586,0.652029275894165,-1.1601540284056096e-10,2.498169970696758e-11,1.9952934239432905,-6.946398741856545e-10,1.3083762551278141e-10,5.862834045352612,2.7832690788219707e-05,0.000164534027949381,-1.1133052787438934e-06,7.815447848175427e-05,0.0005015247861992841,-3.1261651181693872e-06,-3.0183414235926984e-09,5.061731076755683e-10,7.550826430902055,1.1189660808071402,0.8810339191928598,0.0,0.0,0.0,0.07629171334391341,1.0,-0.04267436746322688,-0.11190619136822358,0.5379513706751062,1.862902532405381,0.018276499402319304,0.04477657952552712,5.360071800191617,0.006602551511477817,0.0035979054210422134,0.01640430008119108,0.0063292072039605836,0.06395913535736059,-2.156484294239978,-0.02042800223064341,-0.08013494657140623,0.06393238756841758,0.0,0.0,0.0,0.0,0.0,0.0,-1.190903392507546,1.129835168873995,0.011040052208694287,0.052742318487943786,auto,85.0,True,0,False,-10.0,0,0,-10,11.875620874978612,0.018045488938630855
1760870138.530751,0.7623217105865479,-2.12645559419996e-10,4.2722776440696086e-11,2.682907987064611,-1.0828852745765312e-09,1.947829030736734e-10,6.652263334859701,3.660724813108248e-05,0.0002241647610466433,-1.464285624637698e-06,7.87994015633059e-05,0.0005846179549310273,-3.1519544165393515e-06,-3.986678610533806e-09,6.449465967001381e-10,6.894864841376562,0.9076303200871213,1.0923696799128788,0.0,0.0,0.0,0.056990446484796904,1.0,0.14936012639767568,0.06100278079821424,0.43048806705800813,2.6987962268627177,-0.05729456492750475,0.09158003855547416,6.356367854900274,0.006593107352077965,0.0055647671433773915,-0.0814936313952769,0.04242131587581969,0.032121762188911995,-2.848891261300304,-0.08458887132718237,-0.15990827192447168,0.053954388469019614,0.0,0.0,0.0,0.0,0.0,0.0,-2.649209268668009,0.9862015321896122,-0.1084691560982282,0.06573003239763224,auto,85.0,True,0,False,-10.0,0,0,-10,12.706237323713394,0.08194905524717963
1760870138.637134,0.8687047958374023,-3.531514578948564e-10,6.747218733866964e-11,3.4281970659921863,-1.578838494905462e-09,2.7313018084604813e-10,7.347520659048394,4.550958056059027e-05,0.0002907170503157792,-1.8203761507402694e-06,7.56008363717216e-05,0.0006666629785179704,-3.0240029039054433e-06,-5.268018074644373e-09,8.14983659737982e-10,6.242931514290404,0.7792601602760669,1.220739839723933,0.0,0.0,0.0,-0.04608883210726296,1.0,0.17465100761667007,-0.2248273357796127,-0.028175531881749837,3.3203313272745936,-0.047177583672850604,0.043488038240268714,7.14260363522686,0.0051304224350356975,0.01442518405141291,-0.08995416445196217,0.038851527672517594,0.001732733526548432,-3.5034304944263135,0.20253483706519623,0.06198535384546747,-0.034978863019385145,0.0,0.0,0.0,0.0,0.0,0.0,-3.810977630078618,1.0344270088668743,-0.07532822855723682,-0.055920328864983465,auto,85.0,True,0,False,-10.0,0,0,-10,13.322258361850048,0.09124778831034595
1760870138.7451818,0.976752519607544,-5.573072014538863e-10,1.0201488636367261e-10,4.261146508889271,-2.2037454908820967e-09,3.647931944304309e-10,7.986172042520649,5.25348197222445e-05,0.0003676101870400723,-2.101381952813697e-06,5.312148390436175e-05,0.0007499684377562428,-2.124820871436371e-06,-6.1882843165711625e-09,8.635108517762275e-10,5.589216127013917,0.9044677045578265,1.0955322954421733,0.0,0.0,0.0,-0.03872297723968117,1.0,0.0568093182024922,-0.23025157030990098,-0.023398817220600398,4.332173777770525,-0.052791765743414855,0.0457473403944821,7.788739323559197,0.007489905643375039,0.010086647787487024,-0.05254144973501027,0.0023205746518910335,0.020019027133768266,-4.169913487169222,-0.012914918087130611,-0.30983402016866424,0.14801549100016836,0.0,0.0,0.0,0.0,0.0,0.0,-3.8025655082381866,0.9818344870072608,-0.017017567607817398,0.1398683650667091,auto,85.0,True,0,False,-10.0,0,0,-10,14.334042294010805,0.05402261647117889
1760870138.8550272,1.0865979194641113,-8.391036631548784e-10,1.4732709279837922e-10,5.166296870445456,-2.9864192962689575e-09,4.666499783901567e-10,8.559043841861387,5.821662283643214e-05,0.00045423238573231913,-2.328649466739554e-06,3.893432813613403e-05,0.0008356539931570177,-1.557327455522519e-06,-7.688449606429288e-09,9.448674965367615e-10,4.955798536554586,0.797955744252898,1.202044255747102,0.0,0.0,0.0,-0.10748373337223371,1.0,0.09456052237486834,0.8502978778542665,-0.21083603368780243,5.146768545462784,-0.04591129999705852,0.0044214603365447065,8.426232901962694,0.01487429730487122,0.006219871944688649,-0.06028139050105367,0.0469302977016123,-0.03426354093319745,-4.770779384800888,-0.005556331406137002,-0.03653437077634049,0.03217109369514118,0.0,0.0,0.0,0.0,0.0,0.0,-5.273224869684648,0.9015851723308769,-0.031027967534645078,0.05349705801930216,auto,85.0,True,0,False,-10.0,0,0,-10,15.172081455225761,0.06240014076957317
1760870138.9629235,1.1944942474365234,-1.2095083870804726e-09,2.0329436751736435e-10,6.121888078465666,-3.884041044766007e-09,5.673038264833046e-10,9.060735709700126,6.168635802086577e-05,0.0005492923432643753,-2.4674336518500247e-06,2.305669657123757e-05,0.0009190658154877266,-9.222173356351743e-07,-1.0462172150289578e-08,1.1053005139656307e-09,4.364502024452131,0.584521449308671,1.4154785506913292,0.0,0.0,0.0,-0.4160726347153466,1.0,-0.0005940840240175943,0.9686649871488303,-1.1991977041664639,6.4388043796908745,-0.05859152159284478,-0.010131207138995388,8.968347692471374,0.016047286501070346,0.005606479821138599,-0.002422809098081749,0.015132675873076502,0.06330352843271163,-5.416060877378591,0.13747996600411586,-0.2685008640638287,0.09930712943246807,1.234828147055825,-3.329860159736344,7.2395827245000905,-0.07749761367677005,-0.05695855652170018,9.038897214448843,-6.279911525489349,1.194654460412718,-0.019131071738414888,-0.002896195660935281,auto,85.0,True,0,False,-10.0,0,0,-10,16.510925971148623,0.017170265692703083
1760870139.0714898,1.303060531616211,-1.6991869483376838e-09,2.715572329025366e-10,7.130042134608508,-5.117096748686024e-09,6.829515253706065e-10,9.501531972315153,6.0411081448774715e-05,0.0006544608594089122,-2.4164171223932498e-06,-4.0514904613227e-05,0.0010152070087034528,1.6206446530068062e-06,-1.0840013366822013e-08,8.828816065219636e-10,3.817928743827936,0.7143735190009228,1.2856264809990772,0.0,0.0,0.0,-0.4328737476971895,1.0,-0.14724726669811244,0.12702725924769775,-1.6566049763715054,7.082452802460767,-0.04088357439928389,0.01003997887248454,9.391734894178118,0.013660586947911835,0.004635780412972412,0.06348652281532621,-0.021331632665135686,0.026515983945695758,-5.9438689512280805,-0.06147136378201367,-0.18925202154315218,-0.01302382674966137,-1.8754965422171939,-2.751932947487775,6.331659813607441,0.00978139972450337,0.03574807332404156,9.338827811173765,-7.666839219965624,0.9330516924133854,0.08838054330090873,0.09869517984586418,auto,85.0,True,0,False,-10.0,0,0,-10,17.163061199000328,0.06510484371365692
1760870139.181279,1.4128496646881104,-2.330902755223254e-09,3.5121284654455266e-10,8.18367665928201,-6.548199843027417e-09,7.786525069942969e-10,9.885986547297383,5.234049480832841e-05,0.0007700136699884732,-2.0935890247001555e-06,-0.00010892349056162595,0.0011121792531106002,4.356974269181586e-06,-1.3880971795231922e-08,7.461675867865874e-10,3.3173945204413946,0.5676119378090736,1.4323880621909264,0.0,0.0,0.0,-0.3619774179163108,1.0,0.0704106442746156,0.12241689749145448,-1.655061459755296,8.149375849106429,-0.043613729934897726,0.01737729701977174,9.783425387850949,0.010891767988624235,0.003807270313126665,-0.04577625764253446,0.026313828519926107,-0.029624597006648008,-6.4426057961756165,-0.012909537265686524,-0.0744862725777721,-0.0014538839767420763,0.0,0.0,0.0,0.0,0.0,0.0,-8.7310774048616,1.0803203385081748,-0.0029759132462728217,-0.023030395654255367,auto,85.0,True,0,False,-10.0,0,0,-10,18.22509418479055,0.047207962049964934
1760870139.2910142,1.5225849151611328,-3.1382271106033348e-09,4.4039708951780443e-10,9.288846311801898,-8.131194831922016e-09,8.344853770298136e-10,10.222695515320689,3.662555889828933e-05,0.0008975950259590033,-1.464989246932159e-06,-0.00017250026937983,0.0012080007736421695,6.9000161338447095e-06,-1.3461079024915713e-08,2.330064112503697e-10,2.8655381325676363,0.7483664588491519,1.2516335411508481,0.0,0.0,0.0,-0.32894432964413045,1.0,-0.07731078849328232,0.11753956628296455,-1.6527403544895085,9.436186667473068,-0.0450977084200199,0.024621104381197897,10.1258299788189,0.0077309632733379985,0.0002357041204477106,0.02102487196523909,0.003840204528081332,0.011923671027751687,-6.907567809350003,-0.03102210960683965,-0.0882472097269149,0.07977389314267178,0.0,0.0,0.0,0.0,0.0,0.0,-9.586763350426981,0.8807594023098869,0.03752458771274178,-0.13458187638826072,auto,85.0,True,0,False,-10.0,0,0,-10,19.506683941712335,0.022402423768887007
1760870139.3992922,1.6308629512786865,-4.110092772764847e-09,5.313922022106975e-10,10.411615011844669,-9.876727586774344e-09,8.369691195587909e-10,10.508703542287755,1.486955321831409e-05,0.001033436572140279,-5.947506780465285e-07,-0.0002316248815939037,0.0013019218232461448,9.264956883873771e-06,-1.8312796478449013e-08,-1.924038884763076e-10,2.4659386481891796,0.5254223590976947,1.4745776409023053,0.0,0.0,0.0,-0.3175232754170609,1.0,0.15705436548524437,0.11275171685112642,-1.64983490460826,10.735537327737575,-0.043671947860971005,0.02898899111401042,10.415407208113024,0.005876608435612329,0.00010506393390130597,-0.09492979659089876,0.008643488847070235,0.05574641701675987,-7.334416275582256,0.02505912633318128,-0.04344458434127493,-0.003597347146990326,0.0,0.0,0.0,0.0,0.0,0.0,-11.780695242333303,0.9960647450020249,-0.0917703364387827,0.15314710810524357,auto,85.0,True,0,False,-10.0,0,0,-10,20.801374388057027,0.09511157577248487
1760870139.5085027,1.7400734424591064,-5.277161032343874e-09,6.197329013747167e-10,11.56767685940381,-1.1582642372483554e-08,7.782462143569262e-10,10.755362649035384,-1.2563011094515123e-05,0.0011797158762961138,5.025446152616637e-07,-0.0002670282590455717,0.0013879432063313958,1.0681032874971562e-05,-1.5628056846593857e-08,-7.86368865141839e-10,2.11483948101456,0.8659889905213999,1.1340110094786002,0.0,0.0,0.0,-0.30621683303689057,1.0,-0.17220582355829048,0.10817227969506225,-1.6463826822937129,11.52585794079297,-0.0400514021943864,0.034509610742081795,10.665402154242177,0.003595632229695056,-0.006399037259563034,0.09148800714230815,-0.006377882569399099,0.017781772056939316,-7.689037669449176,-0.06088468698110622,0.0543072108027307,0.036259636473183136,0.0,0.0,0.0,0.0,0.0,0.0,-11.237728849608526,0.8530121081790398,0.09176388111823029,0.07657262164869028,auto,85.0,True,0,False,-10.0,0,0,-10,21.588998060721828,0.09178197916721736
1760870139.6165972,1.848167896270752,-6.652475399237468e-09,6.989391726928883e-10,12.758551576985619,-1.3501294469234767e-08,6.57953973832396e-10,10.96806661000542,-4.165903148746238e-05,0.0013366894486392569,1.6663710728613964e-06,-0.0002539499352481938,0.0014749587797672188,1.0157833286237507e-05,-1.678532164594078e-08,-1.291427245154311e-09,1.8045735343140457,0.9811966416733366,1.0188033583266634,0.0,0.0,0.0,0.14487412932189708,1.0,0.16367748764856044,0.2083511479206484,0.25791246862680756,12.579555415891763,0.06573295410342067,0.06686069713345676,10.932976152837842,0.005806585122210883,-0.005921616829190235,-0.06873089647671507,0.0431016533169904,-0.0035260459231340148,-7.954594384783009,0.2228150270403737,-0.027743460732071953,0.15154696260540534,0.0,0.0,0.0,0.0,0.0,0.0,-13.188024210585402,1.0487833809499856,-0.16574813151251352,0.05600263917823398,auto,85.0,True,0,False,-10.0,0,0,-10,22.58198954524689,0.06922945982127951
1760870139.7263708,1.9579415321350098,-8.22520661911399e-09,7.618569855001096e-10,13.962128361200032,-1.5448118682403936e-08,4.899153028973426e-10,11.148072176587402,-6.933673782930952e-05,0.0015016414681355958,2.7734578462447578e-06,-0.00025507948693298733,0.0015570743234232971,1.0202948226943184e-05,-1.9345063078995946e-08,-1.7697109315304168e-09,1.5372938775816278,0.8286125251362102,1.1713874748637898,0.0,0.0,0.0,0.026453355333334733,1.0,0.19784083019712462,-0.14135154590517746,0.07983255867296421,14.082516930051872,0.04594844476036095,0.040497754408105394,11.150367018767891,0.0049191701471791305,-0.0027123602162064664,-0.10306281632583592,-0.01675627234782286,0.03581289146251663,-8.23225832777042,-0.04833787787523602,0.09175713389846706,-0.014229108775603488,0.0,0.0,0.0,0.0,0.0,0.0,-13.875503072407383,1.1938130198776662,-0.24024987031252693,-0.03752847460650521,auto,85.0,True,0,False,-10.0,0,0,-10,24.083064073808988,0.10321578969272263
1760870139.8312232,2.0627939701080322,-9.97340419097263e-09,8.027887489379726e-10,15.149789336781323,-1.761358358224628e-08,2.7691549274446366e-10,11.297297093529977,-9.766188789169932e-05,0.001670756393256557,3.906435640901727e-06,-0.0002798305828845228,0.0016392546326949701,1.119291960100883e-05,-2.038983868190196e-08,-2.15965777270117e-09,1.311791392521379,0.901262184971365,1.098737815028635,0.0,0.0,0.0,-0.2007712439655065,1.0,-0.10203342893687149,0.2506919798415499,-0.6559008807840561,15.086979232601731,0.07797444156308549,0.08606078005828173,11.315511129422573,0.00597635448671241,-0.007193501378305545,0.02620939686836362,-0.02620556074943444,-0.010606771808775877,-8.50483005831474,-0.05722139769361867,-0.0005145298253017804,-0.027548911115766062,-2.3983411454448373,-1.5982017532527202,16.529074215639135,0.03351812440182271,0.1112587014368714,11.288779352686129,-15.188490570163054,1.0089113681198751,0.062333989312221574,0.1509864059322365,auto,85.0,True,0,False,-10.0,0,0,-10,25.096804168084045,0.027827967213469258
1760870139.9411042,2.1726748943328857,-1.2041019057008697e-08,8.188455036713302e-10,16.398585831727132,-2.0024622441757276e-08,8.755101276017304e-12,11.429044791187085,-0.0001296464649132783,0.001855565695644169,5.185780705570177e-06,-0.00029986214503255847,0.001723926358750156,1.1994095996098509e-05,-2.316175727650472e-08,-2.674716897848521e-09,1.1110352035333646,0.8058455977259328,1.194154402274067,0.0,0.0,0.0,-0.15147809024797884,1.0,0.04267631202608834,0.25975181534374997,-0.6460386601018971,16.207428414577983,0.08602293714468941,0.09219301975032715,11.448890831151148,0.0040679384461004275,-0.0049409438241800885,-0.022819309920626363,-0.011545124002320696,-0.010493814093174457,-8.692499756183654,-0.04784277695493737,-0.02303596428637228,-0.08627961548021025,0.0,0.0,0.0,0.0,0.0,0.0,-16.346069937250885,0.9269315324775127,-0.07209375759198153,0.006725079258754841,auto,85.0,True,0,False,-10.0,0,0,-10,26.216676773785615,0.0236998302594884
1760870140.052623,2.284193754196167,-1.4377611630878376e-08,8.026579285467478e-10,17.65633931786808,-2.268766679886329e-08,-3.1295692072116227e-10,11.540132506394386,-0.00016348174629219578,0.002049021886576253,6.539144121101164e-06,-0.00032058270804754077,0.001809482338109198,1.2822822859966622e-05,-2.579662405730567e-08,-3.194197761076036e-09,0.9396252499340023,0.7598034501446783,1.2401965498553216,0.0,0.0,0.0,-0.14332072354560996,1.0,0.09687582630971166,0.8291625125395006,-0.6783610703116735,17.492943587580815,0.026711647591960277,0.018600105496737213,11.44427338865953,0.0001321433916654513,-0.005159112510313868,-0.04728943730184397,0.02808048111174255,-0.0038744025463009137,-8.846561833535123,-0.07184568374323737,-0.11295800872343593,0.013272311866809114,2.1732991113133964,-0.8581854407867052,18.05588049822114,-0.120112211465752,-0.0886444686691494,11.347492619284129,-17.39716479541178,1.0161004850695958,-0.05824659616671143,0.04814716706667341,auto,85.0,True,0,False,-10.0,0,0,-10,27.51380801204763,0.04757020899780733
1760870140.160164,2.3917348384857178,-1.7003313628772334e-08,7.489568241715675e-10,18.919963632172106,-2.5497567610519725e-08,-6.796674307098573e-10,11.633638766506282,-0.00019939410937877232,0.0022509445142246385,7.975579987384924e-06,-0.00033627396941168574,0.0018939112416872129,1.345036690184952e-05,-2.5790202799379095e-08,-3.495473856958037e-09,0.7939772263454565,0.8807328642234868,1.1192671357765132,0.0,0.0,0.0,-0.14161545425731856,1.0,-0.02234831848080542,0.8325191069748648,-0.6762496335237276,18.606189028168764,0.03531903754415353,0.020294424175042115,11.53955032159769,0.0016004086772518633,-0.010672421490269812,0.020310790053063674,-0.030819235095203838,0.021380573234205363,-8.971932122351362,0.16258146348575236,-0.09646308987758492,0.00019655437958313553,0.0,0.0,0.0,0.0,0.0,0.0,-17.946423417958236,1.0013167794387128,0.0673822042626842,0.033611319966547024,auto,85.0,True,0,False,-10.0,0,0,-10,28.62628953157643,0.022999784368115853
1760870140.2679398,2.4995105266571045,-1.9924160797313197e-08,6.53470129080441e-10,20.18413441664336,-2.8487591924877974e-08,-1.092557876124989e-09,11.712095626232689,-0.0002370039582688722,0.002460566780274417,9.479903664212634e-06,-0.0003555423177365787,0.0019777172030744495,1.4220984323490235e-05,-2.7784219429760515e-08,-3.953181313289048e-09,0.670593317688828,1.1357608952480436,0.8642391047519563,0.0,0.0,0.0,-0.09315838708222259,1.0,-0.22891928233026626,0.9150461302739371,-0.5235818548602938,20.046447224694102,0.03188536454939102,0.022270387754430465,11.726269607558566,0.004088042799963887,-0.004624488006949257,0.12545487196596244,0.014620681926823254,-0.019482669616310146,-9.151518684634185,0.24627968773683181,0.015594295373828263,-0.0371132553638742,0.0,0.0,0.0,0.0,0.0,0.0,-20.020034946970465,0.7979800654199933,0.13948183021472824,0.012723957179055138,auto,85.0,True,0,False,-10.0,0,0,-10,30.064937023143692,0.12560661958374958
1760870140.3768072,2.6083779335021973,-2.3196471067375826e-08,5.098924474896532e-10,21.462926838400897,-3.176801064961086e-08,-1.5639124117281054e-09,11.778672134326829,-0.0002764245233922338,0.00268043192520517,1.1056642312259557e-05,-0.00037762140343437306,0.0020629197003374407,1.5104020359119014e-05,-3.576085903202069e-08,-5.01812201500977e-09,0.5657166413489814,0.6336716978036109,1.366328302196389,0.0,0.0,0.0,-0.1334192468736426,1.0,0.23290905532274653,1.155262485232172,-0.54966221385854,21.43020850237985,0.041241813957091956,0.01156490168375587,11.789932171547445,0.008058381804841197,-0.00042607042214060087,-0.10479387854077699,-0.0007480409161736493,0.04042269605599015,-9.2306723748994,-0.05519476289995165,0.23227879547564492,0.18684955292324398,0.0,0.0,0.0,0.0,0.0,0.0,-21.528563894718936,1.0155499152581278,-0.12246129327157977,-0.03622120244511403,auto,85.0,True,0,False,-10.0,0,0,-10,31.456235732557055,0.10510411996176143
1760870140.4857512,2.7173218727111816,-2.6836769115204627e-08,3.1165234980624745e-10,22.743224180906246,-3.558101204376806e-08,-2.1195627349481374e-09,11.834580949385305,-0.00031942382461300775,0.0029088463418323646,1.2776516103236563e-05,-0.0004240283871084429,0.0021524683104244676,1.696015471933033e-05,-3.179183107232362e-08,-4.887498822905811e-09,0.47677186235683183,0.8249526452083559,1.175047354791644,0.0,0.0,0.0,-0.25274883728744746,1.0,-0.0777014824958033,0.15116666644801988,-1.0191645200731978,22.497000083700474,0.007820990819793643,-0.0018121362882549973,11.874556121576147,0.0067019946977606715,0.0021626398249918743,0.012086666914411598,0.050604471225406567,0.003065480001487901,-9.350300863979982,-0.013995853234334533,0.13990310179368495,0.05813694409653736,0.0,0.0,0.0,0.0,0.0,0.0,-21.909713778059707,1.1143309607193412,0.11697435548770362,0.01961586541376703,auto,85.0,True,0,False,-10.0,0,0,-10,32.51332899166201,0.013988611833966408
1760870140.5954409,2.8270115852355957,-3.094564539722248e-08,4.73971757653592e-11,24.044113856978946,-3.935346704518385e-08,-2.7064578744334056e-09,11.882201553219378,-0.00036752959099384426,0.0031497402242576357,1.4700630047322394e-05,-0.00044102529005676246,0.0022394120456831388,1.7639861790452685e-05,-3.271755932202963e-08,-5.298852968246388e-09,0.40086433506803415,1.1256026304331455,0.8743973695668545,0.0,0.0,0.0,0.1308867811208741,1.0,0.005284150687728636,0.1502408662162082,0.2660367498962994,24.140408713725517,0.016295363650985616,-0.045621268439641115,11.88310198509498,0.00788165978201194,0.004395353668852575,-0.011842535714091676,0.061091341967171656,0.029979338624239966,-9.360090516590207,0.035669939147472615,0.0484054862881364,-0.02860985779234788,0.0,0.0,0.0,0.0,0.0,0.0,-24.54067989173821,0.9111720402389827,0.005939255421236014,-0.19436230247701014,auto,85.0,True,0,False,-10.0,0,0,-10,34.14177580341131,0.014889101616055186
1760870140.7027428,2.9343135356903076,-3.536678422039743e-08,-2.7526316944149664e-10,25.32127270675328,-4.31616519770915e-08,-3.324890106852101e-09,11.921425425451847,-0.00041373183115017004,0.003394487981568297,1.6548587195345266e-05,-0.00041477083466892655,0.0023232484221459874,1.6589515005540096e-05,-3.4935922521205886e-08,-5.789290147408998e-09,0.3382489554681906,1.1462792023966668,0.8537207976033333,0.0,0.0,0.0,-0.14708299380783216,1.0,-0.2933621962044989,0.29076967418723526,-0.45501531528940947,25.488917793084312,0.02139923904068399,-0.031148609064675873,11.95542500415681,0.0045703770799905286,0.007329632657293583,0.15618597891359826,-0.0004170427974661689,0.02337208444577544,-9.437855604891245,-0.1564871091355354,0.10258606660849731,0.09790940040419209,0.6498356313801433,-2.3085529979250734,23.61152501164335,0.038949868072185846,-0.013269787986131059,12.035602603787499,-25.40471148363181,1.0224614182249796,0.1454295624455055,0.024999392384859095,auto,85.0,True,0,False,-10.0,0,0,-10,35.493025682024786,0.15642465237533093
1760870140.8108351,3.042405843734741,-4.0270056211280776e-08,-6.720295191789526e-10,26.61778075609342,-4.7246753244794735e-08,-3.997917799885076e-09,11.954864767675822,-0.0004582351844747226,0.003651365091117292,1.8328569096457735e-05,-0.0004228510102324261,0.002408266113111882,1.6912553602752026e-05,-4.30630211692655e-08,-6.9374617119098625e-09,0.28443767347279447,0.6734749259609951,1.3265250740390049,0.0,0.0,0.0,-0.07271921425198652,1.0,0.2538058597870183,0.29293504907257245,-0.4583336278541814,26.439319521940014,0.01992943032990439,-0.031394475427739,11.987730129136715,-0.006057361597632038,0.005198049576612185,-0.10567041096136334,0.06931792659954858,0.021037392669404336,-9.50869408711737,-0.1447586494988722,-0.11210644462054989,0.06299188105268336,0.0,0.0,0.0,0.0,0.0,0.0,-26.660194655567697,0.8161587429154769,-0.10607578241174093,-0.19889599681111722,auto,85.0,True,0,False,-10.0,0,0,-10,36.44337920500013,0.10597144474653918
1760870140.9204824,3.152053117752075,-4.564957836078824e-08,-1.1457931999949443e-09,27.924145951983824,-5.1384535204060415e-08,-4.692798244594426e-09,11.983118413020291,-0.000505025080192272,0.00391875859699185,2.019999274035438e-05,-0.00042962935348160244,0.002491801178832517,1.7183503923726435e-05,-3.802408678289519e-08,-6.43791735765927e-09,0.23897234498523248,1.1009923892127809,0.8990076107872192,0.0,0.0,0.0,0.01313952733134786,1.0,-0.08785286188143294,-0.6253013662009905,-0.10185393330585123,27.885407296708852,0.0009186145645805251,-0.05225313348107517,12.007387936893826,-0.0018650306543612771,0.004442527068188706,0.05274131406703604,0.021138367377253667,0.015375030087499596,-9.571261266025722,-0.006628542076338783,-0.008911352666724123,-0.06617012540819701,0.0,0.0,0.0,0.0,0.0,0.0,-27.864103915844456,0.8694119154908542,0.01714378230721609,-0.093986507455016,auto,85.0,True,0,False,-10.0,0,0,-10,37.89070416421187,0.05296093461799018
1760870141.0288527,3.260423421859741,-5.148594177170537e-08,-1.6972292366940545e-09,29.230140571912948,-5.5790319135995895e-08,-5.4337368916739306e-09,12.006797993131364,-0.0005518084340724509,0.004194659783942667,2.207113482779873e-05,-0.0004343264005585932,0.002575711191689971,1.7371196126310894e-05,-3.9845282365416996e-08,-6.76481797140748e-09,0.20086624434187625,0.9076106352900727,1.0923893647099274,0.0,0.0,0.0,-0.006947535512446557,1.0,0.08544182919748078,-0.6251479806143855,-0.10781848289447042,29.097393172416822,0.0031997376333695,-0.056552983342889364,12.030794091182088,-0.00243933954429032,0.0026067261221309757,-0.04255967392835965,0.038935380041626895,0.004605077790172141,-9.5570109122264,0.0035130262930871434,0.09692709427409056,-0.06663280213159312,0.0,0.0,0.0,0.0,0.0,0.0,-29.403736699608658,0.9224465213453937,-0.07352696031154757,0.04322918583469024,auto,85.0,True,0,False,-10.0,0,0,-10,39.10253940221102,0.04270914706917518
1760870141.137546,3.36911678314209,-5.780167624846255e-08,-2.3301277117507315e-09,30.53631053253033,-6.052646053271777e-08,-6.226954095320128e-09,12.026659603590579,-0.0005989469606538046,0.004479194940655054,2.395646303949821e-05,-0.0004399899520694332,0.002660409580951836,1.7597540778437548e-05,-5.012513600108844e-08,-8.197986574849156e-09,0.16876161334075512,0.6800917625710523,1.3199082374289477,0.0,0.0,0.0,-0.041720294723704726,1.0,0.2781879427052429,-0.6246955624013901,-0.11397194394271032,30.380032331001903,0.00605036607726436,-0.05623515725023867,12.050509445539026,0.0034978549638604584,0.0014255197875097103,-0.1378821011870066,0.09654329552126423,0.03190496262995915,-9.645074538291498,0.2068839070922059,-0.10582194584008713,-0.005302238828170494,0.0,0.0,0.0,0.0,0.0,0.0,-30.23282086036842,1.0159643719802252,-0.152647124632544,-0.019653800886696382,auto,85.0,True,0,False,-10.0,0,0,-10,40.385025011784364,0.1379338280617076
1760870141.2470212,3.4785919189453125,-6.468315024361698e-08,-3.0550594894209847e-09,31.85387692806747,-6.52372746169434e-08,-7.023971500428163e-09,12.04345427775669,-0.0006476946946945175,0.004774980215929101,2.590613574868856e-05,-0.0004519456701744962,0.0027433476160910186,1.807555878073449e-05,-4.42253517950501e-08,-7.464287805311796e-09,0.14157651361515397,0.8873451863970523,1.1126548136029477,0.0,0.0,0.0,-0.2873360147968171,1.0,-0.17468120119386937,-0.9571709120477295,-1.0761504732444618,31.774372009353506,0.01859744571531922,-0.06263563865485036,12.047479487138864,0.0013664140748916864,-0.0006369934897150209,0.08388011641534553,0.02815463023657361,-0.01150908099578044,-9.676744157340742,0.13750299654911874,-0.02967892734576074,-0.04857835053379161,0.0,0.0,0.0,0.0,0.0,0.0,-32.074011967972325,0.9730084885444156,0.07670105968006052,-0.08609984557822753,auto,85.0,True,0,False,-10.0,0,0,-10,41.7991917717531,0.0838936635150827
1760870141.357778,3.589348793029785,-7.220910214713526e-08,-3.884677213048251e-09,33.176452606913756,-7.21955188838807e-08,-8.135805687349727e-09,12.057573621572105,-0.0007007875018639205,0.005081381847047833,2.8029586514589295e-05,-0.0005217950797935865,0.002842258890091829,2.0869297924677288e-05,-5.622549203638607e-08,-9.211702956432786e-09,0.11868663891046814,0.6460485797697433,1.3539514202302567,0.0,0.0,0.0,-0.3908311242146646,1.0,-0.03687970398440792,0.921856370588592,-1.6181162590817595,32.875305326940094,-0.04061617683320789,-0.06616784107288658,12.038839404005126,0.0009885653658470162,0.0036520008054203856,0.01054931252597846,0.012471918509875314,0.04462556164636729,-9.693362780696186,0.0576151075912082,0.09021982575107948,-0.02980690060768911,0.0,0.0,0.0,0.0,0.0,0.0,-32.584503429937584,0.8489094179062181,0.049757055850808064,0.02817593236231703,auto,85.0,True,0,False,-10.0,0,0,-10,42.91573052243474,0.011207246144174288
1760870141.4647884,3.696359157562256,-8.027542612808101e-08,-4.811094667646892e-09,34.467360089916866,-7.848668916074e-08,-9.172089442622208e-09,12.069138379266592,-0.0007597529238550696,0.005390467386232054,3.038792108467669e-05,-0.0005790274155549346,0.0029338148032340096,2.315831879697701e-05,-5.112809233247579e-08,-8.71855145099377e-09,0.0998834067826212,0.7529682568108058,1.2470317431891942,0.0,0.0,0.0,-0.37867584421094447,1.0,-0.1316441010217503,0.5825879122725112,-1.7808925036739773,33.91765442050952,0.03893139462761032,-0.024939782069898022,12.052834178249311,0.002548325643957572,0.001959475093417762,0.06648042847700855,0.1086034737152301,0.006770619799007638,-9.679927803775836,-0.10727756376734854,-0.027870976761174435,-0.07844806289339779,0.0,0.0,0.0,0.0,0.0,0.0,-32.6465878166631,1.0030855325254284,0.05708822003632948,-0.03229394751402881,auto,85.0,True,0,False,-10.0,0,0,-10,43.957608631321925,0.06655810151075545
1760870141.5710373,3.802608013153076,-8.903601174630096e-08,-5.852434474695344e-09,35.76238794032388,-8.472850565977161e-08,-1.0230471269234712e-08,12.078894382941945,-0.0008246021604758359,0.005710019803642475,3.2981576365048104e-05,-0.0006274925952833984,0.0030236793576162947,2.509661681977317e-05,-4.593104405878744e-08,-8.238495165374411e-09,0.08404469799810343,0.973326149859197,1.026673850140803,0.0,0.0,0.0,-0.3498996557984177,1.0,-0.32322580565761466,0.5869294233715279,-1.7833233248408265,35.42124059157366,0.042543070228096405,-0.020080679597109748,12.061382044945534,0.0012043293819061773,-0.002566009592873897,0.1702813034928689,0.04156220102209824,0.005925138221528412,-9.752430927918217,-0.1689617416334217,0.03840771337812895,0.026907522374037145,0.0,0.0,0.0,0.0,0.0,0.0,-35.30029231128256,0.9976192559984456,0.2538071681339567,0.09248060351822351,auto,85.0,True,0,False,-10.0,0,0,-10,45.46002447322877,0.17030489462643572
1760870141.6838958,3.915466547012329,-9.893385613372802e-08,-7.068398782426313e-09,37.113952855883596,-9.169450343969978e-08,-1.1437605177920873e-08,12.087423825481387,-0.0008985987917906053,0.006053776990999593,3.594107637041458e-05,-0.0006851667209221093,0.0031190491041963265,2.7403217950557116e-05,-5.347808159547356e-08,-9.634032724259567e-09,0.07169706955521744,0.7647796341417357,1.2352203658582643,0.0,0.0,0.0,-0.26056298253952215,1.0,-0.02534261668125782,-1.1145730406878176,-1.6596666203846242,36.863786920295574,0.07660922852201751,-0.05075526338570563,12.100731428977488,0.0030880144327145587,-0.002709085498341146,0.020255401417536054,0.06661828808513287,0.011533839198232277,-9.762990418508066,0.09043405770083095,0.09573887905298206,0.07514986270828818,-3.7254868813053106,-0.8660781189265468,36.88464129377701,0.08177146033794762,0.050959632405810515,12.098849313042981,-36.814358133422125,0.9845581944196777,-0.03886544674665956,0.012720685845240219,auto,85.0,True,0,False,-10,0,0,-10,46.90640991234261,0.02066775904541896
1760870141.7906654,4.022236108779907,-1.0920472636766862e-07,-8.369791128226466e-09,38.41704483065453,-9.892728900952164e-08,-1.2723458077182813e-08,12.094308404843359,-0.0009756514178436256,0.006394967477494782,3.902278888594921e-05,-0.0007445646283183348,0.003212515894832039,2.9778743914738392e-05,-5.03111927453848e-08,-9.572283530675759e-09,0.05899275575095785,0.8657343139412312,1.1342656860587688,0.0,0.0,0.0,-0.27250507828504805,1.0,-0.13823939222627918,-1.2074324534857541,-1.7136911885064054,38.23888755169475,0.03827060859937645,-0.049308808259119756,12.113275856320978,-0.0015326894729232876,-0.010624588508308719,0.050035098828889485,0.09097298085850825,0.04171210750879093,-9.732735369622665,0.028893646566607745,-0.15946538538639674,0.07474055862093963,0.0,0.0,0.0,0.0,0.0,0.0,-38.73723701932016,1.0947912921630023,0.1522055873593819,0.09062657392867593,auto,85.0,True,0,False,-10,0,0,-10,48.28441677026187,0.05117364685859347
1760870141.9005415,4.132112264633179,-1.2033975805151763e-07,-9.821732903697373e-09,39.7401438307434,-1.0495995266641398e-07,-1.3875702540965447e-08,12.100173338837925,-0.0010579761557626272,0.006750936044341053,4.231533509852036e-05,-0.0007685912298015321,0.0032981419270249434,3.073937928877233e-05,-5.0254615054639503e-08,-9.937858301681844e-09,0.04949253514634084,0.9805755471701998,1.0194244528298002,0.0,0.0,0.0,-0.11646119707103277,1.0,-0.09703674424123257,-0.18105403441990187,-1.0645950986262678,39.77178874126789,0.058031038390020925,-0.04834824167753205,12.113164680532888,-0.002895643210106602,-0.006732527748029238,0.05790051810607852,0.027709532802294788,-0.01104759239337612,-9.774677913004602,-0.1002946101748003,0.07226774027953442,-0.012865592071650389,2.3845659562545585,0.5793910884898873,42.671023640064185,0.06690932558966818,-0.04885696462705399,12.096552996798577,-39.13914925736521,1.0353423923448821,0.07664774518233652,-0.025423913801403936,auto,85.0,True,0,False,-10,0,0,-10,49.78350226523642,0.05836250231467587
1760870142.0083456,4.2399163246154785,-1.3197303573050253e-07,-1.1380273724881465e-08,41.04484919733131,-1.1087145928122116e-07,-1.5046563515337726e-08,12.105025067083686,-0.001141872751283983,0.007110960055954298,4.567071461248104e-05,-0.0007830019282210987,0.0033809240206119353,3.1315358979997815e-05,-5.667991538147279e-08,-1.1317479429482231e-08,0.041547120564352134,0.8311086209629877,1.1688913790370123,0.0,0.0,0.0,-0.15382707437706736,1.0,0.01506430465994505,-0.17392126096209323,-1.0698556301702775,40.86543037917859,0.07389815461295952,-0.04882217429509289,12.117165312921156,-0.005245134595734058,-0.007747636890050202,0.01350247049041578,0.06946264186430395,0.06079086039417768,-9.822369658258815,-0.038157475280009234,-0.10263392110561448,-0.249609977177013,0.0,0.0,0.0,0.0,0.0,0.0,-40.80950533906631,1.0519089316159096,-0.07335580604667395,-0.0882835133226037,auto,85.0,True,0,False,-10,0,0,-10,50.87697757663564,0.016427234205793194
1760870142.1162775,4.347848176956177,-1.4431069561990377e-07,-1.3077592967336377e-08,42.351605166435945,-1.1774459654942297e-07,-1.641065168879297e-08,12.10910638989921,-0.0012281971081477073,0.007480550304762923,4.912315445969896e-05,-0.0008157287282270098,0.003467449259309555,3.26239580426918e-05,-5.483761583800279e-08,-1.1353541222114503e-08,0.03491163937077661,0.9474968283849499,1.0525031716150501,0.0,0.0,0.0,-0.17718517791962388,1.0,-0.12468200630457371,-0.16513758633436618,-1.0750749894505887,42.27860016005008,0.08781965398281127,-0.048377993244236236,12.122728391886822,-0.0038237955556441605,-0.005713256064288075,0.06755235378045954,0.07020399414882562,0.007635089426888411,-9.757560062130011,0.07091729271363156,-0.04149583285797254,-0.16166862253200506,0.0,0.0,0.0,0.0,0.0,0.0,-42.222682614769525,0.917927812186433,0.0566082798311767,0.19509465203066556,auto,85.0,True,0,False,-10,0,0,-10,52.28991385869507,0.06790127545626706
1760870142.2164178,4.447988510131836,-1.5646155950500962e-07,-1.4791065674644103e-08,43.57049605274845,-1.2388440815587142e-07,-1.767199544329989e-08,12.1123219189713,-0.001309841829583554,0.007833431302975476,5.238839789718685e-05,-0.0008187309299124156,0.003545556118123591,3.274358816875509e-05,-7.033463407019785e-08,-1.4211291484236748e-08,0.029685380706826105,0.703050362195285,1.296949637804715,0.0,0.0,0.0,-0.1732553676810722,1.0,0.12369427012364281,-0.472682545119253,-1.0957893067076299,43.372077096395266,0.03655296145178682,-0.0025932446277372005,12.114410990561913,-0.009790559584535341,-0.012262181364873559,-0.0403247984779382,0.07790685770407528,0.017536204948339563,-9.686264520531996,-0.023781410258075647,0.020193806035298974,0.10705092279601494,0.0,0.0,0.0,0.0,0.0,0.0,-43.24390295473647,1.1793772960554894,-0.10042847129229092,0.1441760908165565,auto,85.0,True,0,False,-10,0,0,-10,53.385417452490856,0.043270145840864874
1760870142.321603,4.553173780441284,-1.6984027695821853e-07,-1.672224088171417e-08,44.8446878372936,-1.3077317113140143e-07,-1.909884554678196e-08,12.115168160972893,-0.0013971909296317212,0.008210664337526907,5.588174157486688e-05,-0.0008467847527716248,0.0036282462746209253,3.386523991879466e-05,-8.100882287632e-08,-1.6327501868921416e-08,0.025036467595211987,0.6297551855790356,1.3702448144209645,0.0,0.0,0.0,-0.16760991338202902,1.0,0.20263490103893533,-0.46776051544689323,-1.0964724931055156,44.62882805256309,0.05617257867379785,-0.010918867782322757,12.119267994998628,-0.010693773888339031,-0.007829331631876713,-0.08693159412144011,0.09212971850466518,0.021248266380044387,-9.798355046239932,-0.04364051603478915,0.013153064190920091,0.009199204586009195,0.0,0.0,0.0,0.0,0.0,0.0,-44.25747502354024,0.954119353143206,-0.11115332226269271,-0.1000249536827158,auto,85.0,True,0,False,-10,0,0,-10,54.64183293251108,0.08793609776577323
1760870142.4309423,4.662513017654419,-1.8454536750416849e-07,-1.889556603375371e-08,46.16949111433048,-1.3823301120730332e-07,-2.0664798578667474e-08,12.11765636384966,-0.0014914038722461515,0.008612091843352206,5.964955682383132e-05,-0.0008627394174542853,0.00371446881858132,3.4502873151439534e-05,-6.950950845220823e-08,-1.4679703713123053e-08,0.020991250494458394,1.2293720502581056,0.7706279497418944,0.0,0.0,0.0,0.21259938991895105,1.0,-0.01677266033915443,-0.3724216354227417,0.4083229043150289,46.040207067026564,-0.0049463429039835975,0.04010534100053492,12.11928184608289,-0.004740206174854933,-0.005315098838942767,0.005531912809134482,0.05921754234039701,-0.012002558705181958,-9.806097278051586,0.09766223079384624,0.045728654368308176,-0.09389007462956743,0.0,0.0,0.0,0.0,0.0,0.0,-46.36313535957547,0.945265305793706,0.016217767657450866,0.13200615220207174,auto,85.0,True,0,False,-10,0,0,-10,56.042932057342725,0.009017865023148757
1760870142.605351,4.836921691894531,-2.0944650813501827e-07,-2.268458417398205e-08,48.258941228529366,-1.5054514850720704e-07,-2.3281798700069834e-08,12.12078713099679,-0.0016352935620976311,0.009264297373550551,6.540391326052657e-05,-0.0008076634359326187,0.003850591383729772,3.2298963326087426e-05,-6.99919613727775e-08,-1.4989055255556326e-08,0.01701651957924493,1.200236917218721,0.7997630827812788,0.0,0.0,0.0,0.1816628331443575,1.0,-0.01857408407436365,0.4889387919183216,0.6314269752488633,47.80283216556945,0.006008979994459318,0.039865623099502215,12.140200171366068,0.0018061986783761697,-0.013407683155947758,0.019810181801559537,0.06967940362274262,0.019267854862227016,-9.798833427268683,0.045296829156222705,-0.08286112314243262,0.003615938123697685,2.5151683799070725,1.1404656861346285,45.47675981834154,-0.019730251228511006,0.03655390604181559,12.183519607967511,-46.701284973260705,1.0449508970939678,-0.05224216305594217,-0.06891262800800409,auto,85.0,True,0,False,-10,0,0,-10,57.80834859713867,0.023988989647062958
1760870142.7104676,4.942038297653198,-2.2601247107569342e-07,-2.527307032831707e-08,49.55125252252756,-1.6020309831626003e-07,-2.5272957058648717e-08,12.122329101249678,-0.0017183461970409564,0.00967969177610628,6.872518333336017e-05,-0.0007512927155937286,0.003941839265555314,3.004361696338119e-05,-7.135461053433691e-08,-1.5246158393236747e-08,0.013376667567350094,1.1951223041373045,0.8048776958626955,0.0,0.0,0.0,0.24703878128022347,1.0,0.05191647714291904,0.6108905208614287,1.056199144150474,49.16660187909055,0.007025633389557716,-0.0022024818831327306,12.157775434275779,0.0003127755512983832,-0.018897486238203864,0.00033060634821550916,0.08401882539454321,0.05385381260019358,-9.735458737947253,0.07829916204295174,-0.03149479764306175,0.03093350606115356,0.0,0.0,0.0,0.0,0.0,0.0,-49.07435728238178,0.9050396342368834,-0.029352877886387088,-0.10595570408461541,auto,85.0,True,0,False,-10,0,0,-10,59.17918148960312,0.018902965778577575
1760870142.818777,5.050347805023193,-2.4378022180027385e-07,-2.8099118013279078e-08,50.864300980488274,-1.6821071590350661e-07,-2.6966381748947012e-08,12.123646102387921,-0.0017985456958020027,0.010111166615000165,7.193225910843282e-05,-0.0007223779520553314,0.004026587618011004,2.8886515419572976e-05,-8.327360570057851e-08,-1.72266147534277e-08,0.011220454037231695,1.2909328786735745,0.7090671213264255,0.0,0.0,0.0,0.20539770118376147,1.0,-0.08553517748981307,0.6133028895667799,1.056014721345855,50.54550264280121,0.03738555713230608,0.0014369643518025981,12.159470306752686,0.0012175940427692211,-0.017104488808724838,0.04920425393036061,0.12027246703967952,0.10620788766300646,-9.780732169244919,0.07385422650196284,-0.10874827059527968,0.06355533658288297,0.0,0.0,0.0,0.0,0.0,0.0,-50.197301223892985,0.9655088462131552,0.04858912484995442,0.010041739813000827,auto,85.0,True,0,False,-10,0,0,-10,60.55781698340437,0.05210666634418468
1760870142.9266145,5.158185243606567,-2.6245259931272226e-07,-3.111409983672666e-08,52.17786765530386,-1.7661257933361645e-07,-2.8709250150407948e-08,12.124751865401457,-0.0018751009204395898,0.010552019515053827,7.499350896062327e-05,-0.000689355213145148,0.004111864212425152,2.75651076451393e-05,-7.108264019757145e-08,-1.4825088886888902e-08,0.009422951397974246,1.1182335814382989,0.881766418561701,0.0,0.0,0.0,0.2399899904585656,1.0,0.12175640902026665,0.3626721368468924,1.2144950752063421,52.0087508566834,0.0247308204160524,0.022599650538121862,12.151478071180495,-0.0025222017362889204,-0.014070133970618404,-0.0610901940996155,0.11248431799519872,0.04640617328295774,-9.836404218801228,-0.004392215249659017,0.1927907426113744,-0.014028167144863405,0.0,0.0,0.0,0.0,0.0,0.0,-51.490762003204935,0.8667481698135219,-0.10529187478950087,0.028659797631726783,auto,85.0,True,0,False,-10,0,0,-10,62.02170355748687,0.06274027404051073
1760870143.0365586,5.268129348754883,-2.8215705873613807e-07,-3.4336523812968996e-08,53.49877747845853,-1.8490828280065453e-07,-3.0404018637524593e-08,12.125684678400981,-0.0019486747020353923,0.011004606868818783,7.7935442137592e-05,-0.0006738890397912782,0.004196171190027501,2.6945971840209815e-05,-7.153995081289117e-08,-1.4593844818084273e-08,0.007901506649625942,0.9300572718420089,1.069942728157991,0.0,0.0,0.0,0.03111475047691517,1.0,0.10105747863490619,-0.3567055569690262,0.47735707274736594,53.383222782696905,-0.028861426842226638,0.03236461202322912,12.153589384666864,-0.0025734531920420523,-0.013897161158863192,-0.05612361415236338,0.1115912659032831,-0.007132213526747248,-9.74721732578238,0.10023342164749559,0.1183794717363335,-0.03817241802843212,0.0,0.0,0.0,0.0,0.0,0.0,-53.195699145095276,0.885854340842075,-0.04031966336635651,-0.10417355155966122,auto,85.0,True,0,False,-10,0,0,-10,63.386024003326334,0.057875848288646364
1760870143.1437888,5.375359535217285,-3.026407455033377e-07,-3.772109964747741e-08,54.81124862000085,-1.9352491796783692e-07,-3.211860056336387e-08,12.126462221646644,-0.0020205971953627068,0.011463349243264415,8.081127745111812e-05,-0.0006537091141651463,0.004280224451358215,2.6138287292398556e-05,-7.735021053899345e-08,-1.5284469000184852e-08,0.006632767437525624,1.1428641075928307,0.8571358924071693,0.0,0.0,0.0,0.06575872699931032,1.0,-0.0771053805935204,-0.2685265585942049,0.4487657163463802,54.630938520023534,0.05958322837391593,0.08015169112780639,12.117041087409023,-0.004314275381429589,-0.012669658035441511,0.04547236879046445,0.097484987457949,0.020647746387610563,-9.784682814353825,-0.05600040202481805,0.1277553742295294,-0.11154129168112861,0.0,0.0,0.0,0.0,0.0,0.0,-54.692359313773295,1.1585079034284322,0.09268755511826847,-0.01916822419695022,auto,85.0,True,0,False,-10,0,0,-10,64.63305432330968,0.04740115536796379
1760870143.251937,5.4835076332092285,-3.2404709815695346e-07,-4.128755047450733e-08,56.12273874086382,-2.0251046119023506e-07,-3.385833040004727e-08,12.127114444351262,-0.0020901185177320987,0.011930782603728244,8.359101440658316e-05,-0.0006293179275017833,0.004364512296787815,2.516215928423743e-05,-7.86407928430896e-08,-1.5128543576501555e-08,0.005568797581935551,1.1277943287477705,0.8722056712522293,0.0,0.0,0.0,0.10245884557886298,1.0,-0.025335483168907724,-0.370353031854735,0.46051903991798027,55.71017191661474,0.06046054902035378,0.07660780356720562,12.124362360692281,-0.009634646302380645,-0.009189251666126719,0.03063278220420157,0.08298193927587127,0.06352773972146121,-9.802037372664353,-0.01080204717005018,-0.12312883771242311,-0.07361451105206993,0.0,0.0,0.0,0.0,0.0,0.0,-54.81978858112247,0.9193277585917572,0.06406155114986735,0.11146735065183806,auto,85.0,True,0,False,-10,0,0,-10,65.71282928367485,0.03340113921897632
1760870143.3607554,5.5923261642456055,-3.464813491608404e-07,-4.5049353984700714e-08,57.436285790749714,-2.116600427056945e-07,-3.558165921374908e-08,12.127662799055056,-0.002156641602428513,0.012408088361652308,8.625076875171198e-05,-0.0006072860361469387,0.004448613122215915,2.428041482917055e-05,-8.686371429695338e-08,-1.6120064104687117e-08,0.004671820249331265,0.7996728409309362,1.2003271590690638,0.0,0.0,0.0,0.04909669070894786,1.0,0.24942384977801169,-0.0619905578247508,0.21415187017395076,57.223302988884164,0.024459601561125914,0.063040610357498,12.105737483412964,-0.015308355792979178,-0.0078034344506958675,-0.10938889696277812,0.11071441090475492,0.07371025901230065,-9.81424601668009,-0.05862667194742017,0.06264258533265757,-0.057000575292902304,0.0,0.0,0.0,0.0,0.0,0.0,-56.90509802338131,0.7741602109884929,-0.14743476241329778,0.007218465915915826,auto,85.0,True,0,False,-10,0,0,-10,67.22367268000225,0.11073016808911668
1760870143.4700599,5.701630592346191,-3.701076275478923e-07,-4.902896906960051e-08,58.761832403313605,-2.2083440808520048e-07,-3.726004155731536e-08,12.128126904075796,-0.0022223003726411783,0.01289887099984489,8.887588859516675e-05,-0.000590571415408568,0.004532415355332663,2.361135850863433e-05,-9.118995196588682e-08,-1.63976427997231e-08,0.003916407193067468,1.214721032895492,0.7852789671045078,0.0,0.0,0.0,0.08190000221863562,1.0,-0.13282103067685658,-0.05794574647888426,0.22031461085292306,59.05219107286895,0.0496750771035446,0.04965254448386876,12.107407626180038,-0.017893797392713573,-0.007725983570429307,0.07730767365933895,0.1575907260453517,0.019362120988629855,-9.813786554892003,0.011073095012874134,0.02223961201041433,-0.12256821139367628,0.0,0.0,0.0,0.0,0.0,0.0,-60.22464271766137,0.8798364357703069,0.0710690053082743,-0.11122634964086422,auto,85.0,True,0,False,-10,0,0,-10,69.05256684730331,0.0797267534387352
1760870143.591169,5.822739839553833,-3.938902320513094e-07,-5.304618136965234e-08,60.04190785899269,-2.2979310359218014e-07,-3.884902532800422e-08,12.128503588669037,-0.0022845076702004154,0.013381500287731794,9.136294298472235e-05,-0.0005887851742310596,0.004612871137365296,2.353945395577677e-05,-8.483690406341012e-08,-1.4855662982812134e-08,0.0033187843746749954,0.8900914438469196,1.1099085561530804,0.0,0.0,0.0,0.11858213571258892,1.0,0.22849069186566928,-0.05168717511630829,0.22455405638960116,60.11015206207067,0.06840301274062041,0.029157793557988733,12.108582618771617,-0.0250881050906675,-0.005921366289891594,-0.1145562435455387,0.10186837426800885,0.0352754784019484,-9.831423602648249,0.010636877304319845,0.03615799888730658,-0.0814017993324587,0.0,0.0,0.0,0.0,0.0,0.0,-60.33926050983366,0.8748426543918859,-0.16259890431144305,-0.035159954090774374,auto,85.0,True,0,False,-10,0,0,-10,70.11053072295906,0.11742064780541886
1760870143.687268,5.918838739395142,-4.198376651794636e-07,-5.743492221971249e-08,61.37824969907078,-2.4069346904090137e-07,-4.071905636506589e-08,12.1288338259614,-0.002347480577874264,0.013894660849304701,9.388051631422032e-05,-0.0005639592735037711,0.004700568605394733,2.2545948948571593e-05,-8.306531034281378e-08,-1.405738547969414e-08,0.0027774682290820055,0.9886767038606679,1.0113232961393321,0.0,0.0,0.0,0.03671610619916989,1.0,0.048039402338502,-1.1652560540197812,0.017086728397508563,61.21786621983582,0.088901425810098,0.016931611553464093,12.057320194376857,-0.024084373606065856,-0.0026193917399517375,-0.031082323810828226,0.12664998491950938,0.053963468805764796,-9.791904003432577,0.062866717359021,0.053650666394921526,-0.008385946760020888,0.0,0.0,0.0,0.0,0.0,0.0,-61.45117444891857,1.118824049485012,-0.0013728645416349998,0.28984035522907203,auto,85.0,True,0,False,-10,0,0,-10,71.22740050383806,0.039408490437532216
1760870143.7934482,6.025018930435181,-4.4627663926610226e-07,-6.190651330824722e-08,62.68409898511686,-2.503368345775005e-07,-4.231914112971482e-08,12.12910446974355,-0.002407037447851485,0.014405189860934883,9.626142935104193e-05,-0.0005470751454869763,0.004782797199436806,2.1870132247318713e-05,-8.553394163846192e-08,-1.3953511610964241e-08,0.002322530696818524,0.9924067800829747,1.0075932199170252,0.0,0.0,0.0,0.05471555812456282,1.0,0.06230877804158816,-1.1545892303372964,0.01773703239657491,62.55418612238633,0.10932972261426006,-0.004202047848313391,12.058222778419422,-0.023699191652235996,-0.005740404710377067,-0.026150508976626706,0.12617018100539934,0.06433746678634661,-9.801399506843996,0.03940342762810979,0.0465269282360985,-0.09616045926206265,0.0,0.0,0.0,0.0,0.0,0.0,-62.46139608536836,1.0933542059462202,-0.051245805043754526,0.12759475826585567,auto,85.0,True,0,False,-10,0,0,-10,72.5633744720779,0.03575546183375297
1760870143.901981,6.133551836013794,-4.740996332460302e-07,-6.660573349571914e-08,64.00674490271771,-2.6002483328243184e-07,-4.386995393102024e-08,12.129334558334193,-0.0024664810961180905,0.014931220428528642,9.863774651287908e-05,-0.000542705259990137,0.004865089254040815,2.1694878304605988e-05,-8.827286350726198e-08,-1.3906454517336567e-08,0.0019523923984440868,1.019589890122038,0.980410109877962,0.0,0.0,0.0,-0.05464848864545853,1.0,-0.0742383787674966,-0.1988218860620418,-0.42305311242755217,63.772325407753485,0.07947216601177416,-0.026618691328178755,12.100543054416466,-0.024272515265166827,-0.005385378392957385,0.0400327997978052,0.16463941693661704,0.015969743723378463,-9.847262505113683,0.05679355887788405,0.11346301796428078,0.06694568746127269,0.0,0.0,0.0,0.0,0.0,0.0,-63.440856856141984,1.0422877485156705,0.0345595872360747,-0.013819647602693615,auto,85.0,True,0,False,-10,0,0,-10,73.77380632816624,0.047125177531593884
1760870144.0098584,6.241429090499878,-5.026910262598332e-07,-7.142253095808382e-08,65.31523481438131,-2.702159728981814e-07,-4.545034882041953e-08,12.129525533803083,-0.0025257767504391713,0.015460471168028955,0.00010100810950657811,-0.0005486242313412371,0.004947295695818447,2.1931171983165692e-05,-1.1186204790428873e-07,-1.7280630258493963e-08,0.0016331652006780217,1.2622022293679551,0.7377977706320449,0.0,0.0,0.0,0.08005332348053744,1.0,-0.1821489058874177,0.07711038824796038,-0.07998371250922748,65.32759919929784,0.0220931118487798,-0.00581024398888097,12.099542450840161,-0.025909707086545275,0.00021571262520403423,0.08614014318424104,0.15015073461907882,0.07692653227135932,-9.781893956754166,0.008765879139666085,-0.07636742290408802,0.09055855593990876,0.0,0.0,0.0,0.0,0.0,0.0,-65.58108240333969,0.9408186539570841,0.14244472531421173,0.014291358121062192,auto,85.0,True,0,False,-10,0,0,-10,75.32768113075231,0.08995267489657434
1760870144.1166382,6.348208904266357,-5.320895197773532e-07,-7.635802187186758e-08,66.61043202037042,-2.806501145442936e-07,-4.702087110028657e-08,12.129684435095314,-0.0025842914307150616,0.015993073752543482,0.00010334719850562917,-0.0005389134364510986,0.005028861121464612,2.1542273520264023e-05,-9.337580988579816e-08,-1.3797600945756469e-08,0.0013758766980098457,1.04399956112308,0.95600043887692,0.0,0.0,0.0,0.07495485094315435,1.0,0.03095528982007438,0.08028575460164193,-0.08199873454199613,66.59875900604071,0.038023524168104436,-0.033061320516088816,12.099782880239097,-0.02845611985422991,0.0002952659854944528,-0.01899978704833047,0.16136009093093792,-0.00972620024743729,-9.82336530471803,-0.027394013406125947,-0.15632531248917475,0.08507701153523019,0.0,0.0,0.0,0.0,0.0,0.0,-66.44924533870886,0.7894801666581777,-0.06853802522068549,-0.12847002579818292,auto,85.0,True,0,False,-10,0,0,-10,76.5988449707981,0.03421739100285692
1760870144.2259169,6.4574875831604,-5.632118426190918e-07,-8.156004763172294e-08,67.92986220126865,-2.917385110110344e-07,-4.864278700184318e-08,12.129820408940125,-0.002642461667188692,0.016544624377803616,0.00010567243070690863,-0.0005267357679908577,0.005112433808720639,2.1054695193469704e-05,-9.542691947382031e-08,-1.3648047019826107e-08,0.001153590259208433,1.0427567407565008,0.9572432592434991,0.0,0.0,0.0,0.24545358396416167,1.0,0.20269684320766068,-0.6068007082388575,0.6286575048965933,67.84354086503085,0.11903925906858823,-0.050014612089510066,12.090763528219929,-0.026338905866044815,-0.0035699487112066386,-0.11294305254950562,0.1574453956547215,0.07935026797559552,-9.807745683152435,0.0724634542296566,0.00692693214204451,-0.01611676986085198,0.0,0.0,0.0,0.0,0.0,0.0,-67.80992957774606,1.1019689193889526,-0.13817324421399532,-0.01345479579160703,auto,85.0,True,0,False,-10,0,0,-10,77.84844424754877,0.11602851207880503
1760870144.3305445,6.56211519241333,-5.945576309228174e-07,-8.677178478195255e-08,69.20507567047295,-3.0492371970771265e-07,-5.055012737594657e-08,12.129930813594191,-0.0026959556884719044,0.017086571455632776,0.00010781061899821442,-0.0004917727462428162,0.00519836231578114,1.9655733477568183e-05,-1.0741976623476617e-07,-1.504630248929557e-08,0.0009727622713974821,1.1905060107764436,0.8094939892235564,0.0,0.0,0.0,0.14140151110355828,1.0,-0.049104499672885375,0.02063387391575649,0.3110950140163583,69.06163420335774,0.11461101597897083,-0.08494911221450453,12.123061301199115,-0.029957764644527263,-0.0003085543096177368,0.013136945430234442,0.14683449097627088,0.048427159496466796,-9.786244009568362,0.08579322708599868,0.1267442842085099,-0.026421100974562524,0.0,0.0,0.0,0.0,0.0,0.0,-69.63215179785648,0.9639420105918349,0.10418650831145378,0.02030280227343573,auto,85.0,True,0,False,-10,0,0,-10,79.06224894834477,0.03271302803923582
1760870144.4407463,6.672317028045654,-6.287873987070114e-07,-9.242716575395017e-08,70.53573122609644,-3.221288837789208e-07,-5.3012432177134465e-08,12.130027469514314,-0.0027476969941645645,0.017661783735182512,0.00010987858216825305,-0.00043330812647506,0.005295145982913741,1.731671503736082e-05,-1.8873498854628923e-07,-2.7115039518657664e-08,0.0008103503947043893,1.5211355763709746,0.47886442362902526,0.0,0.0,0.0,0.5062836759900079,1.0,-0.01485190038096682,0.9714471329388511,1.661839261628938,70.14138340396264,0.08766671750704405,-0.01611610859870711,12.121727811400204,-0.027941637728063018,-0.002913366100987247,0.004100283410284369,0.15674421706306685,0.03178365149021474,-9.846749659314675,0.1454074907968399,0.036052417214673026,-0.017015881037771453,0.0,0.0,0.0,0.0,0.0,0.0,-69.78771079669549,1.009758614809564,0.009450274652090683,0.0004851594518114232,auto,85.0,True,0,False,-10,0,0,-10,80.16449808465418,0.02839075809148726
