timestamp,simulation_time,position_x,position_y,position_z,velocity_x,velocity_y,velocity_z,attitude_roll,attitude_pitch,attitude_yaw,control_throttle,control_roll,control_pitch,control_yaw,estimated_position_x,estimated_position_y,estimated_position_z,flight_mode,battery_level,setpoint_altitude,setpoint_position_x,setpoint_position_y,setpoint_position_z,position_error,attitude_error,waypoint_index,mission_complete
1761250972.8349404,0.10780501365661621,0.0,0.0,-0.0,0.0,0.0,-0.0,0.0,0.0,0.0,0.0,0.0,0.0,0.0,0.0,0.0,-0.0,manual,85.0,0.0,0.0,0.0,0.0,0.0,0.0,0,0
1761250972.936901,0.20976567268371582,0.0,0.0,-0.0,0.0,0.0,-0.0,0.0,0.0,0.0,0.0,0.0,0.0,0.0,0.0,0.0,-0.0,manual,85.0,0.0,0.0,0.0,0.0,0.0,0.0,0,0
1761250973.039308,0.31217265129089355,0.0,0.0,-0.0,0.0,0.0,-0.0,0.0,0.0,0.0,0.0,0.0,0.0,0.0,0.0,0.0,-0.0,manual,85.0,0.0,0.0,0.0,0.0,0.0,0.0,0,0
1761250973.144545,0.41740965843200684,0.0,0.0,-0.0,0.0,0.0,-0.0,0.0,0.0,0.0,0.0,0.0,0.0,0.0,0.0,0.0,-0.0,manual,85.0,0.0,0.0,0.0,0.0,0.0,0.0,0,0
1761250973.247338,0.52020263671875,0.0,0.0,-0.0,0.0,0.0,-0.0,0.0,0.0,0.0,0.0,0.0,0.0,0.0,0.0,0.0,-0.0,manual,85.0,0.0,0.0,0.0,0.0,0.0,0.0,0,0
1761250973.3505087,0.62337327003479,0.0,0.0,-0.0,0.0,0.0,-0.0,0.0,0.0,0.0,0.0,0.0,0.0,0.0,0.0,0.0,-0.0,manual,85.0,0.0,0.0,0.0,0.0,0.0,0.0,0,0
1761250973.4546547,0.7275192737579346,0.0,0.0,-0.0,0.0,0.0,-0.0,0.0,0.0,0.0,0.0,0.0,0.0,0.0,0.0,0.0,-0.0,manual,85.0,0.0,0.0,0.0,0.0,0.0,0.0,0,0
1761250973.5583022,0.8311667442321777,0.0,0.0,-0.0,0.0,0.0,-0.0,0.0,0.0,0.0,0.0,0.0,0.0,0.0,0.0,0.0,-0.0,manual,85.0,0.0,0.0,0.0,0.0,0.0,0.0,0,0
1761250973.6643572,0.9372217655181885,0.0,0.0,-0.0,0.0,0.0,-0.0,0.0,0.0,0.0,0.0,0.0,0.0,0.0,0.0,0.0,-0.0,manual,85.0,0.0,0.0,0.0,0.0,0.0,0.0,0,0
1761250973.7696593,1.0425238609313965,0.0,0.0,-0.0,0.0,0.0,-0.0,0.0,0.0,0.0,0.0,0.0,0.0,0.0,0.0,0.0,-0.0,manual,85.0,0.0,0.0,0.0,0.0,0.0,0.0,0,0
1761250973.8727257,1.1455903053283691,0.0,0.0,-0.0,0.0,0.0,-0.0,0.0,0.0,0.0,0.0,0.0,0.0,0.0,0.0,0.0,-0.0,manual,85.0,0.0,0.0,0.0,0.0,0.0,0.0,0,0
1761250973.9754307,1.2482953071594238,0.0,0.0,-0.0,0.0,0.0,-0.0,0.0,0.0,0.0,0.0,0.0,0.0,0.0,0.0,0.0,-0.0,manual,85.0,0.0,0.0,0.0,0.0,0.0,0.0,0,0
1761250974.0766835,1.349548101425171,0.0,0.0,-0.0,0.0,0.0,-0.0,0.0,0.0,0.0,0.0,0.0,0.0,0.0,0.0,0.0,-0.0,manual,85.0,0.0,0.0,0.0,0.0,0.0,0.0,0,0
1761250974.1794684,1.4523329734802246,0.0,0.0,-0.0,0.0,0.0,-0.0,0.0,0.0,0.0,0.0,0.0,0.0,0.0,0.0,0.0,-0.0,manual,85.0,0.0,0.0,0.0,0.0,0.0,0.0,0,0
1761250974.2830467,1.5559113025665283,0.0,0.0,-0.0,0.0,0.0,-0.0,0.0,0.0,0.0,0.0,0.0,0.0,0.0,0.0,0.0,-0.0,manual,85.0,0.0,0.0,0.0,0.0,0.0,0.0,0,0
1761250974.3868515,1.6597161293029785,0.0,0.0,-0.0,0.0,0.0,-0.0,0.0,0.0,0.0,0.0,0.0,0.0,0.0,0.0,0.0,-0.0,manual,85.0,0.0,0.0,0.0,0.0,0.0,0.0,0,0
1761250974.4893153,1.7621798515319824,0.0,0.0,-0.0,0.0,0.0,-0.0,0.0,0.0,0.0,0.0,0.0,0.0,0.0,0.0,0.0,-0.0,manual,85.0,0.0,0.0,0.0,0.0,0.0,0.0,0,0
1761250974.5954397,1.8683042526245117,0.0,0.0,-0.0,0.0,0.0,-0.0,0.0,0.0,0.0,0.0,0.0,0.0,0.0,0.0,0.0,-0.0,manual,85.0,0.0,0.0,0.0,0.0,0.0,0.0,0,0
1761250974.6992936,1.9721581935882568,0.0,0.0,-0.0,0.0,0.0,-0.0,0.0,0.0,0.0,0.0,0.0,0.0,0.0,0.0,0.0,-0.0,manual,85.0,0.0,0.0,0.0,0.0,0.0,0.0,0,0
1761250974.8032985,2.0761630535125732,0.0,0.0,-0.0,0.0,0.0,-0.0,0.0,0.0,0.0,0.0,0.0,0.0,0.0,0.0,0.0,-0.0,manual,85.0,0.0,0.0,0.0,0.0,0.0,0.0,0,0
1761250974.9070845,2.1799490451812744,0.0,0.0,-0.0,0.0,0.0,-0.0,0.0,0.0,0.0,0.0,0.0,0.0,0.0,0.0,0.0,-0.0,manual,85.0,0.0,0.0,0.0,0.0,0.0,0.0,0,0
1761250975.0087428,2.2816073894500732,0.0,0.0,-0.0,0.0,0.0,-0.0,0.0,0.0,0.0,0.0,0.0,0.0,0.0,0.0,0.0,-0.0,manual,85.0,0.0,0.0,0.0,0.0,0.0,0.0,0,0
1761250975.1152108,2.388075351715088,0.0,0.0,-0.0,0.0,0.0,-0.0,0.0,0.0,0.0,0.0,0.0,0.0,0.0,0.0,0.0,-0.0,manual,85.0,0.0,0.0,0.0,0.0,0.0,0.0,0,0
1761250975.2251382,2.498002767562866,0.0,0.0,-0.0,0.0,0.0,-0.0,0.0,0.0,0.0,0.0,0.0,0.0,0.0,0.0,0.0,-0.0,manual,85.0,0.0,0.0,0.0,0.0,0.0,0.0,0,0
1761250975.3294454,2.6023099422454834,0.0,0.0,-0.0,0.0,0.0,-0.0,0.0,0.0,0.0,0.0,0.0,0.0,0.0,0.0,0.0,-0.0,manual,85.0,0.0,0.0,0.0,0.0,0.0,0.0,0,0
1761250975.434676,2.707540512084961,0.0,0.0,-0.0,0.0,0.0,-0.0,0.0,0.0,0.0,0.0,0.0,0.0,0.0,0.0,0.0,-0.0,manual,85.0,0.0,0.0,0.0,0.0,0.0,0.0,0,0
1761250975.5397766,2.812641143798828,0.0,0.0,-0.0,0.0,0.0,-0.0,0.0,0.0,0.0,0.0,0.0,0.0,0.0,0.0,0.0,-0.0,manual,85.0,0.0,0.0,0.0,0.0,0.0,0.0,0,0
1761250975.6441085,2.916973114013672,0.0,0.0,-0.0,0.0,0.0,-0.0,0.0,0.0,0.0,0.0,0.0,0.0,0.0,0.0,0.0,-0.0,manual,85.0,0.0,0.0,0.0,0.0,0.0,0.0,0,0
1761250975.7477162,3.020580768585205,0.0,0.0,-0.0,0.0,0.0,-0.0,0.0,0.0,0.0,0.0,0.0,0.0,0.0,0.0,0.0,-0.0,manual,85.0,0.0,0.0,0.0,0.0,0.0,0.0,0,0
1761250975.8519769,3.1248414516448975,0.0,0.0,-0.0,0.0,0.0,-0.0,0.0,0.0,0.0,0.0,0.0,0.0,0.0,0.0,0.0,-0.0,manual,85.0,0.0,0.0,0.0,0.0,0.0,0.0,0,0
1761250975.9574666,3.2303311824798584,0.0,0.0,-0.0,0.0,0.0,-0.0,0.0,0.0,0.0,0.0,0.0,0.0,0.0,0.0,0.0,-0.0,manual,85.0,0.0,0.0,0.0,0.0,0.0,0.0,0,0
1761250976.0646923,3.337556838989258,0.0,0.0,-0.0,0.0,0.0,-0.0,0.0,0.0,0.0,0.0,0.0,0.0,0.0,0.0,0.0,-0.0,manual,85.0,0.0,0.0,0.0,0.0,0.0,0.0,0,0
1761250976.1696153,3.4424798488616943,0.0,0.0,-0.0,0.0,0.0,-0.0,0.0,0.0,0.0,0.0,0.0,0.0,0.0,0.0,0.0,-0.0,manual,85.0,0.0,0.0,0.0,0.0,0.0,0.0,0,0
1761250976.2752535,3.5481181144714355,0.0,0.0,-0.0,0.0,0.0,-0.0,0.0,0.0,0.0,0.0,0.0,0.0,0.0,0.0,0.0,-0.0,manual,85.0,0.0,0.0,0.0,0.0,0.0,0.0,0,0
1761250976.376611,3.649475574493408,0.0,0.0,-0.0,0.0,0.0,-0.0,0.0,0.0,0.0,0.0,0.0,0.0,0.0,0.0,0.0,-0.0,manual,85.0,0.0,0.0,0.0,0.0,0.0,0.0,0,0
1761250976.4814918,3.7543563842773438,0.0,0.0,-0.0,0.0,0.0,-0.0,0.0,0.0,0.0,0.0,0.0,0.0,0.0,0.0,0.0,-0.0,manual,85.0,0.0,0.0,0.0,0.0,0.0,0.0,0,0
1761250976.5856943,3.8585588932037354,0.0,0.0,-0.0,0.0,0.0,-0.0,0.0,0.0,0.0,0.0,0.0,0.0,0.0,0.0,0.0,-0.0,manual,85.0,0.0,0.0,0.0,0.0,0.0,0.0,0,0
1761250976.6880481,3.9609127044677734,0.0,0.0,-0.0,0.0,0.0,-0.0,0.0,0.0,0.0,0.0,0.0,0.0,0.0,0.0,0.0,-0.0,manual,85.0,0.0,0.0,0.0,0.0,0.0,0.0,0,0
1761250976.796321,4.069185495376587,0.0,0.0,-0.0,0.0,0.0,-0.0,0.0,0.0,0.0,0.0,0.0,0.0,0.0,0.0,0.0,-0.0,manual,85.0,0.0,0.0,0.0,0.0,0.0,0.0,0,0
1761250976.8986928,4.171557426452637,0.0,0.0,-0.0,0.0,0.0,-0.0,0.0,0.0,0.0,0.0,0.0,0.0,0.0,0.0,0.0,-0.0,manual,85.0,0.0,0.0,0.0,0.0,0.0,0.0,0,0
1761250977.0025432,4.275407791137695,0.0,0.0,-0.0,0.0,0.0,-0.0,0.0,0.0,0.0,0.0,0.0,0.0,0.0,0.0,0.0,-0.0,manual,85.0,0.0,0.0,0.0,0.0,0.0,0.0,0,0
1761250977.1070263,4.3798909187316895,0.0,0.0,-0.0,0.0,0.0,-0.0,0.0,0.0,0.0,0.0,0.0,0.0,0.0,0.0,0.0,-0.0,manual,85.0,0.0,0.0,0.0,0.0,0.0,0.0,0,0
1761250977.209743,4.48260760307312,0.0,0.0,-0.0,0.0,0.0,-0.0,0.0,0.0,0.0,0.0,0.0,0.0,0.0,0.0,0.0,-0.0,manual,85.0,0.0,0.0,0.0,0.0,0.0,0.0,0,0
1761250977.314189,4.587053537368774,0.0,0.0,-0.0,0.0,0.0,-0.0,0.0,0.0,0.0,0.0,0.0,0.0,0.0,0.0,0.0,-0.0,manual,85.0,0.0,0.0,0.0,0.0,0.0,0.0,0,0
1761250977.417477,4.690341472625732,0.0,0.0,-0.0,0.0,0.0,-0.0,0.0,0.0,0.0,0.0,0.0,0.0,0.0,0.0,0.0,-0.0,manual,85.0,0.0,0.0,0.0,0.0,0.0,0.0,0,0
1761250977.5197735,4.792638063430786,0.0,0.0,-0.0,0.0,0.0,-0.0,0.0,0.0,0.0,0.0,0.0,0.0,0.0,0.0,0.0,-0.0,manual,85.0,0.0,0.0,0.0,0.0,0.0,0.0,0,0
1761250977.6295562,4.90242075920105,0.0,0.0,-0.0,0.0,0.0,-0.0,0.0,0.0,0.0,0.0,0.0,0.0,0.0,0.0,0.0,-0.0,manual,85.0,0.0,0.0,0.0,0.0,0.0,0.0,0,0
1761250977.7347853,5.007649898529053,0.0,0.0,-0.0,0.0,0.0,-0.0,0.0,0.0,0.0,0.0,0.0,0.0,0.0,0.0,0.0,-0.0,manual,85.0,0.0,0.0,0.0,0.0,0.0,0.0,0,0
1761250977.8415327,5.114397287368774,0.0,0.0,-0.0,0.0,0.0,-0.0,0.0,0.0,0.0,0.0,0.0,0.0,0.0,0.0,0.0,-0.0,manual,85.0,0.0,0.0,0.0,0.0,0.0,0.0,0,0
1761250977.9463334,5.219197988510132,0.0,0.0,-0.0,0.0,0.0,-0.0,0.0,0.0,0.0,0.0,0.0,0.0,0.0,0.0,0.0,-0.0,manual,85.0,0.0,0.0,0.0,0.0,0.0,0.0,0,0
1761250978.0494003,5.322264909744263,0.0,0.0,-0.0,0.0,0.0,-0.0,0.0,0.0,0.0,0.0,0.0,0.0,0.0,0.0,0.0,-0.0,manual,85.0,0.0,0.0,0.0,0.0,0.0,0.0,0,0
1761250978.1542854,5.427150011062622,0.0,0.0,-0.0,0.0,0.0,-0.0,0.0,0.0,0.0,0.0,0.0,0.0,0.0,0.0,0.0,-0.0,manual,85.0,0.0,0.0,0.0,0.0,0.0,0.0,0,0
1761250978.2551744,5.52803897857666,0.0,0.0,-0.0,0.0,0.0,-0.0,0.0,0.0,0.0,0.0,0.0,0.0,0.0,0.0,0.0,-0.0,manual,85.0,0.0,0.0,0.0,0.0,0.0,0.0,0,0
1761250978.3577604,5.630625009536743,0.0,0.0,-0.0,0.0,0.0,-0.0,0.0,0.0,0.0,0.0,0.0,0.0,0.0,0.0,0.0,-0.0,manual,85.0,0.0,0.0,0.0,0.0,0.0,0.0,0,0
1761250978.460081,5.732945680618286,0.0,0.0,-0.0,0.0,0.0,-0.0,0.0,0.0,0.0,0.0,0.0,0.0,0.0,0.0,0.0,-0.0,manual,85.0,0.0,0.0,0.0,0.0,0.0,0.0,0,0
1761250978.564371,5.837235689163208,0.0,0.0,-0.0,0.0,0.0,-0.0,0.0,0.0,0.0,0.0,0.0,0.0,0.0,0.0,0.0,-0.0,manual,85.0,0.0,0.0,0.0,0.0,0.0,0.0,0,0
1761250978.6690388,5.941903352737427,0.0,0.0,-0.0,0.0,0.0,-0.0,0.0,0.0,0.0,0.0,0.0,0.0,0.0,0.0,0.0,-0.0,manual,85.0,0.0,0.0,0.0,0.0,0.0,0.0,0,0
1761250978.7707229,6.0435874462127686,0.0,0.0,-0.0,0.0,0.0,-0.0,0.0,0.0,0.0,0.0,0.0,0.0,0.0,0.0,0.0,-0.0,manual,85.0,0.0,0.0,0.0,0.0,0.0,0.0,0,0
1761250978.8747785,6.147643089294434,0.0,0.0,-0.0,0.0,0.0,-0.0,0.0,0.0,0.0,0.0,0.0,0.0,0.0,0.0,0.0,-0.0,manual,85.0,0.0,0.0,0.0,0.0,0.0,0.0,0,0
1761250978.9774222,6.250286817550659,0.0,0.0,-0.0,0.0,0.0,-0.0,0.0,0.0,0.0,0.0,0.0,0.0,0.0,0.0,0.0,-0.0,manual,85.0,0.0,0.0,0.0,0.0,0.0,0.0,0,0
1761250979.0780585,6.35092306137085,0.0,0.0,-0.0,0.0,0.0,-0.0,0.0,0.0,0.0,0.0,0.0,0.0,0.0,0.0,0.0,-0.0,manual,85.0,0.0,0.0,0.0,0.0,0.0,0.0,0,0
1761250979.181929,6.454793691635132,0.0,0.0,-0.0,0.0,0.0,-0.0,0.0,0.0,0.0,0.0,0.0,0.0,0.0,0.0,0.0,-0.0,manual,85.0,0.0,0.0,0.0,0.0,0.0,0.0,0,0
1761250979.28661,6.559474468231201,0.0,0.0,-0.0,0.0,0.0,-0.0,0.0,0.0,0.0,0.0,0.0,0.0,0.0,0.0,0.0,-0.0,manual,85.0,0.0,0.0,0.0,0.0,0.0,0.0,0,0
1761250979.3932736,6.666138172149658,0.0,0.0,-0.0,0.0,0.0,-0.0,0.0,0.0,0.0,0.0,0.0,0.0,0.0,0.0,0.0,-0.0,manual,85.0,0.0,0.0,0.0,0.0,0.0,0.0,0,0
1761250979.4958494,6.76871395111084,0.0,0.0,-0.0,0.0,0.0,-0.0,0.0,0.0,0.0,0.0,0.0,0.0,0.0,0.0,0.0,-0.0,manual,85.0,0.0,0.0,0.0,0.0,0.0,0.0,0,0
1761250979.5977845,6.870649099349976,0.0,0.0,-0.0,0.0,0.0,-0.0,0.0,0.0,0.0,0.0,0.0,0.0,0.0,0.0,0.0,-0.0,manual,85.0,0.0,0.0,0.0,0.0,0.0,0.0,0,0
1761250979.7012963,6.97416090965271,0.0,0.0,-0.0,0.0,0.0,-0.0,0.0,0.0,0.0,0.0,0.0,0.0,0.0,0.0,0.0,-0.0,manual,85.0,0.0,0.0,0.0,0.0,0.0,0.0,0,0
1761250979.8105927,7.0834572315216064,0.0,0.0,-0.0,0.0,0.0,-0.0,0.0,0.0,0.0,0.0,0.0,0.0,0.0,0.0,0.0,-0.0,manual,85.0,0.0,0.0,0.0,0.0,0.0,0.0,0,0
1761250979.9145055,7.18737006187439,0.0,0.0,-0.0,0.0,0.0,-0.0,0.0,0.0,0.0,0.0,0.0,0.0,0.0,0.0,0.0,-0.0,manual,85.0,0.0,0.0,0.0,0.0,0.0,0.0,0,0
1761250980.017547,7.290411472320557,0.0,0.0,-0.0,0.0,0.0,-0.0,0.0,0.0,0.0,0.0,0.0,0.0,0.0,0.0,0.0,-0.0,manual,85.0,0.0,0.0,0.0,0.0,0.0,0.0,0,0
1761250980.121541,7.3944056034088135,0.0,0.0,-0.0,0.0,0.0,-0.0,0.0,0.0,0.0,0.0,0.0,0.0,0.0,0.0,0.0,-0.0,manual,85.0,0.0,0.0,0.0,0.0,0.0,0.0,0,0
1761250980.2255793,7.498443841934204,0.0,0.0,-0.0,0.0,0.0,-0.0,0.0,0.0,0.0,0.0,0.0,0.0,0.0,0.0,0.0,-0.0,manual,85.0,0.0,0.0,0.0,0.0,0.0,0.0,0,0
1761250980.3297048,7.602569341659546,0.0,0.0,-0.0,0.0,0.0,-0.0,0.0,0.0,0.0,0.0,0.0,0.0,0.0,0.0,0.0,-0.0,manual,85.0,0.0,0.0,0.0,0.0,0.0,0.0,0,0
1761250980.4317474,7.7046120166778564,0.0,0.0,-0.0,0.0,0.0,-0.0,0.0,0.0,0.0,0.0,0.0,0.0,0.0,0.0,0.0,-0.0,manual,85.0,0.0,0.0,0.0,0.0,0.0,0.0,0,0
1761250980.5374794,7.810343980789185,0.0,0.0,-0.0,0.0,0.0,-0.0,0.0,0.0,0.0,0.0,0.0,0.0,0.0,0.0,0.0,-0.0,manual,85.0,0.0,0.0,0.0,0.0,0.0,0.0,0,0
1761250980.6403887,7.913253307342529,0.0,0.0,-0.0,0.0,0.0,-0.0,0.0,0.0,0.0,0.0,0.0,0.0,0.0,0.0,0.0,-0.0,manual,85.0,0.0,0.0,0.0,0.0,0.0,0.0,0,0
1761250980.7452137,8.018078327178955,0.0,0.0,-0.0,0.0,0.0,-0.0,0.0,0.0,0.0,0.0,0.0,0.0,0.0,0.0,0.0,-0.0,manual,85.0,0.0,0.0,0.0,0.0,0.0,0.0,0,0
1761250980.8516655,8.12453007698059,0.0,0.0,-0.0,0.0,0.0,-0.0,0.0,0.0,0.0,0.0,0.0,0.0,0.0,0.0,0.0,-0.0,manual,85.0,0.0,0.0,0.0,0.0,0.0,0.0,0,0
1761250980.956171,8.22903561592102,0.0,0.0,-0.0,0.0,0.0,-0.0,0.0,0.0,0.0,0.0,0.0,0.0,0.0,0.0,0.0,-0.0,manual,85.0,0.0,0.0,0.0,0.0,0.0,0.0,0,0
1761250981.060104,8.332968473434448,0.0,0.0,-0.0,0.0,0.0,-0.0,0.0,0.0,0.0,0.0,0.0,0.0,0.0,0.0,0.0,-0.0,manual,85.0,0.0,0.0,0.0,0.0,0.0,0.0,0,0
1761250981.1652873,8.438151836395264,0.0,0.0,-0.0,0.0,0.0,-0.0,0.0,0.0,0.0,0.0,0.0,0.0,0.0,0.0,0.0,-0.0,manual,85.0,0.0,0.0,0.0,0.0,0.0,0.0,0,0
1761250981.2694504,8.542315006256104,0.0,0.0,-0.0,0.0,0.0,-0.0,0.0,0.0,0.0,0.0,0.0,0.0,0.0,0.0,0.0,-0.0,manual,85.0,0.0,0.0,0.0,0.0,0.0,0.0,0,0
1761250981.3719726,8.644837141036987,0.0,0.0,-0.0,0.0,0.0,-0.0,0.0,0.0,0.0,0.0,0.0,0.0,0.0,0.0,0.0,-0.0,manual,85.0,0.0,0.0,0.0,0.0,0.0,0.0,0,0
1761250981.4753468,8.74821138381958,0.0,0.0,-0.0,0.0,0.0,-0.0,0.0,0.0,0.0,0.0,0.0,0.0,0.0,0.0,0.0,-0.0,manual,85.0,0.0,0.0,0.0,0.0,0.0,0.0,0,0
1761250981.5787323,8.85159683227539,0.0,0.0,-0.0,0.0,0.0,-0.0,0.0,0.0,0.0,0.0,0.0,0.0,0.0,0.0,0.0,-0.0,manual,85.0,0.0,0.0,0.0,0.0,0.0,0.0,0,0
1761250981.6819437,8.954808235168457,0.0,0.0,-0.0,0.0,0.0,-0.0,0.0,0.0,0.0,0.0,0.0,0.0,0.0,0.0,0.0,-0.0,manual,85.0,0.0,0.0,0.0,0.0,0.0,0.0,0,0
1761250981.7859137,9.058778285980225,0.0,0.0,-0.0,0.0,0.0,-0.0,0.0,0.0,0.0,0.0,0.0,0.0,0.0,0.0,0.0,-0.0,manual,85.0,0.0,0.0,0.0,0.0,0.0,0.0,0,0
1761250981.8901753,9.163039922714233,0.0,0.0,-0.0,0.0,0.0,-0.0,0.0,0.0,0.0,0.0,0.0,0.0,0.0,0.0,0.0,-0.0,manual,85.0,0.0,0.0,0.0,0.0,0.0,0.0,0,0
1761250981.995311,9.268175601959229,0.0,0.0,-0.0,0.0,0.0,-0.0,0.0,0.0,0.0,0.0,0.0,0.0,0.0,0.0,0.0,-0.0,manual,85.0,0.0,0.0,0.0,0.0,0.0,0.0,0,0
1761250982.099399,9.372263669967651,0.0,0.0,-0.0,0.0,0.0,-0.0,0.0,0.0,0.0,0.0,0.0,0.0,0.0,0.0,0.0,-0.0,manual,85.0,0.0,0.0,0.0,0.0,0.0,0.0,0,0
1761250982.2016835,9.474548101425171,0.0,0.0,-0.0,0.0,0.0,-0.0,0.0,0.0,0.0,0.0,0.0,0.0,0.0,0.0,0.0,-0.0,manual,85.0,0.0,0.0,0.0,0.0,0.0,0.0,0,0
1761250982.3057122,9.578576803207397,0.0,0.0,-0.0,0.0,0.0,-0.0,0.0,0.0,0.0,0.0,0.0,0.0,0.0,0.0,0.0,-0.0,manual,85.0,0.0,0.0,0.0,0.0,0.0,0.0,0,0
1761250982.4091935,9.682058095932007,0.0,0.0,-0.0,0.0,0.0,-0.0,0.0,0.0,0.0,0.0,0.0,0.0,0.0,0.0,0.0,-0.0,manual,85.0,0.0,0.0,0.0,0.0,0.0,0.0,0,0
1761250982.5150988,9.787963390350342,0.0,0.0,-0.0,0.0,0.0,-0.0,0.0,0.0,0.0,0.0,0.0,0.0,0.0,0.0,0.0,-0.0,manual,85.0,0.0,0.0,0.0,0.0,0.0,0.0,0,0
1761250982.6187606,9.891625165939331,0.0,0.0,-0.0,0.0,0.0,-0.0,0.0,0.0,0.0,0.0,0.0,0.0,0.0,0.0,0.0,-0.0,manual,85.0,0.0,0.0,0.0,0.0,0.0,0.0,0,0
1761250982.7302644,10.003129005432129,0.0,0.0,-0.0,0.0,0.0,-0.0,0.0,0.0,0.0,0.0,0.0,0.0,0.0,0.0,0.0,-0.0,manual,85.0,0.0,0.0,0.0,0.0,0.0,0.0,0,0
1761250982.8346121,10.107476711273193,0.0,0.0,-0.0,0.0,0.0,-0.0,0.0,0.0,0.0,0.0,0.0,0.0,0.0,0.0,0.0,-0.0,manual,85.0,0.0,0.0,0.0,0.0,0.0,0.0,0,0
1761250982.938498,10.211362600326538,0.0,0.0,-0.0,0.0,0.0,-0.0,0.0,0.0,0.0,0.0,0.0,0.0,0.0,0.0,0.0,-0.0,manual,85.0,0.0,0.0,0.0,0.0,0.0,0.0,0,0
1761250983.044334,10.317198514938354,0.0,0.0,-0.0,0.0,0.0,-0.0,0.0,0.0,0.0,0.0,0.0,0.0,0.0,0.0,0.0,-0.0,manual,85.0,0.0,0.0,0.0,0.0,0.0,0.0,0,0
1761250983.1481998,10.421064376831055,0.0,0.0,-0.0,0.0,0.0,-0.0,0.0,0.0,0.0,0.0,0.0,0.0,0.0,0.0,0.0,-0.0,manual,85.0,0.0,0.0,0.0,0.0,0.0,0.0,0,0
1761250983.2519617,10.524826288223267,0.0,0.0,-0.0,0.0,0.0,-0.0,0.0,0.0,0.0,0.0,0.0,0.0,0.0,0.0,0.0,-0.0,manual,85.0,0.0,0.0,0.0,0.0,0.0,0.0,0,0
1761250983.3545885,10.627453088760376,0.0,0.0,-0.0,0.0,0.0,-0.0,0.0,0.0,0.0,0.0,0.0,0.0,0.0,0.0,0.0,-0.0,manual,85.0,0.0,0.0,0.0,0.0,0.0,0.0,0,0
1761250983.4566648,10.72952938079834,0.0,0.0,-0.0,0.0,0.0,-0.0,0.0,0.0,0.0,0.0,0.0,0.0,0.0,0.0,0.0,-0.0,manual,85.0,0.0,0.0,0.0,0.0,0.0,0.0,0,0
1761250983.5604923,10.833356857299805,0.0,0.0,-0.0,0.0,0.0,-0.0,0.0,0.0,0.0,0.0,0.0,0.0,0.0,0.0,0.0,-0.0,manual,85.0,0.0,0.0,0.0,0.0,0.0,0.0,0,0
1761250983.6647413,10.937605857849121,0.0,0.0,-0.0,0.0,0.0,-0.0,0.0,0.0,0.0,0.0,0.0,0.0,0.0,0.0,0.0,-0.0,manual,85.0,0.0,0.0,0.0,0.0,0.0,0.0,0,0
1761250983.7680378,11.040902376174927,0.0,0.0,-0.0,0.0,0.0,-0.0,0.0,0.0,0.0,0.0,0.0,0.0,0.0,0.0,0.0,-0.0,manual,85.0,0.0,0.0,0.0,0.0,0.0,0.0,0,0
1761250983.8745525,11.147417068481445,0.0,0.0,-0.0,0.0,0.0,-0.0,0.0,0.0,0.0,0.0,0.0,0.0,0.0,0.0,0.0,-0.0,manual,85.0,0.0,0.0,0.0,0.0,0.0,0.0,0,0
1761250983.9775314,11.250396013259888,0.0,0.0,-0.0,0.0,0.0,-0.0,0.0,0.0,0.0,0.0,0.0,0.0,0.0,0.0,0.0,-0.0,manual,85.0,0.0,0.0,0.0,0.0,0.0,0.0,0,0
1761250984.079987,11.352851629257202,0.0,0.0,-0.0,0.0,0.0,-0.0,0.0,0.0,0.0,0.0,0.0,0.0,0.0,0.0,0.0,-0.0,manual,85.0,0.0,0.0,0.0,0.0,0.0,0.0,0,0
1761250984.1848905,11.457755088806152,0.0,0.0,-0.0,0.0,0.0,-0.0,0.0,0.0,0.0,0.0,0.0,0.0,0.0,0.0,0.0,-0.0,manual,85.0,0.0,0.0,0.0,0.0,0.0,0.0,0,0
1761250984.289222,11.562086582183838,0.0,0.0,-0.0,0.0,0.0,-0.0,0.0,0.0,0.0,0.0,0.0,0.0,0.0,0.0,0.0,-0.0,manual,85.0,0.0,0.0,0.0,0.0,0.0,0.0,0,0
1761250984.3915296,11.66439414024353,0.0,0.0,-0.0,0.0,0.0,-0.0,0.0,0.0,0.0,0.0,0.0,0.0,0.0,0.0,0.0,-0.0,manual,85.0,0.0,0.0,0.0,0.0,0.0,0.0,0,0
1761250984.4949844,11.76784896850586,0.0,0.0,-0.0,0.0,0.0,-0.0,0.0,0.0,0.0,0.0,0.0,0.0,0.0,0.0,0.0,-0.0,manual,85.0,0.0,0.0,0.0,0.0,0.0,0.0,0,0
1761250984.5973687,11.870233297348022,0.0,0.0,-0.0,0.0,0.0,-0.0,0.0,0.0,0.0,0.0,0.0,0.0,0.0,0.0,0.0,-0.0,manual,85.0,0.0,0.0,0.0,0.0,0.0,0.0,0,0
1761250984.6991842,11.97204875946045,0.0,0.0,-0.0,0.0,0.0,-0.0,0.0,0.0,0.0,0.0,0.0,0.0,0.0,0.0,0.0,-0.0,manual,85.0,0.0,0.0,0.0,0.0,0.0,0.0,0,0
1761250984.802079,12.074943542480469,0.0,0.0,-0.0,0.0,0.0,-0.0,0.0,0.0,0.0,0.0,0.0,0.0,0.0,0.0,0.0,-0.0,manual,85.0,0.0,0.0,0.0,0.0,0.0,0.0,0,0
1761250984.9070096,12.179874181747437,0.0,0.0,-0.0,0.0,0.0,-0.0,0.0,0.0,0.0,0.0,0.0,0.0,0.0,0.0,0.0,-0.0,manual,85.0,0.0,0.0,0.0,0.0,0.0,0.0,0,0
1761250985.0098455,12.282710075378418,0.0,0.0,-0.0,0.0,0.0,-0.0,0.0,0.0,0.0,0.0,0.0,0.0,0.0,0.0,0.0,-0.0,manual,85.0,0.0,0.0,0.0,0.0,0.0,0.0,0,0
1761250985.1196136,12.392478227615356,0.0,0.0,-0.0,0.0,0.0,-0.0,0.0,0.0,0.0,0.0,0.0,0.0,0.0,0.0,0.0,-0.0,manual,85.0,0.0,0.0,0.0,0.0,0.0,0.0,0,0
1761250985.223127,12.495991468429565,0.0,0.0,-0.0,0.0,0.0,-0.0,0.0,0.0,0.0,0.0,0.0,0.0,0.0,0.0,0.0,-0.0,manual,85.0,0.0,0.0,0.0,0.0,0.0,0.0,0,0
1761250985.3306818,12.603546380996704,0.0,0.0,-0.0,0.0,0.0,-0.0,0.0,0.0,0.0,0.0,0.0,0.0,0.0,0.0,0.0,-0.0,manual,85.0,0.0,0.0,0.0,0.0,0.0,0.0,0,0
1761250985.4352703,12.708134889602661,0.0,0.0,-0.0,0.0,0.0,-0.0,0.0,0.0,0.0,0.0,0.0,0.0,0.0,0.0,0.0,-0.0,manual,85.0,0.0,0.0,0.0,0.0,0.0,0.0,0,0
1761250985.5369203,12.809784889221191,0.0,0.0,-0.0,0.0,0.0,-0.0,0.0,0.0,0.0,0.0,0.0,0.0,0.0,0.0,0.0,-0.0,manual,85.0,0.0,0.0,0.0,0.0,0.0,0.0,0,0
1761250985.6384492,12.911313772201538,0.0,0.0,-0.0,0.0,0.0,-0.0,0.0,0.0,0.0,0.0,0.0,0.0,0.0,0.0,0.0,-0.0,manual,85.0,0.0,0.0,0.0,0.0,0.0,0.0,0,0
1761250985.744604,13.017468690872192,0.0,0.0,-0.0,0.0,0.0,-0.0,0.0,0.0,0.0,0.0,0.0,0.0,0.0,0.0,0.0,-0.0,manual,85.0,0.0,0.0,0.0,0.0,0.0,0.0,0,0
1761250985.8482227,13.121087312698364,0.0,0.0,-0.0,0.0,0.0,-0.0,0.0,0.0,0.0,0.0,0.0,0.0,0.0,0.0,0.0,-0.0,manual,85.0,0.0,0.0,0.0,0.0,0.0,0.0,0,0
1761250985.951172,13.224036693572998,0.0,0.0,-0.0,0.0,0.0,-0.0,0.0,0.0,0.0,0.0,0.0,0.0,0.0,0.0,0.0,-0.0,manual,85.0,0.0,0.0,0.0,0.0,0.0,0.0,0,0
1761250986.0549595,13.327824115753174,0.0,0.0,-0.0,0.0,0.0,-0.0,0.0,0.0,0.0,0.0,0.0,0.0,0.0,0.0,0.0,-0.0,manual,85.0,0.0,0.0,0.0,0.0,0.0,0.0,0,0
1761250986.158273,13.431137561798096,0.0,0.0,-0.0,0.0,0.0,-0.0,0.0,0.0,0.0,0.0,0.0,0.0,0.0,0.0,0.0,-0.0,manual,85.0,0.0,0.0,0.0,0.0,0.0,0.0,0,0
1761250986.263043,13.535907506942749,0.0,0.0,-0.0,0.0,0.0,-0.0,0.0,0.0,0.0,0.0,0.0,0.0,0.0,0.0,0.0,-0.0,manual,85.0,0.0,0.0,0.0,0.0,0.0,0.0,0,0
1761250986.3666193,13.63948392868042,0.0,0.0,-0.0,0.0,0.0,-0.0,0.0,0.0,0.0,0.0,0.0,0.0,0.0,0.0,0.0,-0.0,manual,85.0,0.0,0.0,0.0,0.0,0.0,0.0,0,0
1761250986.4686828,13.741547346115112,0.0,0.0,-0.0,0.0,0.0,-0.0,0.0,0.0,0.0,0.0,0.0,0.0,0.0,0.0,0.0,-0.0,manual,85.0,0.0,0.0,0.0,0.0,0.0,0.0,0,0
1761250986.5719564,13.844820976257324,0.0,0.0,-0.0,0.0,0.0,-0.0,0.0,0.0,0.0,0.0,0.0,0.0,0.0,0.0,0.0,-0.0,manual,85.0,0.0,0.0,0.0,0.0,0.0,0.0,0,0
1761250986.6760328,13.948897361755371,0.0,0.0,-0.0,0.0,0.0,-0.0,0.0,0.0,0.0,0.0,0.0,0.0,0.0,0.0,0.0,-0.0,manual,85.0,0.0,0.0,0.0,0.0,0.0,0.0,0,0
1761250986.777808,14.05067253112793,0.0,0.0,-0.0,0.0,0.0,-0.0,0.0,0.0,0.0,0.0,0.0,0.0,0.0,0.0,0.0,-0.0,manual,85.0,0.0,0.0,0.0,0.0,0.0,0.0,0,0
1761250986.885889,14.158753633499146,0.0,0.0,-0.0,0.0,0.0,-0.0,0.0,0.0,0.0,0.0,0.0,0.0,0.0,0.0,0.0,-0.0,manual,85.0,0.0,0.0,0.0,0.0,0.0,0.0,0,0
1761250986.989794,14.262658596038818,0.0,0.0,-0.0,0.0,0.0,-0.0,0.0,0.0,0.0,0.0,0.0,0.0,0.0,0.0,0.0,-0.0,manual,85.0,0.0,0.0,0.0,0.0,0.0,0.0,0,0
1761250987.0958898,14.368754386901855,0.0,0.0,-0.0,0.0,0.0,-0.0,0.0,0.0,0.0,0.0,0.0,0.0,0.0,0.0,0.0,-0.0,manual,85.0,0.0,0.0,0.0,0.0,0.0,0.0,0,0
1761250987.1983469,14.471211433410645,0.0,0.0,-0.0,0.0,0.0,-0.0,0.0,0.0,0.0,0.0,0.0,0.0,0.0,0.0,0.0,-0.0,manual,85.0,0.0,0.0,0.0,0.0,0.0,0.0,0,0
1761250987.306657,14.579521656036377,0.0,0.0,-0.0,0.0,0.0,-0.0,0.0,0.0,0.0,0.0,0.0,0.0,0.0,0.0,0.0,-0.0,manual,85.0,0.0,0.0,0.0,0.0,0.0,0.0,0,0
1761250987.4106421,14.683506727218628,0.0,0.0,-0.0,0.0,0.0,-0.0,0.0,0.0,0.0,0.0,0.0,0.0,0.0,0.0,0.0,-0.0,manual,85.0,0.0,0.0,0.0,0.0,0.0,0.0,0,0
1761250987.5159912,14.788855791091919,0.0,0.0,-0.0,0.0,0.0,-0.0,0.0,0.0,0.0,0.0,0.0,0.0,0.0,0.0,0.0,-0.0,manual,85.0,0.0,0.0,0.0,0.0,0.0,0.0,0,0
1761250987.6196194,14.892483949661255,0.0,0.0,-0.0,0.0,0.0,-0.0,0.0,0.0,0.0,0.0,0.0,0.0,0.0,0.0,0.0,-0.0,manual,85.0,0.0,0.0,0.0,0.0,0.0,0.0,0,0
1761250987.7241318,14.996996402740479,0.0,0.0,-0.0,0.0,0.0,-0.0,0.0,0.0,0.0,0.0,0.0,0.0,0.0,0.0,0.0,-0.0,manual,85.0,0.0,0.0,0.0,0.0,0.0,0.0,0,0
1761250987.8293006,15.102165222167969,0.0,0.0,-0.0,0.0,0.0,-0.0,0.0,0.0,0.0,0.0,0.0,0.0,0.0,0.0,0.0,-0.0,manual,85.0,0.0,0.0,0.0,0.0,0.0,0.0,0,0
1761250987.9339778,15.206842422485352,0.0,0.0,-0.0,0.0,0.0,-0.0,0.0,0.0,0.0,0.0,0.0,0.0,0.0,0.0,0.0,-0.0,manual,85.0,0.0,0.0,0.0,0.0,0.0,0.0,0,0
1761250988.0395446,15.312409162521362,0.0,0.0,-0.0,0.0,0.0,-0.0,0.0,0.0,0.0,0.0,0.0,0.0,0.0,0.0,0.0,-0.0,manual,85.0,0.0,0.0,0.0,0.0,0.0,0.0,0,0
1761250988.1426635,15.415528059005737,0.0,0.0,-0.0,0.0,0.0,-0.0,0.0,0.0,0.0,0.0,0.0,0.0,0.0,0.0,0.0,-0.0,manual,85.0,0.0,0.0,0.0,0.0,0.0,0.0,0,0
1761250988.2506132,15.523477792739868,0.0,0.0,-0.0,0.0,0.0,-0.0,0.0,0.0,0.0,0.0,0.0,0.0,0.0,0.0,0.0,-0.0,manual,85.0,0.0,0.0,0.0,0.0,0.0,0.0,0,0
1761250988.3565278,15.629392385482788,0.0,0.0,-0.0,0.0,0.0,-0.0,0.0,0.0,0.0,0.0,0.0,0.0,0.0,0.0,0.0,-0.0,manual,85.0,0.0,0.0,0.0,0.0,0.0,0.0,0,0
1761250988.4593573,15.732221841812134,0.0,0.0,-0.0,0.0,0.0,-0.0,0.0,0.0,0.0,0.0,0.0,0.0,0.0,0.0,0.0,-0.0,manual,85.0,0.0,0.0,0.0,0.0,0.0,0.0,0,0
1761250988.5621803,15.835044860839844,0.0,0.0,-0.0,0.0,0.0,-0.0,0.0,0.0,0.0,0.0,0.0,0.0,0.0,0.0,0.0,-0.0,manual,85.0,0.0,0.0,0.0,0.0,0.0,0.0,0,0
1761250988.6659234,15.938787937164307,0.0,0.0,-0.0,0.0,0.0,-0.0,0.0,0.0,0.0,0.0,0.0,0.0,0.0,0.0,0.0,-0.0,manual,85.0,0.0,0.0,0.0,0.0,0.0,0.0,0,0
1761250988.7681892,16.041053771972656,0.0,0.0,-0.0,0.0,0.0,-0.0,0.0,0.0,0.0,0.0,0.0,0.0,0.0,0.0,0.0,-0.0,manual,85.0,0.0,0.0,0.0,0.0,0.0,0.0,0,0
1761250988.8710907,16.14395523071289,0.0,0.0,-0.0,0.0,0.0,-0.0,0.0,0.0,0.0,0.0,0.0,0.0,0.0,0.0,0.0,-0.0,manual,85.0,0.0,0.0,0.0,0.0,0.0,0.0,0,0
1761250988.9760122,16.248876810073853,0.0,0.0,-0.0,0.0,0.0,-0.0,0.0,0.0,0.0,0.0,0.0,0.0,0.0,0.0,0.0,-0.0,manual,85.0,0.0,0.0,0.0,0.0,0.0,0.0,0,0
1761250989.082975,16.355839490890503,0.0,0.0,-0.0,0.0,0.0,-0.0,0.0,0.0,0.0,0.0,0.0,0.0,0.0,0.0,0.0,-0.0,manual,85.0,0.0,0.0,0.0,0.0,0.0,0.0,0,0
1761250989.187355,16.460219621658325,0.0,0.0,-0.0,0.0,0.0,-0.0,0.0,0.0,0.0,0.0,0.0,0.0,0.0,0.0,0.0,-0.0,manual,85.0,0.0,0.0,0.0,0.0,0.0,0.0,0,0
1761250989.2931466,16.56601119041443,0.0,0.0,-0.0,0.0,0.0,-0.0,0.0,0.0,0.0,0.0,0.0,0.0,0.0,0.0,0.0,-0.0,manual,85.0,0.0,0.0,0.0,0.0,0.0,0.0,0,0
1761250989.3971891,16.670053720474243,0.0,0.0,-0.0,0.0,0.0,-0.0,0.0,0.0,0.0,0.0,0.0,0.0,0.0,0.0,0.0,-0.0,manual,85.0,0.0,0.0,0.0,0.0,0.0,0.0,0,0
1761250989.5012903,16.774154901504517,0.0,0.0,-0.0,0.0,0.0,-0.0,0.0,0.0,0.0,0.0,0.0,0.0,0.0,0.0,0.0,-0.0,manual,85.0,0.0,0.0,0.0,0.0,0.0,0.0,0,0
1761250989.6057308,16.87859535217285,0.0,0.0,-0.0,0.0,0.0,-0.0,0.0,0.0,0.0,0.0,0.0,0.0,0.0,0.0,0.0,-0.0,manual,85.0,0.0,0.0,0.0,0.0,0.0,0.0,0,0
1761250989.7091315,16.981996059417725,0.0,0.0,-0.0,0.0,0.0,-0.0,0.0,0.0,0.0,0.0,0.0,0.0,0.0,0.0,0.0,-0.0,manual,85.0,0.0,0.0,0.0,0.0,0.0,0.0,0,0
1761250989.816682,17.08954668045044,0.0,0.0,-0.0,0.0,0.0,-0.0,0.0,0.0,0.0,0.0,0.0,0.0,0.0,0.0,0.0,-0.0,manual,85.0,0.0,0.0,0.0,0.0,0.0,0.0,0,0
1761250989.9215941,17.194458723068237,0.0,0.0,-0.0,0.0,0.0,-0.0,0.0,0.0,0.0,0.0,0.0,0.0,0.0,0.0,0.0,-0.0,manual,85.0,0.0,0.0,0.0,0.0,0.0,0.0,0,0
1761250990.027211,17.30007553100586,0.0,0.0,-0.0,0.0,0.0,-0.0,0.0,0.0,0.0,0.0,0.0,0.0,0.0,0.0,0.0,-0.0,manual,85.0,0.0,0.0,0.0,0.0,0.0,0.0,0,0
1761250990.132012,17.404876470565796,0.0,0.0,-0.0,0.0,0.0,-0.0,0.0,0.0,0.0,0.0,0.0,0.0,0.0,0.0,0.0,-0.0,manual,85.0,0.0,0.0,0.0,0.0,0.0,0.0,0,0
1761250990.2369487,17.50981330871582,0.0,0.0,-0.0,0.0,0.0,-0.0,0.0,0.0,0.0,0.0,0.0,0.0,0.0,0.0,0.0,-0.0,manual,85.0,0.0,0.0,0.0,0.0,0.0,0.0,0,0
1761250990.3442926,17.617157220840454,0.0,0.0,-0.0,0.0,0.0,-0.0,0.0,0.0,0.0,0.0,0.0,0.0,0.0,0.0,0.0,-0.0,manual,85.0,0.0,0.0,0.0,0.0,0.0,0.0,0,0
1761250990.448115,17.720979690551758,0.0,0.0,-0.0,0.0,0.0,-0.0,0.0,0.0,0.0,0.0,0.0,0.0,0.0,0.0,0.0,-0.0,manual,85.0,0.0,0.0,0.0,0.0,0.0,0.0,0,0
1761250990.5487478,17.82161235809326,0.0,0.0,-0.0,0.0,0.0,-0.0,0.0,0.0,0.0,0.0,0.0,0.0,0.0,0.0,0.0,-0.0,manual,85.0,0.0,0.0,0.0,0.0,0.0,0.0,0,0
1761250990.6507628,17.923627376556396,0.0,0.0,-0.0,0.0,0.0,-0.0,0.0,0.0,0.0,0.0,0.0,0.0,0.0,0.0,0.0,-0.0,manual,85.0,0.0,0.0,0.0,0.0,0.0,0.0,0,0
1761250990.754907,18.027771472930908,0.0,0.0,-0.0,0.0,0.0,-0.0,0.0,0.0,0.0,0.0,0.0,0.0,0.0,0.0,0.0,-0.0,manual,85.0,0.0,0.0,0.0,0.0,0.0,0.0,0,0
1761250990.8632424,18.136106967926025,0.0,0.0,-0.0,0.0,0.0,-0.0,0.0,0.0,0.0,0.0,0.0,0.0,0.0,0.0,0.0,-0.0,manual,85.0,0.0,0.0,0.0,0.0,0.0,0.0,0,0
1761250990.9672785,18.240143060684204,0.0,0.0,-0.0,0.0,0.0,-0.0,0.0,0.0,0.0,0.0,0.0,0.0,0.0,0.0,0.0,-0.0,manual,85.0,0.0,0.0,0.0,0.0,0.0,0.0,0,0
1761250991.0721414,18.345005989074707,0.0,0.0,-0.0,0.0,0.0,-0.0,0.0,0.0,0.0,0.0,0.0,0.0,0.0,0.0,0.0,-0.0,manual,85.0,0.0,0.0,0.0,0.0,0.0,0.0,0,0
1761250991.17663,18.44949460029602,0.0,0.0,-0.0,0.0,0.0,-0.0,0.0,0.0,0.0,0.0,0.0,0.0,0.0,0.0,0.0,-0.0,manual,85.0,0.0,0.0,0.0,0.0,0.0,0.0,0,0
1761250991.2774673,18.550331830978394,0.0,0.0,-0.0,0.0,0.0,-0.0,0.0,0.0,0.0,0.0,0.0,0.0,0.0,0.0,0.0,-0.0,manual,85.0,0.0,0.0,0.0,0.0,0.0,0.0,0,0
1761250991.3817155,18.654580116271973,0.0,0.0,-0.0,0.0,0.0,-0.0,0.0,0.0,0.0,0.0,0.0,0.0,0.0,0.0,0.0,-0.0,manual,85.0,0.0,0.0,0.0,0.0,0.0,0.0,0,0
1761250991.4860573,18.75892186164856,0.0,0.0,-0.0,0.0,0.0,-0.0,0.0,0.0,0.0,0.0,0.0,0.0,0.0,0.0,0.0,-0.0,manual,85.0,0.0,0.0,0.0,0.0,0.0,0.0,0,0
1761250991.5896554,18.86251997947693,0.0,0.0,-0.0,0.0,0.0,-0.0,0.0,0.0,0.0,0.0,0.0,0.0,0.0,0.0,0.0,-0.0,manual,85.0,0.0,0.0,0.0,0.0,0.0,0.0,0,0
1761250991.6946392,18.967503786087036,0.0,0.0,0.04140656178822709,0.0,0.0,1.116017586514559,0.0,0.0,0.0,1.0,0.0,0.0,0.0,0.0,0.0,0.04140656178822709,auto,85.0,15,5.0,10.0,0.0,11.180416562157205,0.0,0,0
1761250991.8000805,19.07294511795044,0.0,0.0,0.23657637125251785,0.0,0.0,2.3303866044350103,0.0,0.0,0.0,0.35,0.0,0.0,0.0,0.0,0.0,0.23657637125251785,auto,85.0,15,5.0,10.0,0.0,11.182842589406103,0.0,0,0
1761250991.90619,19.179054498672485,0.0,0.0,0.5160188678498865,0.0,0.0,2.934595548132242,0.0,0.0,0.0,1.0,0.0,0.0,0.0,0.0,0.0,0.5160188678498865,auto,85.0,15,5.0,10.0,0.0,11.192241753642435,0.0,0,0
1761250992.0079403,19.280804872512817,0.0,0.0,0.8287815396654605,0.0,0.0,3.20152868597154,0.0,0.0,0.0,0.47297167874952195,0.0,0.0,0.0,0.0,0.0,0.8287815396654605,auto,85.0,15,5.0,10.0,0.0,11.211015959336168,0.0,0,0
1761250992.1120756,19.384940147399902,0.0,0.0,1.1859775615105654,0.0,0.0,3.6623794327333408,0.0,0.0,0.0,1.0,0.0,0.0,0.0,0.0,0.0,1.1859775615105654,auto,85.0,15,5.0,10.0,0.0,11.243066431201346,0.0,0,0
1761250992.21831,19.491174697875977,0.003180347497557444,0.0032134930299997583,1.5781657323378993,0.11739097211152674,0.11935399941907443,3.8771075666364294,0.20747541921315235,-0.20740178972042933,0.0038025388699519554,0.7890790374934932,0.3,-0.3,-0.014224865703212488,0.003180347497557444,0.0032134930299997583,1.5781657323378993,auto,85.0,15,5.0,10.0,0.0,11.286919605645187,0.2933871354691068,0,0
1761250992.3206716,19.593536138534546,0.03484249581485162,0.03631782808166773,1.988376743524007,0.548163022674019,0.5841803516597799,4.067640025761932,0.4282732185244237,-0.4282104447421944,0.00693284961860051,0.35,-0.09534925465964028,0.09505261573371004,-0.021247463075860416,0.03484249581485162,0.03631782808166773,1.988376743524007,auto,85.0,15,5.0,10.0,0.0,11.308465569587964,0.6056650882256718,0,0
1761250992.4228132,19.695677757263184,0.11823936753054536,0.1263565917654479,2.414011082004618,1.039306190430701,1.1237710645942138,4.248247418296144,0.2792103508194739,-0.279236774770759,0.007004997982550534,0.4885026337092487,-0.3,0.3,-0.015214507603947451,0.11823936753054536,0.1263565917654479,2.414011082004618,auto,85.0,15,5.0,10.0,0.0,11.27598645484036,0.394943877514065,0,0
1761250992.5272954,19.80015993118286,0.23903338585111944,0.2596998324834424,2.867735738459476,1.212616489828264,1.4308720677759628,4.406203974481934,0.29703371584882415,-0.021645537580722917,0.00760246695176068,0.35,-0.3,0.3,-0.014966974320911677,0.23903338585111944,0.2596998324834424,2.867735738459476,auto,85.0,15,5.0,10.0,0.0,11.214462034355508,0.29791836994698917,0,0
1761250992.6327085,19.90557312965393,0.3613845420753129,0.42554185408313006,3.3405471060968637,1.0732604064611881,1.6991569322165545,4.55273548873347,0.2552381043835614,0.1040580538473013,0.009577206852121083,0.35,-0.3,-0.3,-0.023180204732692392,0.3613845420753129,0.42554185408313006,3.3405471060968637,auto,85.0,15,5.0,10.0,0.0,11.151065290924624,0.275801180909165,0,0
1761250992.7378678,20.010732412338257,0.471797167309768,0.6153996357888794,3.8252486083989607,1.073653798611402,1.8596700696019561,4.6641807005100455,0.027857823414152678,-0.09563872705863471,0.0030687715604837107,0.35,-0.3,0.3,0.006034475766231056,0.471797167309768,0.6153996357888794,3.8252486083989607,auto,85.0,15,5.0,10.0,0.0,11.099904134991146,0.09966063313897106,0,0
1761250992.842328,20.115192651748657,0.5845444776814677,0.809080434266701,4.3186565628617535,1.0577386080648874,1.8788251198568617,4.755459676002942,0.12573024965880977,-0.008266089733525519,0.0018988706374451546,0.35,-0.2457302949074976,-0.3,0.0004104975557393106,0.5845444776814677,0.809080434266701,4.3186565628617535,auto,85.0,15,5.0,10.0,0.0,11.073393537723714,0.12601598957452614,0,0
1761250992.947278,20.220142602920532,0.6958236448723225,1.0087509368200966,4.823744365046799,1.0419272977912444,1.9077965166825364,4.849098855490345,0.08054447523498606,0.0347449539575575,0.0017257729853713457,0.35,0.05171673438676146,-0.3,-0.0024251302568764014,0.6958236448723225,1.0087509368200966,4.823744365046799,auto,85.0,15,5.0,10.0,0.0,11.074159268833657,0.08773598240624603,0,0
1761250993.049792,20.322656631469727,0.8023364013110027,1.2066660319275127,5.32440056685205,1.0383203367948213,1.9300725064651767,4.956507098182838,0.005480534543282387,0.025855611138763484,0.002864524529631438,0.35,-0.3,0.3,-0.008726680838466658,0.8023364013110027,1.2066660319275127,5.32440056685205,auto,85.0,15,5.0,10.0,0.0,11.103708540758378,0.026584852586010742,0,0
1761250993.1548166,20.42768120765686,0.9075528314215441,1.4060935923083888,5.843763760573075,0.9892641193881195,1.8911396397561857,4.962741418045182,0.09498720571449618,-0.053357600753483836,0.008694299107007437,0.35,-0.06887177878581481,0.2599971018275302,-0.029407608336803816,0.9075528314215441,1.4060935923083888,5.843763760573075,auto,85.0,15,5.0,10.0,0.0,11.169284939563317,0.10929406957643359,0,0
1761250993.2582948,20.53115940093994,1.0094329232934927,1.6038046777345396,6.359775035209673,0.9759275500756659,1.9048308642252052,5.067712701904451,0.018470898407938984,-0.03768194662700903,0.012685827591302797,0.9304046432087609,0.20997875264604593,0.15413264086265027,-0.03507844081377409,1.0094329232934927,1.6038046777345396,6.359775035209673,auto,85.0,15,5.0,10.0,0.0,11.26354562212994,0.043841001485748696,0,0
1761250993.3652108,20.638075351715088,1.112678841126865,1.8080791929371898,6.898564761631377,0.9430234750219149,1.9002226085543052,5.029761170081054,-0.03401773713186857,-0.015958854934002807,0.01183227753957985,0.37106444118661225,0.27379141607315494,-0.15089366477588323,-0.02480986294147734,1.112678841126865,1.8080791929371898,6.898564761631377,auto,85.0,15,5.0,10.0,0.0,11.393376500047454,0.03939408943167872,0,0
1761250993.4688797,20.74174427986145,1.2103342314457115,2.003926714685676,7.425125388634312,0.9226732131359492,1.890963134658654,5.077234879012448,-0.003545670551128761,0.010877784591946132,0.0038342582138185593,0.35,-0.15167390894449817,-0.3,0.005456493298732559,1.2103342314457115,2.003926714685676,7.425125388634312,auto,85.0,15,5.0,10.0,0.0,11.551244160626656,0.012066462337245227,0,0
1761250993.5749993,20.847863912582397,1.3081106682806027,2.2025832477506824,7.966358940765069,0.9055893939039565,1.8674456472858547,5.0965723428043646,0.007376963359706966,0.01778787975381397,-0.0020983043171294152,0.37916773862466013,-0.3,-0.1930145113441259,0.01651519889740259,1.3081106682806027,2.2025832477506824,7.966358940765069,auto,85.0,15,5.0,10.0,0.0,11.742769248308909,0.01937088370606483,0,0
1761250993.6809652,20.953829765319824,1.4036992132342658,2.397400667446295,8.510353765493539,0.884998407556082,1.8289971049336544,5.142727073175256,0.03442721219316684,0.03542056813272984,-0.00659555548471672,0.35,-0.3,-0.3,0.023064542861804434,1.4036992132342658,2.397400667446295,8.510353765493539,auto,85.0,15,5.0,10.0,0.0,11.964907737800903,0.049833231265799624,0,0
1761250993.7900455,21.062910079956055,1.4996848845324753,2.5924035265169434,9.069565650657468,0.8837436574183464,1.7533479900425322,5.138574405798455,-0.008025997028594602,0.04027203078032816,-0.008883272285590797,0.35,0.3,0.06977552076088878,0.021404243816190632,1.4996848845324753,2.5924035265169434,9.069565650657468,auto,85.0,15,5.0,10.0,0.0,12.222181168396862,0.04201387411290053,0,0
1761250993.8931189,21.16598343849182,1.5887010480979853,2.773806247371494,9.605305143051517,0.8585730204725649,1.73511406219718,5.180710131215137,-0.03433950750084599,-0.0041937685468728045,-0.011017911739028285,0.35,0.3,0.3,0.026387790276729578,1.5887010480979853,2.773806247371494,9.605305143051517,auto,85.0,15,5.0,10.0,0.0,12.49466780594454,0.036306801692168024,0,0
1761250993.998085,21.270949602127075,1.6770520111653127,2.954301364384619,10.148355267214889,0.83557188721012,1.7009239919509955,5.178236685216283,-0.03817714933256559,0.004399171425263388,-0.010668546603790824,0.35,0.3,0.24424884097925645,0.020895019117188714,1.6770520111653127,2.954301364384619,10.148355267214889,auto,85.0,15,5.0,10.0,0.0,12.793473618608086,0.03988314590183582,0,0
1761250994.1021488,21.37501335144043,1.7622653322711619,3.1297831027897547,10.68785385689702,0.8173508066368722,1.6791084424302085,5.166164396075928,-0.026284042916191897,-0.009851393915356617,-0.006971025939267961,0.3595333466737909,-0.10037410571170682,0.3,0.00773536949827517,1.7622653322711619,3.1297831027897547,10.68785385689702,auto,85.0,15,5.0,10.0,0.0,13.111560778935315,0.028922241903795935,0,0
1761250994.2052038,21.478068351745605,1.8446866590001816,3.299886881135179,11.219549894994103,0.7952047249061518,1.6400344006073109,5.099151510814149,0.003202095810813027,-0.02178475521246781,0.0011644831891171267,0.35,-0.25028141600695186,0.3,-0.01816013722528781,1.8446866590001816,3.299886881135179,11.219549894994103,auto,85.0,15,5.0,10.0,0.0,13.443430288871145,0.022049603133537488,0,0
1761250994.3085468,21.581411361694336,1.9251398720809696,3.467060072442536,11.736887769895285,0.7704267078255609,1.6062126918165514,4.938072125878295,0.014084907751582987,-0.039730810346106475,0.00740403809172554,0.35,-0.3,0.3,-0.02946120761271425,1.9251398720809696,3.467060072442536,11.736887769895285,auto,85.0,15,5.0,10.0,0.0,13.780007381219296,0.04279885158731022,0,0
1761250994.412411,21.685275554656982,2.004085313704273,3.6314874258769083,12.24116129026293,0.7471479853083729,1.5687786791243947,4.766957893840492,0.021276254978999393,-0.03389506462440017,0.010680836086921637,0.35,-0.2167785716749731,0.08707946203094945,-0.03103703914363446,2.004085313704273,3.6314874258769083,12.24116129026293,auto,85.0,15,5.0,10.0,0.0,14.120180131590317,0.04142022080263875,0,0
1761250994.5162983,21.7891628742218,2.081165408334912,3.7923829053274205,12.728973030039517,0.7255424148528417,1.5340542790092504,4.609572065276713,0.014854036896696763,-0.015710352919684388,0.009446338046052197,0.35,-0.1351225315986717,-0.1684144762268814,-0.019457692686463985,2.081165408334912,3.7923829053274205,12.728973030039517,auto,85.0,15,5.0,10.0,0.0,14.459628617881075,0.023594298113522212,0,0
1761250994.6238773,21.89674186706543,2.1602544045337124,3.955444108151717,13.221098019888952,0.7209205511908106,1.4833578394615303,4.538492113990512,-0.008417375749689421,0.05515677779201697,0.011221254777929401,0.35,0.3,-0.3,-0.02577120859166695,2.1602544045337124,3.955444108151717,13.221098019888952,auto,85.0,15,5.0,10.0,0.0,14.812097887475614,0.056912554939139735,0,0
1761250994.7272215,22.000086069107056,2.233844407369154,4.107915416843607,13.683609440720737,0.7096496081854081,1.4554952129727408,4.4086211255056655,-0.021247065132401773,0.03341985890551814,0.012225725597302832,0.35,0.3,-0.0438980077992622,-0.028120272812552576,2.233844407369154,4.107915416843607,13.683609440720737,auto,85.0,15,5.0,10.0,0.0,15.15286919444281,0.04144626777389985,0,0
1761250994.8375452,22.1104097366333,2.310868022224622,4.267328723765935,14.162534290714243,0.7070625291554289,1.4225348664323327,4.291309950515411,-0.07117268054500643,-0.014260121019439902,0.010007203498277236,0.35,0.004565530346753877,0.3,-0.016645063748915848,2.310868022224622,4.267328723765935,14.162534290714243,auto,85.0,15,5.0,10.0,0.0,15.513617511428789,0.07327377176934827,0,0
1761250994.9421184,22.214982986450195,2.3825268832972037,4.4126424512640074,14.60810321794421,0.6733076256949351,1.3875935122849181,4.2208643280490135,0.045351342999431714,-0.040160522323903464,0.011509464100923766,0.35,-0.3,0.27824339832762524,-0.02663188122788447,2.3825268832972037,4.4126424512640074,14.60810321794421,auto,85.0,15,5.0,10.0,0.0,15.857692439954526,0.061661005741646034,0,0
1761250995.0467074,22.31957197189331,2.4522060292091257,4.555797737860004,15.0447927376382,0.6469163431479328,1.342105228138662,4.1229699714171675,0.015601965960693073,-0.009861399221239454,0.01709407567153175,0.35,0.04750158512584869,-0.13340234356893857,-0.045335466081500166,2.4522060292091257,4.555797737860004,15.0447927376382,auto,85.0,15,5.0,10.0,0.0,16.201122828593693,0.025157026046481352,0,0
1761250995.1498897,22.422754287719727,2.5189927680838635,4.693575718070885,15.464824258174847,0.6297460735162721,1.3130110931989714,4.03018071539785,-0.018062039162431907,0.03602422297662593,0.02202552301652848,0.35,0.3,-0.3,-0.055719274593582335,2.5189927680838635,4.693575718070885,15.464824258174847,auto,85.0,15,5.0,10.0,0.0,16.53705913640331,0.04592499933507363,0,0
1761250995.258819,22.531683683395386,2.5873698597292174,4.8358351933511265,15.898080740386332,0.6177410619986304,1.2869091375160109,3.924668804927945,-0.06656063984809081,0.06634800604940913,0.02546832263907558,0.35,-0.060191789929134196,-0.1836872541624099,-0.06063870202664295,2.5873698597292174,4.8358351933511265,15.898080740386332,auto,85.0,15,5.0,10.0,0.0,16.88900096429083,0.09737048907018869,0,0
1761250995.3624756,22.635340213775635,2.6493195189970593,4.9654968650959725,16.303871925431242,0.599675208302853,1.2463053688139318,3.8922209439053095,0.04609064561755005,-0.006758913711984015,0.029027558651045587,0.35,-0.3,0.2848688040871311,-0.06718268241349724,2.6493195189970593,4.9654968650959725,16.303871925431242,auto,85.0,15,5.0,10.0,0.0,17.224638176170544,0.054887427424215485,0,0
1761250995.466816,22.739680528640747,2.710513065053695,5.093852716406053,16.70447641160651,0.5839587210702131,1.207213840335543,3.7933693002894477,0.02198415332613057,-0.011725560293128766,0.027516198334285386,0.35,0.12849336403106376,0.3,-0.05707664040987776,2.710513065053695,5.093852716406053,16.70447641160651,auto,85.0,15,5.0,10.0,0.0,17.559942020961355,0.037120519021510805,0,0
1761250995.5704415,22.843306064605713,2.7696342102180327,5.218425966844484,17.092043807363375,0.5688834490984944,1.1803715648159518,3.694743744830295,-0.014684012505022468,-0.023476905715164777,0.01842776754505681,0.35,0.2685913134828772,0.3,-0.023084901608921765,2.7696342102180327,5.218425966844484,17.092043807363375,auto,85.0,15,5.0,10.0,0.0,17.88787140225481,0.03326210970309974,0,0
1761250995.6748724,22.947736978530884,2.827713229142796,5.340958499358555,17.47256123724982,0.5503059616028131,1.154270577689992,3.597130971371915,-0.0317704603301802,-0.024498757621417233,0.00771804156460011,0.35,0.259820984321296,0.3,0.004525083267430639,2.827713229142796,5.340958499358555,17.47256123724982,auto,85.0,15,5.0,10.0,0.0,18.213069310497488,0.04085485822001342,0,0
1761250995.7779512,23.05081582069397,2.8833943980769603,5.4591622486957885,17.837632865121254,0.5348592983309586,1.1325543708376768,3.4885981694405293,-0.0494436931389309,-0.03514078952490297,-0.00109756296436858,0.35,0.3,0.24422849115086936,0.020287046205773755,2.8833943980769603,5.4591622486957885,17.837632865121254,auto,85.0,15,5.0,10.0,0.0,18.527826990465325,0.06066925518012436,0,0
1761250995.881494,23.154358625411987,2.938117926792936,5.575175366218927,18.196078434619235,0.5159962807390285,1.1138994321924975,3.4166964715291135,-0.0429898200329942,-0.02489726827685604,-0.01030434754835141,0.35,0.0016542708456438668,0.04189399691665602,0.039252423544008125,2.938117926792936,5.575175366218927,18.196078434619235,auto,85.0,15,5.0,10.0,0.0,18.839524970718973,0.05073635947243542,0,0
1761250995.9859743,23.258838891983032,2.99192843906695,5.689429919150745,18.550312875613912,0.5003536471545056,1.0935520321699141,3.3684559611627445,0.0072446499359310815,0.0004190714696526397,-0.017532320552558486,0.35,-0.3,-0.17426390495354238,0.04961474613904431,2.99192843906695,5.689429919150745,18.550312875613912,auto,85.0,15,5.0,10.0,0.0,19.15012985853903,0.01897479479595307,0,0
1761250996.0867236,23.359588146209717,3.042514106354616,5.797033578172258,18.88405417255699,0.4885516546444344,1.037145826420041,3.2653763246587983,-0.041867189057323284,0.059402945441180424,-0.017956084265272006,0.35,0.3,-0.3,0.039810954659724056,3.042514106354616,5.797033578172258,18.88405417255699,auto,85.0,15,5.0,10.0,0.0,19.444901124945304,0.07485981838604111,0,0
1761250996.1910033,23.463867902755737,3.0927176563271703,5.904747099874308,19.221222546679446,0.4836210203776663,1.0260294784330606,3.178067404236065,-0.04335025698181245,0.031450205948022614,-0.00771123002978591,0.35,0.14487481540617825,0.03080696058319913,-0.0037736240852064076,3.0927176563271703,5.904747099874308,19.221222546679446,auto,85.0,15,5.0,10.0,0.0,19.744979575665614,0.05410936428322262,0,0
1761250996.2968402,23.56970477104187,3.142181011721374,6.010889766099304,19.550019260306907,0.4749567047946973,1.002721085388296,3.0861926109361475,-0.04168533770472009,0.00717338272396618,1.6928648940619812e-05,0.35,0.14868389536762688,0.25874079330876326,-0.01864840964029246,3.142181011721374,6.010889766099304,19.550019260306907,auto,85.0,15,5.0,10.0,0.0,20.039155294816968,0.042298050615131304,0,0
1761250996.399122,23.67198657989502,3.18971521862297,6.112861184580538,19.863565741368944,0.46076272116552325,0.9801103404236362,2.9911853789254907,-0.032576492419586336,-0.02387032180050692,0.0035538399041095533,0.35,-0.05412486542176259,0.3,-0.018332877095901406,3.18971521862297,6.112861184580538,19.863565741368944,auto,85.0,15,5.0,10.0,0.0,20.321127506162444,0.0405419523368962,0,0
1761250996.5028038,23.775668382644653,3.23636290570182,6.212821655828596,20.16922549620409,0.4463874775159765,0.9584339734762725,2.9095053880258623,-0.02758363786346685,-0.036012026313418585,0.0032415420064037257,0.35,-0.1456179069643766,0.3,-0.009168693206952593,3.23636290570182,6.212821655828596,20.16922549620409,auto,85.0,15,5.0,10.0,0.0,20.597349167494208,0.04547780460357024,0,0
1761250996.6054325,23.878297090530396,3.2815423068931753,6.309393883779685,20.463991382670176,0.4322569588844513,0.9371656990903119,2.8342308532554163,-0.009139849426120486,-0.031228403577646644,0.00016568256795723826,0.35,-0.2966083081592976,0.1503224747866705,0.003263526935945831,3.2815423068931753,6.309393883779685,20.463991382670176,auto,85.0,15,5.0,10.0,0.0,20.865009313635113,0.03253886120093716,0,0
1761250996.7081947,23.981059312820435,3.3257020785268794,6.403883637948352,20.75035653636378,0.41958684966674425,0.914649479150554,2.746764165711843,0.01150397940992997,-0.020776563822642653,-0.0027122791634472555,0.35,-0.3,-0.021277756750124818,0.009530611519301733,3.3257020785268794,6.403883637948352,20.75035653636378,auto,85.0,15,5.0,10.0,0.0,21.12611234480873,0.02390321327355187,0,0
1761250996.814385,24.087249517440796,3.3702602966282837,6.499255517012525,21.036335803551097,0.4072956652703835,0.890501083254604,2.654786837369029,0.021655744962756462,-0.006895447728867129,-0.005056198564576603,0.35,-0.3,-0.18623290691979835,0.013211973587077083,3.3702602966282837,6.499255517012525,21.036335803551097,auto,85.0,15,5.0,10.0,0.0,21.387816332568388,0.023282689561086305,0,0
1761250996.9170847,24.18994927406311,3.412176498242308,6.589136383222895,21.30511963642855,0.39693468012761685,0.8633698068250163,2.579960215685344,0.03115809404551286,0.0016829950816329882,-0.004986248890143924,0.35,-0.1343708050374352,-0.2860511147626407,0.00937755500628579,3.412176498242308,6.589136383222895,21.30511963642855,auto,85.0,15,5.0,10.0,0.0,21.634770551302854,0.031599398332694345,0,0
1761250997.0203874,24.293251991271973,3.453371918633774,6.677591416637408,21.56835011783438,0.3866805856978877,0.8402747041733384,2.516882049118601,0.01342511262010325,0.017872597023219677,-0.0008428653209590692,0.35,0.08278984428322364,-0.3,-0.006674657448415133,3.453371918633774,6.677591416637408,21.56835011783438,auto,85.0,15,5.0,10.0,0.0,21.877481208364877,0.022369036527444174,0,0
1761250997.1253407,24.398205280303955,3.4940240132198315,6.764996317418567,21.82765299607529,0.3784163140079929,0.81888806040606,2.46094122887825,-0.009247437981810585,0.038490976828688295,0.005046020541861939,0.35,0.20235233421446147,-0.3,-0.02335083477552457,3.4940240132198315,6.764996317418567,21.82765299607529,auto,85.0,15,5.0,10.0,0.0,22.117405992026924,0.03990654996066366,0,0
1761250997.2282162,24.501080751419067,3.5331509381400097,6.849277046591511,22.078145890991937,0.37308427393111954,0.7989608248770038,2.392261955988588,-0.0214549461631884,0.047339907128248294,0.009059406490723652,0.35,0.26396110671276907,-0.2698314528774888,-0.02935805128919996,3.5331509381400097,6.849277046591511,22.078145890991937,auto,85.0,15,5.0,10.0,0.0,22.350016270314857,0.052758453045371335,0,0
1761250997.3318012,24.604665756225586,3.571332973608701,6.93158010668404,22.32217147467197,0.36879433727316585,0.7799910767554148,2.3152222904049826,-0.025372403105471147,0.04055911581582799,0.008977815105802481,0.35,0.2325110238982861,-0.05117466598594172,-0.022001220801771092,3.571332973608701,6.93158010668404,22.32217147467197,auto,85.0,15,5.0,10.0,0.0,22.57732556036374,0.04867650233102462,0,0
1761250997.436565,24.709429502487183,3.6089000305821264,7.012828938471741,22.56214917263169,0.3584005572991135,0.7588946047381312,2.262635582708754,-0.03953560502070007,0.029574378803664085,0.005009494556949907,0.35,0.3,0.02793604149436604,-0.005617269619226127,3.6089000305821264,7.012828938471741,22.56214917263169,auto,85.0,15,5.0,10.0,0.0,22.80151147103698,0.04962663580872202,0,0
1761250997.5408833,24.813747882843018,3.6453103122977852,7.091564576997738,22.79491511782099,0.3519571808917814,0.7432762320715608,2.2004096833119475,-0.04156198040372887,0.016651304961052275,0.0018779693868291511,0.35,0.2169715754100136,0.2182322648508411,0.0007883104111662299,3.6453103122977852,7.091564576997738,22.79491511782099,auto,85.0,15,5.0,10.0,0.0,23.019607641930065,0.04481284348268667,0,0
1761250997.645969,24.9188334941864,3.6811020856867493,7.168940342403327,23.020916290704953,0.34141427884633035,0.7232913587324226,2.1127629607076264,-0.054819478536431,0.007419590209482529,-0.0009755646368384735,0.35,0.3,0.21283146709924303,0.006041209311579551,3.6811020856867493,7.168940342403327,23.020916290704953,auto,85.0,15,5.0,10.0,0.0,23.231809601425713,0.05532790681241717,0,0
1761250997.7484126,25.02127718925476,3.7150059459909626,7.242182820786152,23.234062659726135,0.3344101516374218,0.7090816077340325,2.0524128451952293,-0.04909969596214269,-0.01347180634032853,-0.001723831842035434,0.35,0.11293879241563651,0.3,0.0044556804280597,3.7150059459909626,7.242182820786152,23.234062659726135,auto,85.0,15,5.0,10.0,0.0,23.432422687141973,0.05094351092990925,0,0
1761250997.8541317,25.126996278762817,3.749230794629774,7.315937155613405,23.448811377481167,0.3235875799314305,0.6985651363834285,2.012387659317775,-0.026680496024986476,-0.01853122468361067,-0.0005889300579047321,0.35,-0.15220683376263094,0.2984655553898492,-0.0013578298194653455,3.749230794629774,7.315937155613405,23.448811377481167,auto,85.0,15,5.0,10.0,0.0,23.63504541934306,0.032490029163219976,0,0
1761250997.9587276,25.231592178344727,3.781972752090096,7.387061149233319,23.655877518512323,0.3121425135451692,0.6770527518932606,1.9605092213440931,0.0010891447890136532,-0.03639718610538635,0.004384720539741253,0.35,-0.3,0.3,-0.019499181495108146,3.781972752090096,7.387061149233319,23.655877518512323,auto,85.0,15,5.0,10.0,0.0,23.830895513709795,0.03667652064977257,0,0
1761250998.0641866,25.337051153182983,3.8143294913812964,7.456893596091985,23.859275301996714,0.30084012418592015,0.6578549701143398,1.8871014625566993,0.0055301407305911494,-0.034270929467754924,0.008518140066295801,0.35,-0.22614394192455486,0.1277090834837038,-0.028342343036302002,3.8143294913812964,7.456893596091985,23.859275301996714,auto,85.0,15,5.0,10.0,0.0,24.023701269227363,0.035744059272458266,0,0
1761250998.1687834,25.44164800643921,3.845647729336185,7.524197727045018,24.053995195955316,0.28897783648248593,0.6388308407734219,1.8319779519881019,0.017205177919156957,-0.02103400744954655,0.008805598205902931,0.35,-0.2935407535598173,-0.08127689703893219,-0.02281214818247823,3.845647729336185,7.524197727045018,24.053995195955316,auto,85.0,15,5.0,10.0,0.0,24.208610264668174,0.028565471751420924,0,0
1761250998.2755294,25.548393964767456,3.876925507200156,7.591050043337492,24.24624531316506,0.2801738588573213,0.6203835543120759,1.7814144916870334,0.012041654164121266,0.007614820003072769,0.005041390568028507,0.35,-0.2818219620575389,-0.3,-0.00698141486033656,3.876925507200156,7.591050043337492,24.24624531316506,auto,85.0,15,5.0,10.0,0.0,24.391489253349427,0.015112992342580706,0,0
1761250998.380379,25.65324354171753,3.9067028858138824,7.654669723121746,24.429366934392004,0.2742368163408392,0.60238895223818,1.7315371753436828,0.02708833122409416,0.024197160380207337,-0.002755177984258017,0.35,-0.3,-0.3,0.017990801282797363,3.9067028858138824,7.654669723121746,24.429366934392004,auto,85.0,15,5.0,10.0,0.0,24.56603023491372,0.036426244174999026,0,0
1761250998.4843054,25.75716996192932,3.935495467282276,7.716131421703637,24.60640644203147,0.2707746605455844,0.5806053909634831,1.6701955906190298,0.03209993899471762,0.03669025470249718,-0.009662251658702442,0.35,-0.04356616253973922,-0.3,0.03304721758865893,3.935495467282276,7.716131421703637,24.60640644203147,auto,85.0,15,5.0,10.0,0.0,24.73508567952725,0.049698490728741516,0,0
1761250998.5893338,25.86219835281372,3.9638942123709486,7.7770662763029685,24.780512291962623,0.2643223373640687,0.5632163792231075,1.6362631369282095,-0.00608651245403283,0.04058129770945023,-0.011217257352063153,0.35,0.21697439059775797,-0.3,0.026881758758731007,3.9638942123709486,7.7770662763029685,24.780512291962623,auto,85.0,15,5.0,10.0,0.0,24.901581054126233,0.04254073600842541,0,0
1761250998.6948009,25.967665433883667,3.9916842529304946,7.83672901983501,24.949809030005,0.25831866481952176,0.5526428606963806,1.584465924144256,-0.0334114305272963,0.044658469281820296,-0.0056141347800048765,0.35,0.3,-0.29552249125782626,0.001052391800029022,3.9916842529304946,7.83672901983501,24.949809030005,auto,85.0,15,5.0,10.0,0.0,25.063707080420713,0.05605551781763946,0,0
1761250998.7981036,26.07096815109253,4.018111828951422,7.893619835914128,25.1108489630148,0.25544460287773885,0.5401132725133466,1.5277861677553497,-0.04203331592239453,0.04233981996951521,0.0016274708941182812,0.35,0.3,-0.1363615942605403,-0.020152685472529085,4.018111828951422,7.893619835914128,25.1108489630148,auto,85.0,15,5.0,10.0,0.0,25.21816165820659,0.05968340358922224,0,0
1761250998.9029608,26.175825357437134,4.0441553525443235,7.949851941227931,25.269575199487587,0.25154531688730525,0.5275648022026496,1.4823569733799729,-0.04307875312351221,0.02873360390762367,0.006196747463777498,0.35,0.2638361492374641,0.07019830367526236,-0.02593041474868983,4.0441553525443235,7.949851941227931,25.269575199487587,auto,85.0,15,5.0,10.0,0.0,25.370616405903792,0.05215168878690845,0,0
1761250999.00986,26.282724618911743,4.069974202954247,8.005719160574637,25.425345901612385,0.24515355513004836,0.5130649081470064,1.4303253585211708,-0.04558097888144608,0.01460941416224012,0.006210808825257288,0.35,0.2987095468790171,0.19928156209704254,-0.017258650626904428,4.069974202954247,8.005719160574637,25.425345901612385,auto,85.0,15,5.0,10.0,0.0,25.520390245180565,0.04826629014352138,0,0
1761250999.1146948,26.387559413909912,4.094614234005931,8.059003198372213,25.571785615938133,0.23853065172093496,0.49956790526048345,1.3709374713811153,-0.046593853326416315,-0.0005114895140445122,0.0027972131226300973,0.35,0.2493666518892,0.3,-0.002419978479043199,4.094614234005931,8.059003198372213,25.571785615938133,auto,85.0,15,5.0,10.0,0.0,25.661321313539066,0.04668054402617849,0,0
1761250999.2203925,26.49325704574585,4.11881244669777,8.111347060751763,25.71343353626206,0.2323885262802659,0.4896369406555118,1.3140967196310198,-0.053452129549409866,-0.014611846110753297,-0.0013770605930532363,0.35,0.19157861493901712,0.3,0.009351371233131438,4.11881244669777,8.111347060751763,25.71343353626206,auto,85.0,15,5.0,10.0,0.0,25.797755050639427,0.055430429332706525,0,0
1761250999.3278074,26.600672006607056,4.142815242520854,8.163017488764043,25.852361399366558,0.22396726213526263,0.4848633375695134,1.2839635277133357,-0.026267450348202253,-0.005279989594435593,-0.0018025657359052425,0.35,-0.2575585862098991,0.28220173299099416,0.005003646585200435,4.142815242520854,8.163017488764043,25.852361399366558,auto,85.0,15,5.0,10.0,0.0,25.931715338143356,0.026853425873524565,0,0
1761250999.434524,26.707388639450073,4.165737180108289,8.213131920641443,25.985976409788865,0.21983290456493523,0.47162885447515457,1.242992479166954,0.007111573352379763,-0.025469473526239808,0.005717309473683121,0.35,-0.3,0.3,-0.024917085767849262,4.165737180108289,8.213131920641443,25.985976409788865,auto,85.0,15,5.0,10.0,0.0,26.06069573046329,0.027054688777880538,0,0
1761250999.5410697,26.813934326171875,4.18818645045681,8.261816375596661,26.116577002331038,0.20885818678092338,0.45422750839633375,1.2160779375032744,0.02609793261131166,-0.039787484732680595,0.013991064115044536,0.35,-0.3,0.3,-0.04703343508332441,4.18818645045681,8.261816375596661,26.116577002331038,auto,85.0,15,5.0,10.0,0.0,26.18694174335851,0.04959733766049487,0,0
1761250999.6482332,26.92109775543213,4.2102954987967784,8.309526014203914,26.24598494869101,0.19675115136889867,0.43864700570159,1.179122529974082,0.026002450847311273,-0.027212771210116615,0.019822575962818424,0.35,-0.2404808623107336,0.0008647821136925152,-0.055946577729873964,4.2102954987967784,8.309526014203914,26.24598494869101,auto,85.0,15,5.0,10.0,0.0,26.31222266215435,0.04253935689220862,0,0
1761250999.756758,27.029622554779053,4.23212869429683,8.356430456905423,26.372836003877154,0.19028349082654983,0.4254826627936581,1.144857152442915,0.01680048897246609,-0.004356605718995894,0.020664767433366333,0.35,-0.2797605730729452,-0.16045292610305267,-0.04869715437201298,4.23212869429683,8.356430456905423,26.372836003877154,auto,85.0,15,5.0,10.0,0.0,26.43515511723942,0.026986460608606308,0,0
1761250999.8610942,27.13395881652832,4.252370283501067,8.4000279196666,26.488552349899116,0.1846594115988776,0.41691637127895403,1.0841455315698558,0.029015167387267733,0.006287341952664619,0.014857759443842915,0.35,-0.3,-0.27027773107567177,-0.023366585340136574,4.252370283501067,8.4000279196666,26.488552349899116,auto,85.0,15,5.0,10.0,0.0,26.547358935385354,0.033198849724531194,0,0
1761250999.9675603,27.240424871444702,4.272584836976738,8.443505007950812,26.601075446959975,0.18125183703400702,0.4026865659018366,1.0342535610559072,0.03196193163051672,0.021627029188695395,0.007156353769827143,0.35,-0.2448082543764714,-0.3,-0.0018205163036983246,4.272584836976738,8.443505007950812,26.601075446959975,auto,85.0,15,5.0,10.0,0.0,26.656500603314893,0.03924929125935177,0,0
1761251000.072313,27.34517765045166,4.291912349326785,8.485163700081461,26.706371889542353,0.177591287876527,0.38837101048673334,0.9747587574226751,0.026671034253741954,0.02944637594749272,0.0016636406315559476,0.35,-0.046192771653964175,-0.3,0.007209697899551365,4.291912349326785,8.485163700081461,26.706371889542353,auto,85.0,15,5.0,10.0,0.0,26.75866993404427,0.03976431597244341,0,0
1761251000.1780348,27.450899362564087,4.311036395102936,8.526141791219308,26.807878967594917,0.17559785234512945,0.37534913217870025,0.9395674077289103,0.010834739806320277,0.04029998657526732,-0.0005742321009397053,0.35,0.12137599460976124,-0.3,0.005517224657487262,4.311036395102936,8.526141791219308,26.807878967594917,auto,85.0,15,5.0,10.0,0.0,26.85720208081402,0.04173500026528258,0,0
1761251000.2840915,27.55695605278015,4.329628675397753,8.565936331529143,26.90488216300634,0.17296690695576392,0.36479638370359563,0.9016779838538171,-0.003784845133097195,0.04475873935140113,-0.0011998016665899173,0.35,0.25974333819462947,-0.27824730396912556,0.0025022335679712408,4.329628675397753,8.565936331529143,26.90488216300634,auto,85.0,15,5.0,10.0,0.0,26.95141221760622,0.04493450038720077,0,0
1761251000.3907156,27.663580179214478,4.3479785885111255,8.605258406493405,26.998652621114942,0.17099484410826746,0.35491285843062564,0.8519912968851983,-0.018120281911659444,0.04219790772859523,-0.0013767379166401059,0.35,0.3,-0.16619703745690723,0.0009756867821840681,4.3479785885111255,8.605258406493405,26.998652621114942,auto,85.0,15,5.0,10.0,0.0,27.042516143830515,0.045944569216830884,0,0
