timestamp,simulation_time,position_x,position_y,position_z,velocity_x,velocity_y,velocity_z,attitude_roll,attitude_pitch,attitude_yaw,control_throttle,control_roll,control_pitch,control_yaw,flight_mode
1761259846.245628,0.10543060302734375,0.0,0.0,-0.0,0.0,0.0,-0.0,0.0,0.0,0.0,0.0,0.0,0.0,0.0,manual
1761259846.348754,0.2085564136505127,0.0,0.0,-0.0,0.0,0.0,-0.0,0.0,0.0,0.0,0.0,0.0,0.0,0.0,manual
1761259846.4545004,0.314302921295166,0.0,0.0,-0.0,0.0,0.0,-0.0,0.0,0.0,0.0,0.0,0.0,0.0,0.0,manual
1761259846.5584333,0.41823577880859375,0.0,0.0,-0.0,0.0,0.0,-0.0,0.0,0.0,0.0,0.0,0.0,0.0,0.0,manual
1761259846.6606963,0.5204987525939941,0.0,0.0,-0.0,0.0,0.0,-0.0,0.0,0.0,0.0,0.0,0.0,0.0,0.0,manual
1761259846.7644548,0.6242573261260986,0.0,0.0,-0.0,0.0,0.0,-0.0,0.0,0.0,0.0,0.0,0.0,0.0,0.0,manual
1761259846.8678596,0.7276620864868164,0.0,0.0,-0.0,0.0,0.0,-0.0,0.0,0.0,0.0,0.0,0.0,0.0,0.0,manual
1761259846.9731212,0.8329236507415771,0.0,0.0,-0.0,0.0,0.0,-0.0,0.0,0.0,0.0,0.0,0.0,0.0,0.0,manual
1761259847.0758457,0.9356482028961182,0.0,0.0,-0.0,0.0,0.0,-0.0,0.0,0.0,0.0,0.0,0.0,0.0,0.0,manual
1761259847.178091,1.037893533706665,0.0,0.0,-0.0,0.0,0.0,-0.0,0.0,0.0,0.0,0.0,0.0,0.0,0.0,manual
1761259847.2812464,1.1410489082336426,0.0,0.0,-0.0,0.0,0.0,-0.0,0.0,0.0,0.0,0.0,0.0,0.0,0.0,manual
1761259847.3849187,1.2447211742401123,0.0,0.0,-0.0,0.0,0.0,-0.0,0.0,0.0,0.0,0.0,0.0,0.0,0.0,manual
1761259847.4881988,1.34800124168396,0.0,0.0,-0.0,0.0,0.0,-0.0,0.0,0.0,0.0,0.0,0.0,0.0,0.0,manual
1761259847.5906794,1.45048189163208,0.0,0.0,-0.0,0.0,0.0,-0.0,0.0,0.0,0.0,0.0,0.0,0.0,0.0,manual
1761259847.6962013,1.5560038089752197,0.0,0.0,-0.0,0.0,0.0,-0.0,0.0,0.0,0.0,0.0,0.0,0.0,0.0,manual
1761259847.7995212,1.6593236923217773,0.0,0.0,-0.0,0.0,0.0,-0.0,0.0,0.0,0.0,0.0,0.0,0.0,0.0,manual
1761259847.9055116,1.7653141021728516,0.0,0.0,-0.0,0.0,0.0,-0.0,0.0,0.0,0.0,0.0,0.0,0.0,0.0,manual
1761259848.0086899,1.8684923648834229,0.0,0.0,-0.0,0.0,0.0,-0.0,0.0,0.0,0.0,0.0,0.0,0.0,0.0,manual
1761259848.1133778,1.9731802940368652,0.0,0.0,-0.0,0.0,0.0,-0.0,0.0,0.0,0.0,0.0,0.0,0.0,0.0,manual
1761259848.2165189,2.0763213634490967,0.0,0.0,-0.0,0.0,0.0,-0.0,0.0,0.0,0.0,0.0,0.0,0.0,0.0,manual
1761259848.3196626,2.1794650554656982,0.0,0.0,-0.0,0.0,0.0,-0.0,0.0,0.0,0.0,0.0,0.0,0.0,0.0,manual
1761259848.4259236,2.2857260704040527,0.0,0.0,-0.0,0.0,0.0,-0.0,0.0,0.0,0.0,0.0,0.0,0.0,0.0,manual
1761259848.5294225,2.3892250061035156,0.0,0.0,-0.0,0.0,0.0,-0.0,0.0,0.0,0.0,0.0,0.0,0.0,0.0,manual
1761259848.6355188,2.495321273803711,0.0,0.0,-0.0,0.0,0.0,-0.0,0.0,0.0,0.0,0.0,0.0,0.0,0.0,manual
1761259848.7434027,2.6032052040100098,0.0,0.0,-0.0,0.0,0.0,-0.0,0.0,0.0,0.0,0.0,0.0,0.0,0.0,manual
1761259848.848241,2.7080435752868652,0.0,0.0,-0.0,0.0,0.0,-0.0,0.0,0.0,0.0,0.0,0.0,0.0,0.0,manual
1761259848.9533634,2.8131659030914307,0.0,0.0,-0.0,0.0,0.0,-0.0,0.0,0.0,0.0,0.0,0.0,0.0,0.0,manual
1761259849.0542965,2.9140989780426025,0.0,0.0,-0.0,0.0,0.0,-0.0,0.0,0.0,0.0,0.0,0.0,0.0,0.0,manual
1761259849.1575167,3.0173192024230957,0.0,0.0,-0.0,0.0,0.0,-0.0,0.0,0.0,0.0,0.0,0.0,0.0,0.0,manual
1761259849.260738,3.1205403804779053,0.0,0.0,-0.0,0.0,0.0,-0.0,0.0,0.0,0.0,0.0,0.0,0.0,0.0,manual
1761259849.3652518,3.2250542640686035,0.0,0.0,-0.0,0.0,0.0,-0.0,0.0,0.0,0.0,0.0,0.0,0.0,0.0,manual
1761259849.468634,3.3284363746643066,0.0,0.0,-0.0,0.0,0.0,-0.0,0.0,0.0,0.0,0.0,0.0,0.0,0.0,manual
1761259849.5737054,3.4335079193115234,0.0,0.0,-0.0,0.0,0.0,-0.0,0.0,0.0,0.0,0.0,0.0,0.0,0.0,manual
1761259849.6770637,3.5368661880493164,0.0,0.0,0.05172281329708987,0.0,0.0,1.247061789807164,0.0,0.0,0.0,1.0,0.0,0.0,0.0,stabilize
1761259849.7807524,3.640554904937744,0.0,0.0,0.19205881853227322,0.0,0.0,1.361831646487163,0.0,0.0,0.0,0.5681844171416481,0.0,0.0,0.0,stabilize
1761259849.8857799,3.745582342147827,0.0,0.0,0.3337421441966319,0.0,0.0,1.3456726211664944,0.0,0.0,0.0,0.47519836721578024,0.0,0.0,0.0,stabilize
1761259849.9991343,3.8589367866516113,0.0,0.0,0.4833271009907933,0.0,0.0,1.2858419054765315,0.0,0.0,0.0,0.35,0.0,0.0,0.0,stabilize
1761259850.1037736,3.963576078414917,0.0,0.0,0.6200369087092994,0.0,0.0,1.2609679005412489,0.0,0.0,0.0,0.35,0.0,0.0,0.0,stabilize
1761259850.2061846,4.0659871101379395,0.0,0.0,0.7461831847088408,0.0,0.0,1.195512328497698,0.0,0.0,0.0,0.40788209319005575,0.0,0.0,0.0,stabilize
1761259850.3148055,4.174607992172241,0.0,0.0,0.8726222226165161,0.0,0.0,1.1311394455269554,0.0,0.0,0.0,0.46266601107262517,0.0,0.0,0.0,stabilize
1761259850.421758,4.28156042098999,0.0,0.0,0.9889868284004323,0.0,0.0,1.052696751635734,0.0,0.0,0.0,0.4674650725032674,0.0,0.0,0.0,stabilize
1761259850.5255284,4.38533091545105,0.0,0.0,1.0940577710710515,0.0,0.0,0.9776490054747954,0.0,0.0,0.0,0.4505139413795285,0.0,0.0,0.0,stabilize
1761259850.6287806,4.488583087921143,0.0,0.0,1.1911274575267812,0.0,0.0,0.913162159540112,0.0,0.0,0.0,0.49265227653635996,0.0,0.0,0.0,stabilize
1761259850.7330632,4.592865705490112,0.0,0.0,1.2818613322643786,0.0,0.0,0.8454309912698954,0.0,0.0,0.0,0.35,0.0,0.0,0.0,stabilize
1761259850.8375714,4.697373867034912,0.0,0.0,1.365946968224484,0.0,0.0,0.7523758380742561,0.0,0.0,0.0,0.3500008451112716,0.0,0.0,0.0,stabilize
1761259850.94143,4.801232576370239,0.0,0.0,1.4426859040096898,0.0,0.0,0.7112743641777526,0.0,0.0,0.0,0.4981005803580857,0.0,0.0,0.0,stabilize
1761259851.0459423,4.905744791030884,0.0,0.0,1.5126031103635853,0.0,0.0,0.6515508768473657,0.0,0.0,0.0,0.5317074207363535,0.0,0.0,0.0,stabilize
1761259851.1502714,5.010073900222778,0.0,0.0,1.5760949470061187,0.0,0.0,0.5636516223660256,0.0,0.0,0.0,0.3575243073250169,0.0,0.0,0.0,stabilize
1761259851.2574527,5.117255210876465,0.0,0.0,1.6349466171630624,0.0,0.0,0.5331767359811357,0.0,0.0,0.0,0.536126976001094,0.0,0.0,0.0,stabilize
1761259851.3623774,5.222179889678955,0.0,0.0,1.6866485931257722,0.0,0.0,0.4963582650309039,0.0,0.0,0.0,0.6200751236660983,0.0,0.0,0.0,stabilize
1761259851.4690454,5.328847885131836,0.0,0.0,1.7344241132776077,0.0,0.0,0.4488214520497317,0.0,0.0,0.0,0.5996861561921775,0.0,0.0,0.0,stabilize
1761259851.5751836,5.434986114501953,0.0,0.0,1.7770575021734845,0.0,0.0,0.4045192677091942,0.0,0.0,0.0,0.5979525449884602,0.0,0.0,0.0,stabilize
1761259851.6801863,5.53998875617981,0.0,0.0,1.8151111676067682,0.0,0.0,0.3485048313283894,0.0,0.0,0.0,0.5040769083289255,0.0,0.0,0.0,stabilize
1761259851.7861283,5.645930767059326,0.0,0.0,1.8491665458641962,0.0,0.0,0.3369304480546809,0.0,0.0,0.0,0.6365410192790675,0.0,0.0,0.0,stabilize
1761259851.8910537,5.750856161117554,0.0,0.0,1.8797243691867096,0.0,0.0,0.2586695626343508,0.0,0.0,0.0,0.35,0.0,0.0,0.0,stabilize
1761259851.9956834,5.855485916137695,0.0,0.0,1.9067439755076114,0.0,0.0,0.2331349230861225,0.0,0.0,0.0,0.35,0.0,0.0,0.0,stabilize
1761259852.0996728,5.95947527885437,0.0,0.0,1.9300140076215317,0.0,0.0,0.2029992922281715,0.0,0.0,0.0,0.41750280812935947,0.0,0.0,0.0,stabilize
1761259852.2024765,6.062278985977173,0.0,0.0,1.951106706368894,0.0,0.0,0.19394047272022794,0.0,0.0,0.0,0.4803787363230548,0.0,0.0,0.0,stabilize
1761259852.3074725,6.1672749519348145,0.0,0.0,1.9706148300549464,0.0,0.0,0.20116025065931784,0.0,0.0,0.0,0.6101684809625467,0.0,0.0,0.0,stabilize
1761259852.4121413,6.271943807601929,0.0,0.0,1.987811696865749,0.0,0.0,0.17528219742608248,0.0,0.0,0.0,0.5967465224337047,0.0,0.0,0.0,stabilize
1761259852.520382,6.3801844120025635,0.0,0.0,2.003458997114337,0.0,0.0,0.11507502349079136,0.0,0.0,0.0,0.35,0.0,0.0,0.0,stabilize
1761259852.6254213,6.485223770141602,0.0,0.0,2.0179963111903843,0.0,0.0,0.13728199987849626,0.0,0.0,0.0,0.35,0.0,0.0,0.0,stabilize
1761259852.7308109,6.59061336517334,0.0,0.0,2.0298398691224655,0.0,0.0,0.12974546733126935,0.0,0.0,0.0,0.608245039787348,0.0,0.0,0.0,stabilize
1761259852.8348215,6.694623947143555,0.0,0.0,2.0403816868653153,0.0,0.0,0.08942279758324984,0.0,0.0,0.0,0.35,0.0,0.0,0.0,stabilize
1761259852.9391267,6.798929214477539,0.0,0.0,2.0496977191482775,0.0,0.0,0.10020127506941912,0.0,0.0,0.0,0.35,0.0,0.0,0.0,stabilize
1761259853.0449803,6.904782772064209,0.0,0.0,2.058090406377815,0.0,0.0,0.07493682099427186,0.0,0.0,0.0,0.4976727531801639,0.0,0.0,0.0,stabilize
1761259853.1502962,7.010098695755005,0.0,0.0,2.065073794040784,0.0,0.0,0.05754481305083095,0.0,0.0,0.0,0.458867866570824,0.0,0.0,0.0,stabilize
1761259853.2552521,7.115054607391357,0.0,0.0,2.0717550984901765,0.0,0.0,0.08823107602643326,0.0,0.0,0.0,0.6484773961154783,0.0,0.0,0.0,stabilize
1761259853.3612125,7.221014976501465,0.0,0.0,2.077530629776083,0.0,0.0,0.057143402810819276,0.0,0.0,0.0,0.5357478289088384,0.0,0.0,0.0,stabilize
1761259853.466326,7.3261284828186035,0.0,0.0,2.081942644888015,0.0,0.0,0.05866634503457105,0.0,0.0,0.0,0.35,0.0,0.0,0.0,stabilize
1761259853.5720534,7.431855916976929,0.0,0.0,2.085989649552836,0.0,0.0,0.03126114501650982,0.0,0.0,0.0,0.35,0.0,0.0,0.0,stabilize
1761259853.6777198,7.537522315979004,0.0,0.0,2.0893180734356003,0.0,0.0,0.011469540568930223,0.0,0.0,0.0,0.35,0.0,0.0,0.0,stabilize
1761259853.7778413,7.637643814086914,0.0,0.0,2.092962564397677,0.0,0.0,0.018701951417631386,0.0,0.0,0.0,0.35,0.0,0.0,0.0,stabilize
1761259853.8823326,7.742135047912598,0.0,0.0,2.0963397938585464,0.0,0.0,0.03595871518368518,0.0,0.0,0.0,0.5339947358789378,0.0,0.0,0.0,stabilize
1761259853.99014,7.849942445755005,0.0,0.0,2.099433630364719,0.0,0.0,0.020843375884534922,0.0,0.0,0.0,0.35,0.0,0.0,0.0,stabilize
1761259854.0938885,7.953691005706787,0.0,0.0,2.1024270656068795,0.0,0.0,0.057798248658407325,0.0,0.0,0.0,0.6663161606541812,0.0,0.0,0.0,stabilize
1761259854.1981792,8.057981729507446,0.0,0.0,2.105589625700574,0.0,0.0,0.018629862762158257,0.0,0.0,0.0,0.35,0.0,0.0,0.0,stabilize
1761259854.3033679,8.163170337677002,0.0,0.0,2.108309499660436,0.0,0.0,0.03002771349120657,0.0,0.0,0.0,0.5419679969294422,0.0,0.0,0.0,stabilize
1761259854.4096375,8.269439935684204,0.0,0.0,2.109704827198842,0.0,0.0,-0.000773005997865079,0.0,0.0,0.0,0.35,0.0,0.0,0.0,stabilize
1761259854.5134304,8.3732328414917,0.0,0.0,2.110540279233912,0.0,0.0,-0.013254129477699259,0.0,0.0,0.0,0.3656889916433681,0.0,0.0,0.0,stabilize
1761259854.6168888,8.476691246032715,0.0,0.0,2.1116073948935106,0.0,0.0,0.039964379166439176,0.0,0.0,0.0,0.669969737325586,0.0,0.0,0.0,stabilize
1761259854.720017,8.579819440841675,0.0,0.0,2.1122549399455455,0.0,0.0,-0.014491558807014417,0.0,0.0,0.0,0.35,0.0,0.0,0.0,stabilize
1761259854.8245537,8.684356212615967,0.0,0.0,2.1123180875931795,0.0,0.0,-0.01577353562060884,0.0,0.0,0.0,0.35,0.0,0.0,0.0,stabilize
1761259854.9301827,8.789985179901123,0.0,0.0,2.1115858475619733,0.0,0.0,0.0264789921333115,0.0,0.0,0.0,0.6551593439072743,0.0,0.0,0.0,stabilize
1761259855.0331404,8.892942905426025,0.0,0.0,2.1117621590607567,0.0,0.0,-0.016808709017965526,0.0,0.0,0.0,0.35,0.0,0.0,0.0,stabilize
1761259855.139676,8.999478578567505,0.0,0.0,2.1110288850605174,0.0,0.0,-0.022500167224109333,0.0,0.0,0.0,0.35,0.0,0.0,0.0,stabilize
1761259855.2437453,9.103547811508179,0.0,0.0,2.1110528368027635,0.0,0.0,0.0667729056948048,0.0,0.0,0.0,0.35,0.0,0.0,0.0,stabilize
1761259855.3469708,9.206773281097412,0.0,0.0,2.112248334927221,0.0,0.0,0.038058116924774094,0.0,0.0,0.0,0.6904649620853189,0.0,0.0,0.0,stabilize
1761259855.45202,9.311822414398193,0.0,0.0,2.1129066213203727,0.0,0.0,0.004010925016859578,0.0,0.0,0.0,0.35,0.0,0.0,0.0,stabilize
1761259855.5586631,9.418465614318848,0.0,0.0,2.11197562192398,0.0,0.0,-0.010773550816317118,0.0,0.0,0.0,0.47959692655705466,0.0,0.0,0.0,stabilize
1761259855.665685,9.525487422943115,0.0,0.0,2.1112247672913864,0.0,0.0,-0.02830401829798436,0.0,0.0,0.0,0.35,0.0,0.0,0.0,stabilize
1761259855.771306,9.631108522415161,0.0,0.0,2.110360637303178,0.0,0.0,0.01419131938752147,0.0,0.0,0.0,0.6233139117346189,0.0,0.0,0.0,stabilize
1761259855.8776906,9.73749303817749,0.0,0.0,2.109051110981913,0.0,0.0,0.01782371282608325,0.0,0.0,0.0,0.6565765566969732,0.0,0.0,0.0,stabilize
1761259855.9845858,9.844388246536255,0.0,0.0,2.1076532672669765,0.0,0.0,0.009606863020946689,0.0,0.0,0.0,0.6221530551734827,0.0,0.0,0.0,stabilize
1761259856.0901458,9.94994831085205,0.0,0.0,2.1061631593282173,0.0,0.0,0.002365194828779997,0.0,0.0,0.0,0.35,0.0,0.0,0.0,stabilize
1761259856.194842,10.054644584655762,0.0,0.0,2.1048772710946033,0.0,0.0,-0.009632619823942097,0.0,0.0,0.0,0.35,0.0,0.0,0.0,stabilize
1761259856.2987883,10.15859079360962,0.0,0.0,2.103435641877796,0.0,0.0,-0.02719751530699139,0.0,0.0,0.0,0.35,0.0,0.0,0.0,stabilize
1761259856.404431,10.264233589172363,0.0,0.0,2.1015797883645124,0.0,0.0,0.01700770773578296,0.0,0.0,0.0,0.6702993337054604,0.0,0.0,0.0,stabilize
1761259856.5076027,10.36740517616272,0.0,0.0,2.1008012901158546,0.0,0.0,-0.028312942246131765,0.0,0.0,0.0,0.35,0.0,0.0,0.0,stabilize
1761259856.6117852,10.471587657928467,0.0,0.0,2.1002734900653066,0.0,0.0,-0.014272623550249764,0.0,0.0,0.0,0.35,0.0,0.0,0.0,stabilize
1761259856.72733,10.587132453918457,0.0,0.0,2.0984203650328634,0.0,0.0,-0.049720449042114215,0.0,0.0,0.0,0.35,0.0,0.0,0.0,stabilize
1761259856.830388,10.690190553665161,0.0,0.0,2.102903479011593,0.0,0.0,0.007059813424904585,0.0,0.0,0.0,0.35,0.0,0.0,0.0,stabilize
1761259856.934315,10.794117450714111,0.0,0.0,2.1042386109986406,0.0,0.0,-0.008918244561503284,0.0,0.0,0.0,0.39273935887423894,0.0,0.0,0.0,stabilize
1761259857.0404835,10.900285959243774,0.0,0.0,2.104961858251877,0.0,0.0,0.03876265798738519,0.0,0.0,0.0,0.6732012005143724,0.0,0.0,0.0,stabilize
1761259857.1454651,11.00526762008667,0.0,0.0,2.1059988637913767,0.0,0.0,-0.011194828364599486,0.0,0.0,0.0,0.35,0.0,0.0,0.0,stabilize
1761259857.253283,11.113085508346558,0.0,0.0,2.1058523414896446,0.0,0.0,0.014608188882679583,0.0,0.0,0.0,0.6013643261283041,0.0,0.0,0.0,stabilize
1761259857.358101,11.21790337562561,0.0,0.0,2.1050948928698148,0.0,0.0,-0.01853859546599837,0.0,0.0,0.0,0.45067515960177573,0.0,0.0,0.0,stabilize
1761259857.4619727,11.321775197982788,0.0,0.0,2.1031955349746934,0.0,0.0,-0.020780785755236345,0.0,0.0,0.0,0.4884481206166049,0.0,0.0,0.0,stabilize
1761259857.570354,11.430156469345093,0.0,0.0,2.1012088201428876,0.0,0.0,-0.026952853638541125,0.0,0.0,0.0,0.35,0.0,0.0,0.0,stabilize
1761259857.6755486,11.535351037979126,0.0,0.0,2.099501374717439,0.0,0.0,-0.032953746818719966,0.0,0.0,0.0,0.40647723582549905,0.0,0.0,0.0,stabilize
1761259857.7792835,11.6390860080719,0.0,0.0,2.0971709230298075,0.0,0.0,-0.028686207473372534,0.0,0.0,0.0,0.45146450443070807,0.0,0.0,0.0,stabilize
1761259857.8852477,11.745050191879272,0.0,0.0,2.0949906627227564,0.0,0.0,-0.029938394335713516,0.0,0.0,0.0,0.35,0.0,0.0,0.0,stabilize
1761259857.988657,11.848459482192993,0.0,0.0,2.0931198342389643,0.0,0.0,-0.007687583828955534,0.0,0.0,0.0,0.5516349244815089,0.0,0.0,0.0,stabilize
1761259858.0923762,11.952178716659546,0.0,0.0,2.09109214894385,0.0,0.0,-0.03824068472504018,0.0,0.0,0.0,0.35,0.0,0.0,0.0,stabilize
1761259858.1970024,12.056804895401001,0.0,0.0,2.0891512216536445,0.0,0.0,-0.016276780261872386,0.0,0.0,0.0,0.5038433551782779,0.0,0.0,0.0,stabilize
1761259858.3001878,12.159990310668945,0.0,0.0,2.087717409235729,0.0,0.0,-0.0073651727495220205,0.0,0.0,0.0,0.35,0.0,0.0,0.0,stabilize
1761259858.4047859,12.264588356018066,0.0,0.0,2.086401460258717,0.0,0.0,0.007440470423008674,0.0,0.0,0.0,0.35,0.0,0.0,0.0,stabilize
1761259858.5080943,12.367896795272827,0.0,0.0,2.08513223873,0.0,0.0,-0.03536488007008071,0.0,0.0,0.0,0.35,0.0,0.0,0.0,stabilize
1761259858.6119292,12.471731662750244,0.0,0.0,2.0845765123037547,0.0,0.0,-0.023446085732734087,0.0,0.0,0.0,0.35,0.0,0.0,0.0,stabilize
1761259858.7276897,12.587492227554321,0.0,0.0,2.082116098828846,0.0,0.0,-0.017247850747979052,0.0,0.0,0.0,0.4908460034103015,0.0,0.0,0.0,stabilize
1761259858.832228,12.692030429840088,0.0,0.0,2.080057239789017,0.0,0.0,-0.024195265138931114,0.0,0.0,0.0,0.35,0.0,0.0,0.0,stabilize
1761259858.937834,12.79763650894165,0.0,0.0,2.0781227930520276,0.0,0.0,-0.01763764443025767,0.0,0.0,0.0,0.4998807405227492,0.0,0.0,0.0,stabilize
1761259859.0417252,12.901527643203735,0.0,0.0,2.076758808751248,0.0,0.0,0.004641295719063389,0.0,0.0,0.0,0.35,0.0,0.0,0.0,stabilize
1761259859.1465163,13.006318807601929,0.0,0.0,2.0759129431912418,0.0,0.0,0.010615878275805766,0.0,0.0,0.0,0.6082181354770899,0.0,0.0,0.0,stabilize
1761259859.249508,13.109310388565063,0.00023363180569969358,0.0,2.0855080003060102,0.021115268747020192,0.0,0.4638979743143953,0.0,-0.06707104347094671,0.0,1.0,0.0,-0.3,0.0,auto
1761259859.3540714,13.213873863220215,0.018946101809407447,0.0,2.1902848542664506,0.42163153505796674,0.0,1.518426136090517,0.0,-0.31549833177357645,0.0,0.9704029138747898,0.0,-0.3,0.0,auto
1761259859.4590569,13.318859338760376,0.08809204018058152,0.0,2.35666948527043,0.9319855302850075,0.0,1.6882515672399132,0.0,-0.4176018710828891,0.0,0.35,0.0,0.3,0.0,auto
1761259859.5640457,13.423848152160645,0.20528718478236554,0.0,2.5353180562976334,1.2673591446182635,0.0,1.718740263416315,0.0,-0.27566391544281826,0.0,0.35,0.0,-0.22113226418486195,0.0,auto
1761259859.667077,13.52687954902649,0.3518099786196069,0.0,2.7158888942408512,1.552956412084326,0.0,1.781112869286067,0.0,-0.23107750248612732,0.0,0.35,0.0,-0.14537882514494066,0.0,auto
1761259859.770522,13.630324602127075,0.5252613780206503,0.0,2.898687326812179,1.7814419176597036,0.0,1.749647681810109,0.0,-0.14635510412823288,0.0,0.35,0.0,0.3,0.0,auto
1761259859.874713,13.73451542854309,0.7137353359979108,0.0,3.078441422615063,1.8257347464130391,0.0,1.6985596779527996,0.0,-0.10039965340621919,0.0,0.42113418474494335,0.0,-0.24302901012077147,0.0,auto
1761259859.974891,13.834693431854248,0.9007560807947629,0.0,3.2452329336904215,1.8930942185178514,0.0,1.6141839145304189,0.0,-0.018247298644674066,0.0,0.35,0.0,0.12510389894886156,0.0,auto
1761259860.08002,13.939822435379028,1.100102419581771,0.0,3.4123605649117006,1.9229502571284232,0.0,1.540861863444052,0.0,-0.09753038007929712,0.0,0.35,0.0,0.3,0.0,auto
1761259860.1847327,14.044535160064697,1.3023528813873868,0.0,3.569511473869199,1.9352907401890271,0.0,1.452671146178266,0.0,-0.04263664880813329,0.0,0.4239715114895499,0.0,0.10799912972307309,0.0,auto
1761259860.2873533,14.14715576171875,1.5011808023195834,0.0,3.713535084556258,1.938663672771591,0.0,1.368903415363592,0.0,-0.014917530834693764,0.0,0.5122325998224146,0.0,0.031978539434116326,0.0,auto
1761259860.3917403,14.251542806625366,1.703409732669364,0.0,3.8498732429383677,1.9291362175871363,0.0,1.2560835236135002,0.0,0.03152118915737835,0.0,0.35,0.0,-0.3,0.0,auto
1761259860.496201,14.356003522872925,1.9048038673082854,0.0,3.9764722386488756,1.9293674190804226,0.0,1.1582578079067236,0.0,0.03193243826485119,0.0,0.35,0.0,0.08924027626244958,0.0,auto
1761259860.600647,14.460449457168579,2.104446364082775,0.0,4.093257662003007,1.902565841503759,0.0,1.0703790716245412,0.0,0.02879695407104086,0.0,0.35,0.0,-0.12225309046397867,0.0,auto
1761259860.7061214,14.565923929214478,2.3035633972152176,0.0,4.201724908675911,1.869457782254385,0.0,0.9928683015874241,0.0,0.05665834066556906,0.0,0.4412766723470111,0.0,-0.3,0.0,auto
1761259860.8155007,14.675303220748901,2.5054694500493713,0.0,4.304610328135152,1.8211061614891224,0.0,0.8808906867046019,0.0,0.01290266126682952,0.0,0.35,0.0,-0.11516243194358021,0.0,auto
1761259860.9201803,14.779982805252075,2.6952154691966794,0.0,4.3932133961006565,1.7942185947636222,0.0,0.8148713402263152,0.0,0.02184036460679618,0.0,0.4896353555910264,0.0,-0.09837147442778242,0.0,auto
1761259861.025635,14.885437488555908,2.8830970551709307,0.0,4.474491558093029,1.7617569983429262,0.0,0.7195338142172975,0.0,0.03856984637472404,0.0,0.3726669120193755,0.0,-0.0667813724375088,0.0,auto
1761259861.130531,14.990333557128906,3.066095451246208,0.0,4.547086161362356,1.7270109856499978,0.0,0.6723827035337032,0.0,0.03058977369919312,0.0,0.5283113834654626,0.0,-0.10303223393277644,0.0,auto
1761259861.2357483,15.095550775527954,3.245979382793982,0.0,4.6129920914143,1.6879082438816637,0.0,0.5988158018027497,0.0,0.03871624120742305,0.0,0.47762420831981156,0.0,-0.10420889529001019,0.0,auto
1761259861.3412406,15.201043128967285,3.422463931525208,0.0,4.672491102585682,1.6492441502520057,0.0,0.5529772639728092,0.0,0.06365932109640153,0.0,0.35,0.0,-0.3,0.0,auto
1761259861.4482582,15.308060646057129,3.597463584277152,0.0,4.727898626531056,1.6227902062723705,0.0,0.5191148974717542,0.0,0.06467242500009095,0.0,0.35,0.0,0.22569730593992426,0.0,auto
1761259861.554148,15.413950443267822,3.765014835192831,0.0,4.777012171130496,1.5799717574211873,0.0,0.431503760242111,0.0,0.007581044419033431,0.0,0.35,0.0,0.22570685751356376,0.0,auto
1761259861.6579797,15.517782211303711,3.927568617195179,0.0,4.8200678846944776,1.541161937408092,0.0,0.38144087911867064,0.0,0.010146928546277157,0.0,0.35,0.0,0.28536959271482865,0.0,auto
1761259861.7645116,15.624314069747925,4.089471418266851,0.0,4.858314013401042,1.506577715158238,0.0,0.3420062276089566,0.0,0.0028896060899642577,0.0,0.35,0.0,0.3,0.0,auto
1761259861.8703787,15.730181217193604,4.246133410268784,0.0,4.893244954950334,1.4626462622165157,0.0,0.32422942001441396,0.0,-0.00295572657982924,0.0,0.35,0.0,0.3,0.0,auto
1761259861.9757316,15.83553409576416,4.398052751846324,0.0,4.925132728683423,1.4311453824995213,0.0,0.2825590097148752,0.0,-0.004628713625335066,0.0,0.35,0.0,0.3,0.0,auto
1761259862.0801344,15.939936876296997,4.544996310813599,0.0,4.952555050406233,1.3912529725095537,0.0,0.2668308070171026,0.0,-0.0067304369850861075,0.0,0.35,0.0,0.3,0.0,auto
1761259862.184616,16.044418573379517,4.688406597622906,0.0,4.977464341090011,1.3578841536549902,0.0,0.2274345024588933,0.0,0.012927753404498518,0.0,0.4670520750023488,0.0,0.3,0.0,auto
1761259862.2922716,16.152074098587036,4.832157653849287,0.0,4.999880320990342,1.3158338615439,0.0,0.1952780679256142,0.0,0.03986065024031778,0.0,0.4845580711765908,0.0,0.010222199709768377,0.0,auto
1761259862.3957043,16.25550675392151,4.966587243051741,0.0,5.018100297890098,1.2845283827967517,0.0,0.16329433724431192,0.0,0.05109653302055556,0.0,0.35,0.0,-0.18289348473517086,0.0,auto
1761259862.5007057,16.36050820350647,5.099917884801634,0.0,5.033666293414518,1.253314246355759,0.0,0.14135207042102846,0.0,0.05672934095826687,0.0,0.35,0.0,-0.2695485186623082,0.0,auto
1761259862.605102,16.46490454673767,5.229221795802339,0.0,5.04663461798021,1.2171518775438184,0.0,0.14636125714169024,0.0,0.0659140145552015,0.0,0.5892670679875083,0.0,-0.3,0.0,auto
1761259862.7087955,16.56859803199768,5.354313312427464,0.0,5.060295248129371,1.194924621440666,0.0,0.1076430096967376,0.0,0.06339532010567588,0.0,0.35,0.0,-0.2874007074496526,0.0,auto
1761259862.8141508,16.67395329475403,5.478300252727495,0.0,5.071760711956177,1.1574871924589458,0.0,0.09927971152059524,0.0,0.06531867835251028,0.0,0.35,0.0,-0.3,0.0,auto
1761259862.9192526,16.77905511856079,5.598706262335691,0.0,5.081180195429435,1.1345801207807187,0.0,0.11742569082548066,0.0,0.05401432175609808,0.0,0.6532446059334064,0.0,-0.049815349705437606,0.0,auto
1761259863.0239081,16.883710622787476,5.715668087686591,0.0,5.090053688609288,1.1045548440579838,0.0,0.05924872790559539,0.0,0.06024228440321911,0.0,0.35,0.0,-0.0917092735728557,0.0,auto
1761259863.1282492,16.988051652908325,5.828877528992958,0.0,5.097531076873124,1.0721664955027792,0.0,0.05937820013071797,0.0,0.05366516172534792,0.0,0.35,0.0,-0.22010792193996362,0.0,auto
1761259863.2317436,17.091546058654785,5.938298435315019,0.0,5.103381930130948,1.0430010830794143,0.0,0.03934962402873109,0.0,0.06023160709753344,0.0,0.35,0.0,-0.26649702664823427,0.0,auto
1761259863.3374612,17.197263717651367,6.046973253210871,0.0,5.108683546482364,1.011687334821919,0.0,0.045418992878843864,0.0,0.05972666376181986,0.0,0.35,0.0,-0.26849116356213093,0.0,auto
1761259863.44385,17.30365252494812,6.153479372774286,0.0,5.112797119772751,0.9867796595741203,0.0,0.04841690934640985,0.0,0.05716868818618898,0.0,0.5130789289280818,0.0,-0.2765577918892166,0.0,auto
1761259863.5505953,17.41039776802063,6.257514084084026,0.0,5.117640989412049,0.9570122909434745,0.0,0.05441301040059015,0.0,0.041526989308501794,0.0,0.35,0.0,-0.3,0.0,auto
1761259863.654606,17.514408588409424,6.356107577807657,0.0,5.1209675622143385,0.9295966440199901,0.0,0.03042982067896749,0.0,0.03173401770626774,0.0,0.4651374946957812,0.0,-0.26779359529831626,0.0,auto
1761259863.7630088,17.622811317443848,6.456261329249227,0.0,5.123610778343916,0.9077450753839484,0.0,0.003187153918756177,0.0,0.0326896671262938,0.0,0.35,0.0,-0.16626893330062142,0.0,auto
1761259863.868503,17.72830557823181,6.550948857866813,0.0,5.125154759610853,0.8851049992993961,0.0,-0.009323485263019765,0.0,0.032746225981820754,0.0,0.35,0.0,-0.07061630451856682,0.0,auto
1761259863.9723792,17.832181692123413,6.641769940612609,0.0,5.127461955111842,0.8595802532382396,0.0,0.04230637808294666,0.0,0.0412151680280854,0.0,0.35,0.0,-0.2330407717073268,0.0,auto
1761259864.0779881,17.937790632247925,6.731853616846952,0.0,5.129739078285898,0.8364948405181027,0.0,0.008857700252647201,0.0,0.0546300466693444,0.0,0.35,0.0,-0.3,0.0,auto
1761259864.183028,18.04283046722412,6.8190802617237285,0.0,5.130135750867089,0.8197112085972809,0.0,-0.00524285777352055,0.0,0.05799417087090377,0.0,0.38135024539587176,0.0,-0.3,0.0,auto
1761259864.2887762,18.148578643798828,6.904696260062401,0.0,5.130050995978606,0.7983297291173606,0.0,-0.019020750540802225,0.0,0.05850659424155922,0.0,0.35,0.0,-0.21571678322965246,0.0,auto
1761259864.3950975,18.254899978637695,6.988356950092761,0.0,5.1312857270033625,0.7752753533750267,0.0,0.031836065247494744,0.0,0.05536854601318694,0.0,0.605472276901997,0.0,-0.20924370968458508,0.0,auto
1761259864.4951344,18.354936838150024,7.0643900896331475,0.0,5.131947204055246,0.7413582463429209,0.0,-0.005667659323850053,0.0,0.03642620265580625,0.0,0.35,0.0,-0.3,0.0,auto
1761259864.5994627,18.45926523208618,7.141597718088074,0.0,5.132115892173246,0.7287313889058373,0.0,-0.0017193010724879786,0.0,0.03876341975640842,0.0,0.35,0.0,-0.3,0.0,auto
1761259864.703753,18.563555479049683,7.217082733273383,0.0,5.131133495258091,0.7088206340510431,0.0,-0.008845714850529028,0.0,0.03935304399373056,0.0,0.4369088032162307,0.0,-0.3,0.0,auto
1761259864.8075874,18.66738986968994,7.290108591256377,0.0,5.1299553795528,0.6892724202151583,0.0,-0.006136893612765291,0.0,0.02384503791465742,0.0,0.35,0.0,-0.24954210054975903,0.0,auto
1761259864.9120073,18.771809816360474,7.361797848095916,0.0,5.1288209877698785,0.6712672654888237,0.0,-0.0013054872906119175,0.0,0.021484116345695203,0.0,0.35,0.0,-0.3,0.0,auto
1761259865.017355,18.87715744972229,7.432359175179158,0.0,5.12786851534447,0.6549716599209111,0.0,-0.01860266580208032,0.0,0.029109333736709327,0.0,0.35,0.0,-0.3,0.0,auto
1761259865.1212168,18.981019258499146,7.5001258250941,0.0,5.127881488344226,0.6381330600823871,0.0,-0.010640397878883797,0.0,0.029161627907518247,0.0,0.35,0.0,-0.3,0.0,auto
1761259865.2339826,19.093785047531128,7.571191710778736,0.0,5.126778586911467,0.6210691549826931,0.0,-0.017839894010444553,0.0,0.01834086882183061,0.0,0.35,0.0,-0.3,0.0,auto
1761259865.3389091,19.19871163368225,7.635725017943532,0.0,5.1246618851070815,0.6027558304168122,0.0,-0.025339258074113597,0.0,-0.029699192236371408,0.0,0.42333563312274325,0.0,0.21331506557851768,0.0,auto
1761259865.4433744,19.303176879882812,7.698017940440537,0.0,5.12218680042461,0.5870481065262774,0.0,0.008121873958257121,0.0,-0.028085109510081464,0.0,0.6317375571651348,0.0,-0.0051728198381988805,0.0,auto
1761259865.543755,19.403557538986206,7.756623913181536,0.0,5.12188947604747,0.5574454334488712,0.0,-0.009497515949892813,0.0,0.06535945194588402,0.0,0.35,0.0,-0.3,0.0,auto
1761259865.6480308,19.507833242416382,7.814543326096492,0.0,5.120188250535458,0.5544440726647091,0.0,0.011293239600528616,0.0,0.046031928088781655,0.0,0.6337982534977148,0.0,-0.08195754835604857,0.0,auto
1761259865.7546802,19.614482641220093,7.872828280645363,0.0,5.119591865405869,0.5434462449927437,0.0,0.012494353320725137,0.0,0.042755075746569414,0.0,0.6025694618792168,0.0,-0.04035430945633085,0.0,auto
1761259865.8589075,19.71870994567871,7.928493829901414,0.0,5.119068238995719,0.5309819379288615,0.0,-0.016476556056979542,0.0,0.04309069263300956,0.0,0.43913164714584163,0.0,-0.03050657318686385,0.0,auto
1761259865.9688196,19.828622102737427,7.986090846000843,0.0,5.118415156289051,0.5301714768340606,0.0,-0.011151944154766448,0.0,0.03258768591592201,0.0,0.35,0.0,0.28285320116058393,0.0,auto
1761259866.0740426,19.933845043182373,8.040054892299517,0.0,5.118394475488198,0.5135825922289309,0.0,-0.005186441321872695,0.0,0.008975479775939958,0.0,0.45092862671402006,0.0,0.2577785112598531,0.0,auto
1761259866.1803432,20.04014563560486,8.093307376558851,0.0,5.117857565725916,0.5011730848473236,0.0,0.002042749397672468,0.0,0.013917269775815847,0.0,0.35,0.0,0.2989711531848035,0.0,auto
1761259866.2849035,20.14470601081848,8.144291347674583,0.0,5.116302955764238,0.48709209433432077,0.0,-0.0263232730157163,0.0,0.0094659300983177,0.0,0.35,0.0,0.3,0.0,auto
1761259866.3903704,20.25017285346985,8.194289139711167,0.0,5.1149520955925265,0.47513555729135076,0.0,-0.02289160056196757,0.0,0.004163396850786798,0.0,0.35,0.0,0.3,0.0,auto
1761259866.494743,20.35454559326172,8.242472822454538,0.0,5.11470978870407,0.46296150739945446,0.0,-0.010744218618538423,0.0,-0.005733976352694011,0.0,0.35,0.0,0.3,0.0,auto
1761259866.600001,20.459803581237793,8.289841803053273,0.0,5.113453328928808,0.44968502202314764,0.0,-0.003920021453619325,0.0,-0.012384236267600756,0.0,0.35,0.0,0.3,0.0,auto
1761259866.7049952,20.5647976398468,8.335755552833097,0.0,5.113328787871069,0.43476802676125026,0.0,-0.008160365419473486,0.0,-0.0080717803836391,0.0,0.35,0.0,0.3,0.0,auto
1761259866.8105621,20.67036461830139,8.380543423585934,0.0,5.1124867044610145,0.4240522486340491,0.0,-0.011691285599494726,0.0,-0.005973407986444797,0.0,0.35,0.0,0.3,0.0,auto
1761259866.9164248,20.776227235794067,8.424207857131396,0.0,5.1110036939736965,0.4126451995432151,0.0,-0.0231959289862963,0.0,-0.00900609293968794,0.0,0.37579688179638937,0.0,0.3,0.0,auto
1761259867.0177765,20.87757897377014,8.464937781157724,0.0,5.1103772641376475,0.4069629816036957,0.0,0.03165502623533653,0.0,-0.034907092691173765,0.0,0.35,0.0,0.3,0.0,auto
1761259867.124023,20.98382544517517,8.50709252806372,0.0,5.1111506764066625,0.3904429988231892,0.0,0.0400243677390432,0.0,-0.0324390161821444,0.0,0.6809310663613717,0.0,0.16513317038133396,0.0,auto
1761259867.229908,21.089710474014282,8.548036355172785,0.0,5.1117751047056945,0.37987012132891235,0.0,0.011044831626856752,0.0,-0.026468382980992716,0.0,0.5511733337592172,0.0,0.17935909867815353,0.0,auto
1761259867.3353698,21.19517230987549,8.587640226985672,0.0,5.110943844660595,0.3697452301930466,0.0,0.029676808818378662,0.0,-0.025091606796548066,0.0,0.680381976066503,0.0,0.13829865277005568,0.0,auto
1761259867.4414108,21.301213264465332,8.626326481746908,0.0,5.1109819962570535,0.3596349909253477,0.0,-0.014705974270994099,0.0,-0.0282769249960365,0.0,0.35,0.0,0.27075774822122634,0.0,auto
1761259867.5460298,21.405832290649414,8.663385502086138,0.0,5.110682238242665,0.3507797183270491,0.0,0.015231912798480251,0.0,-0.028106030836173964,0.0,0.5599912825702107,0.0,0.2633791365533771,0.0,auto
1761259867.6517081,21.511510610580444,8.69976721329525,0.0,5.110111634945555,0.34230601788850135,0.0,0.03640148127682742,0.0,-0.028442620895218054,0.0,0.6831225909062714,0.0,0.3,0.0,auto
1761259867.7583053,21.618107795715332,8.735404684864825,0.0,5.110549318722155,0.3297780960114979,0.0,-0.012811646664337213,0.0,-0.031494314730142865,0.0,0.35,0.0,0.3,0.0,auto
1761259867.8633454,21.723147869110107,8.769474949751018,0.0,5.108785666519035,0.3194844028133279,0.0,-0.014815750685122054,0.0,-0.031155920109404593,0.0,0.48452318446343906,0.0,0.15323022205713369,0.0,auto
1761259867.9680436,21.82784605026245,8.802565225728959,0.0,5.106785658221875,0.3116666615395168,0.0,0.01703160297379272,0.0,-0.029264842761664064,0.0,0.6598245858752815,0.0,0.18318185879951793,0.0,auto
1761259868.0738652,21.93366765975952,8.835080065582037,0.0,5.10651547225014,0.3035146569944216,0.0,0.010541441710004873,0.0,-0.03159975321264095,0.0,0.5801778228484498,0.0,0.1468164416052941,0.0,auto
1761259868.179422,22.03922438621521,8.866752578033154,0.0,5.105074316799982,0.29546824562415913,0.0,0.010963321739684131,0.0,-0.028291202238185313,0.0,0.6208962901931906,0.0,0.15170584172174623,0.0,auto
1761259868.2857442,22.145546674728394,8.897698716758315,0.0,5.1050365340161035,0.287256070831756,0.0,0.010120535412382291,0.0,-0.03182625015681773,0.0,0.5528623175008596,0.0,0.20067430672779457,0.0,auto
1761259868.3908682,22.250670671463013,8.927489764898176,0.0,5.104007670068108,0.27865646202823546,0.0,0.013049836426305667,0.0,-0.029704396674603006,0.0,0.6140455481856048,0.0,0.13992649425089793,0.0,auto
1761259868.4932988,22.35310125350952,8.955312176050368,0.0,5.103706557827363,0.2696520673033757,0.0,-0.03360710583629245,0.0,-0.0368273515086118,0.0,0.35,0.0,-0.13405347168743909,0.0,auto
1761259868.5977461,22.45754861831665,8.984527779669447,0.0,5.105063282307187,0.2621485631022528,0.0,-0.0066702266613864435,0.0,-0.002222280139529492,0.0,0.35,0.0,-0.19163136477373288,0.0,auto
1761259868.7029088,22.562711238861084,9.01242710215819,0.0,5.105490143908574,0.2555809544300124,0.0,-0.007735138178125548,0.0,-0.0029984317083550163,0.0,0.35,0.0,-0.23059450713730262,0.0,auto
1761259868.8059807,22.665783166885376,9.038977047443094,0.0,5.106410696823836,0.2475700957945833,0.0,0.003275952567176601,0.0,-0.004864554923794877,0.0,0.35,0.0,-0.1857237421938419,0.0,auto
1761259868.918155,22.777957439422607,9.066809664413029,0.0,5.10603329219875,0.24177345826568275,0.0,-0.02122626966240184,0.0,-0.023483576659838742,0.0,0.35,0.0,-0.3,0.0,auto
1761259869.0213027,22.881105184555054,9.092065175039009,0.0,5.10690811434085,0.23286791497730025,0.0,-0.006220280748808937,0.0,-0.020729927027702176,0.0,0.35,0.0,-0.08969231384935202,0.0,auto
1761259869.1248374,22.984639883041382,9.116644156399309,0.0,5.106628537291368,0.2277842423257507,0.0,-0.01668970444732494,0.0,-0.00809575227574344,0.0,0.35,0.0,-0.20267191901533918,0.0,auto
1761259869.228061,23.087863445281982,9.14051256379814,0.0,5.104660141140814,0.22181314406411728,0.0,-0.03370488929610407,0.0,-0.00038198766849447535,0.0,0.3571960830299526,0.0,-0.2586445319322066,0.0,auto
1761259869.3316069,23.19140934944153,9.16374740043076,0.0,5.102482586981587,0.2151546306965178,0.0,-0.03229841862791549,0.0,0.00017169540591948154,0.0,0.35,0.0,-0.22032019202139047,0.0,auto
1761259869.434945,23.294747591018677,9.186375457500956,0.0,5.100181543862026,0.2088857862009606,0.0,-0.01404873040412083,0.0,0.009229681482990033,0.0,0.35,0.0,-0.3,0.0,auto
1761259869.5401235,23.39992594718933,9.208782602121946,0.0,5.097389966468337,0.20392478871355801,0.0,-0.037786683120452115,0.0,0.017934338393521623,0.0,0.35823750050502845,0.0,-0.3,0.0,auto
1761259869.6440208,23.503823280334473,9.230230478558775,0.0,5.095010885445244,0.19625350631418972,0.0,-0.014804460574685199,0.0,0.017218269965611013,0.0,0.35,0.0,-0.3,0.0,auto
1761259869.7517276,23.6115300655365,9.251782514773177,0.0,5.093321822137207,0.19102145798978845,0.0,-0.034741584756850706,0.0,0.01682442176989588,0.0,0.35,0.0,-0.2125865720256599,0.0,auto
1761259869.8562565,23.71605896949768,9.271881871873445,0.0,5.09105005700529,0.18327136585795256,0.0,-0.03175994651414392,0.0,0.011153247537886199,0.0,0.35,0.0,-0.289227544081847,0.0,auto
1761259869.9608002,23.820602655410767,9.29142110666859,0.0,5.088548247143532,0.17773295247382576,0.0,-0.007272315671605823,0.0,0.010560728956689278,0.0,0.35,0.0,-0.3,0.0,auto
1761259870.0661423,23.925944805145264,9.31057493652077,0.0,5.08788842062186,0.1720696584768022,0.0,0.006485735579483029,0.0,0.008358509243345167,0.0,0.35,0.0,-0.3,0.0,auto
1761259870.1705377,24.03034019470215,9.329033917843859,0.0,5.087105692380481,0.16833058153776434,0.0,-0.0182574134186577,0.0,0.012877965247368357,0.0,0.35,0.0,-0.3,0.0,auto
1761259870.2746363,24.13443875312805,9.34691724978244,0.0,5.085404575795181,0.1621986267293878,0.0,-0.012427614516175238,0.0,0.016068862392331813,0.0,0.35,0.0,-0.3,0.0,auto
1761259870.3782794,24.23808193206787,9.36418969894451,0.0,5.082890469139783,0.159108046580213,0.0,-0.026538596271921344,0.0,0.02105984123664718,0.0,0.35,0.0,-0.3,0.0,auto
1761259870.4822276,24.34203004837036,9.381083538853067,0.0,5.08018992826317,0.15477311611028854,0.0,-0.029776722852590393,0.0,0.025898165208512534,0.0,0.396110960257279,0.0,-0.3,0.0,auto
1761259870.586322,24.44612455368042,9.397487554644849,0.0,5.077491332421988,0.14921665379777738,0.0,-0.00015215125020580714,0.0,0.02084565797370455,0.0,0.35,0.0,-0.3,0.0,auto
1761259870.6909792,24.550781726837158,9.413525501022558,0.0,5.074918859412608,0.14560410523661643,0.0,-0.016827992275644646,0.0,0.02415717820240262,0.0,0.4786583638980845,0.0,-0.3,0.0,auto
1761259870.7950325,24.654834985733032,9.429039139254705,0.0,5.074026559662714,0.14147568870254157,0.0,-0.011014038845460298,0.0,0.018515838827558074,0.0,0.35,0.0,-0.3,0.0,auto
1761259870.8967333,24.75653576850891,9.443840170827682,0.0,5.072259375758295,0.13809944512553052,0.0,-0.010579052693051871,0.0,0.024008596072925194,0.0,0.4691914675450816,0.0,-0.3,0.0,auto
1761259871.001778,24.86158037185669,9.458794027535122,0.0,5.071593026396636,0.13506070383632077,0.0,-0.015970657512086327,0.0,0.023350695189599185,0.0,0.4010542368626383,0.0,-0.3,0.0,auto
1761259871.1062589,24.96606135368347,9.47325375127574,0.0,5.070318854727188,0.1310328183689899,0.0,-0.0018444843825948798,0.0,0.02211591000254804,0.0,0.35,0.0,-0.3,0.0,auto
1761259871.2097309,25.069533348083496,9.487218104519599,0.0,5.070413826969211,0.12767474288852007,0.0,0.014821190567603323,0.0,0.022358991555098746,0.0,0.35,0.0,-0.3,0.0,auto
1761259871.3161373,25.175939798355103,9.501344843345807,0.0,5.069998846234099,0.12555348101676217,0.0,-0.0014722696227916915,0.0,0.02819063908516158,0.0,0.35,0.0,-0.3,0.0,auto
1761259871.4190483,25.2788507938385,9.50940036268716,0.0055075117863959905,5.1273642927537555,-0.030707583413392282,0.18173003685637495,1.0920866091050847,0.2015294712023042,0.17978849000549943,0.013623987977816263,1.0,0.3,0.3,-0.050891002985228646,auto
1761259871.526377,25.386179447174072,9.47670153237821,0.05675121439318603,5.2955510978141085,-0.6644894167697369,0.8587638472731627,2.020471004571614,0.4111423358614299,0.41422928937407993,0.032848352472849326,1.0,-0.3,-0.02981282192088769,-0.10617146846908407,auto
1761259871.6321983,25.492000818252563,9.369911478933036,0.18066863215737372,5.538779753952415,-1.2775759696803717,1.391568490592633,2.5281839264593087,0.19837068327809768,0.25078341225098827,0.040764663150031195,0.35,-0.3,-0.3,-0.10455489110969586,auto
1761259871.7356083,25.59541082382202,9.22259751168479,0.33718149297240096,5.825859880089557,-1.5498694099275232,1.6446747354858509,2.9588824713065462,0.25526909223337163,0.23087603692160158,0.03826048095234813,0.35,-0.3,0.04166951558692024,-0.07753183954478014,auto
1761259871.8384657,25.698268175125122,9.046092073535748,0.5205261297764932,6.1527751281751835,-1.8250149401661329,1.851159934865251,3.3333523711130857,0.038079878547577106,0.09110228389841708,0.03143300094329407,0.35,-0.3,-0.3,-0.052214111297781945,auto
1761259871.9441602,25.80396270751953,8.85414528645237,0.7142542721518312,6.523358491355705,-1.8028073293749451,1.8545147207140713,3.641284021200962,0.11590354328335513,0.0367556562048214,0.02492106412047444,0.35,-0.040050409899654714,0.3,-0.037581900920206454,auto
1761259872.0471,25.906902551651,8.663063947484932,0.910820438245848,6.918336476137893,-1.8811641382912314,1.9054774385903608,3.945371088921231,0.028829439744052034,0.014030571762499208,0.016955870625383708,0.6220580717522589,0.3,-0.22984490642710803,-0.017220708918585022,auto
1761259872.1508176,26.0106201171875,8.468609242967764,1.1108870267702913,7.339401942178735,-1.90135593266189,1.9356049503195853,4.219988701827928,-0.0011449042625727365,0.07780640120369231,0.01707595634957515,0.9630259295552253,0.3,-0.3,-0.03395806472616496,auto
1761259872.2548978,26.114700317382812,8.271702240448901,1.3129121023824843,7.783752244877811,-1.8802835885840206,1.9557232900346,4.320714871121522,0.013819589396331287,0.06853919166583017,0.018515765651514707,0.4232186883167317,-0.10184864085320797,0.04652640295644607,-0.04083346311827116,auto
1761259872.358478,26.21828055381775,8.07568179772932,1.5139936321494163,8.24394281807515,-1.8735352889366532,1.9504916739932212,4.508144297116697,0.06931624299274644,0.000670878611204212,0.022790031490476474,0.42847490596858795,-0.3,0.3,-0.05520777734192989,auto
1761259872.463803,26.32360553741455,7.8785550930764465,1.7179777091808897,8.72657564612268,-1.8549688836193206,1.9212563992712388,4.619807248005036,0.06039778197412134,-0.01489991401847453,0.023748607038668018,0.35,0.09514429732998231,0.3,-0.053371338660539586,auto
1761259872.5675454,26.427347898483276,7.6873207870073275,1.9169422536145115,9.214560989882404,-1.8289893231446839,1.8931985935788118,4.765081454052147,0.025126982386987514,-0.020780121558430453,0.019773893928143053,0.35,0.3,0.3,-0.036478681953639125,auto
1761259872.6717606,26.53156304359436,7.4981459696973,2.1137724794898674,9.715106931717402,-1.8014072908005783,1.8669587022114063,4.83911979096842,0.001852434445479891,-0.032087975050988336,0.014800484647323335,0.35,0.3,0.24701396107743698,-0.022776539101124774,auto
1761259872.7761579,26.635960340499878,7.311765458159579,2.3083717371496695,10.225150629763986,-1.787420538191352,1.84529581403071,4.92872213818423,-0.0431168863085903,0.005947762626845335,0.010420666304235422,0.640167871710849,0.3,-0.3,-0.014513901461877341,auto
1761259872.8784752,26.738277673721313,7.132153180341487,2.495311160432708,10.73130052587827,-1.7426230156184255,1.8230302787054025,4.968516379775294,-0.004378051217557789,0.05210182758562633,0.008842565060323923,0.35,-0.04527611986164118,-0.24629186708343606,-0.015280568162232517,auto
1761259872.990081,26.849883556365967,6.941878404861792,2.693735626040282,11.284397167886342,-1.6943588461615624,1.7868659518016055,5.0305579740534085,0.041903679456022816,0.055461985956782506,0.008418058386825912,0.4998040015839703,0.1842579787875589,0.3,-0.01782309645239653,auto
1761259873.0943923,26.95419478416443,6.763691941145993,2.8795782903512843,11.814940057619802,-1.6620314873590851,1.72427122213928,5.044860271700479,0.00020007727509071055,-0.024022379937151103,0.0004453820554583118,0.35,0.3,0.2703128634441844,0.00988152334823758,auto
1761259873.197898,27.057700395584106,6.592481465353333,3.0577791536810635,12.34108624590385,-1.6373853479413474,1.7026401048396065,5.09602787742898,-0.026829582467293923,-0.04745124669595821,-0.007649656230375248,0.35,0.2226683651932635,0.1687872467651705,0.030554369388945294,auto
1761259873.3016722,27.16147470474243,6.4252758406394745,3.232849895660525,12.870586718952378,-1.5997230375005498,1.6663897369674932,5.092261702101161,-0.03780779391109154,-0.018131859151896093,-0.012147046861498267,0.3730200299086153,0.3,-0.0016096664092348119,0.03347518660881008,auto
1761259873.4062066,27.266009092330933,6.2609267645008595,3.405313625835874,13.408312222612285,-1.557644828666349,1.6323217833240804,5.165465316547607,-0.03695834351017954,-0.011756321658971143,-0.01322343291915725,0.6159175346399071,0.0749618918669803,-0.2438089866224427,0.02828344693453556,auto
1761259873.5132813,27.37308382987976,6.0984268039684775,3.5761415152503777,13.962142287220821,-1.4886376425837475,1.5711036390941409,5.167854073018793,0.0449859594252278,0.04481879865566131,-0.016857223233154424,0.49430757036752454,-0.08861914298709975,-0.02127895472694477,0.03861519429603642,auto
1761259873.617507,27.477309465408325,5.943845176769752,3.738875524177643,14.50188628201968,-1.4554481112566957,1.5338495615903123,5.176561722668384,0.011622889148692191,-0.010331781592179718,-0.021198681623485163,0.35,0.3,0.3,0.048398567922984706,auto
1761259873.7206035,27.580405950546265,5.794584395669179,3.895942173828125,15.037676708223513,-1.426078030023241,1.4985284774506624,5.201398762047651,0.003766697370969563,-0.03310474867120516,-0.024797789965251154,0.35,0.3,0.3,0.055121241663664236,auto
1761259873.8244371,27.684239625930786,5.647689585212847,4.050474275494688,15.578819759948077,-1.3986274391291487,1.4609070702507707,5.219636515608243,-0.025963541751741797,-0.04866606169695349,-0.02336725074325571,0.5234665253540166,0.3,0.17399206328116634,0.04382683145581189,auto
1761259873.9276648,27.78746724128723,5.5056093413497535,4.200156572472933,16.11387202604976,-1.3687545466686524,1.4303582413906475,5.120860882003925,-0.027489701076950167,-0.013217764568057542,-0.019247082735438008,0.35,0.3,-0.06478831580056045,0.029639924392265853,auto
1761259874.0321157,27.891918182373047,5.365008730028248,4.348064141233544,16.6379676029016,-1.338529608071216,1.3971413786048483,4.920749574310649,-0.029399462907360344,0.015395211475091437,-0.012768660079826816,0.35,0.18602320438733777,-0.3,0.010781990027545036,auto
1761259874.1391518,27.99895429611206,5.224366276519106,4.496006583998726,17.155016124419202,-1.3003368744168728,1.3627382793015095,4.750004692460986,-0.033284164938025905,0.03746132945377071,-0.004831640801906797,0.35,0.2776503977910051,-0.3,-0.008177976181284729,auto
1761259874.246074,28.105876445770264,5.0872882045855246,4.640101356417972,17.65587765576093,-1.262795224800236,1.3311004399617081,4.6452492913385806,-0.039093659423475965,0.01706493492408958,0.00222712094928752,0.35,-0.27674618501617176,-0.3,-0.023596410071816648,auto
1761259874.3504996,28.210302114486694,4.9576937288394936,4.776053390408777,18.135413701805536,-1.2279470668411958,1.2932804858192815,4.537824952428542,0.012281959676800017,0.03763410780838217,-0.001111190521612666,0.35,-0.3,-0.3,0.0032171229539425562,auto
1761259874.4565597,28.316362142562866,4.82895957918005,4.911333396323598,18.60591314289316,-1.1968663915352449,1.2625138745389939,4.335520643026157,-0.008238643859093262,0.028912481226215866,-0.003909030530102066,0.35,-0.20398254768786417,-0.22121901126230908,0.011490271808172116,auto
1761259874.565921,28.425723552703857,4.700152527413022,5.046816679039306,19.068207708064385,-1.1630485805477184,1.240359051380823,4.162946772986862,0.011618568969645849,0.006053744075266005,-0.0029730729327803354,0.35,-0.3,-0.04160031559359623,0.003661067075557754,auto
1761259874.670839,28.530641555786133,4.578984263283025,5.175142190199577,19.497926086522924,-1.133799100481725,1.2048117289673776,3.9918350982146085,0.03383376477384008,0.025016239521366796,-0.00375679115782116,0.35,-0.2774352409838724,0.028162568957544327,0.007405415925453009,auto
1761259874.77647,28.636272430419922,4.46006366383582,5.300770721135546,19.913738061942734,-1.1010029490220017,1.1723744051265899,3.8736131363954662,0.026214649808667476,-0.01070012117299959,-0.006838216337253924,0.35,-0.07194394878145333,0.3,0.017798618463612765,auto
1761259874.881508,28.741310596466064,4.344783492507254,5.422633863150896,20.315400371552236,-1.0790914426494562,1.1397235527837726,3.7737639080324046,0.015394594095298239,-0.03785305337140152,-0.008044797796377479,0.35,0.015261528933899444,0.3,0.01764639986919451,auto
1761259874.9886994,28.848501920700073,4.229253869992412,5.543988008804558,20.7156376379821,-1.0723415243491838,1.1052745201977912,3.6996262374937787,-0.03940437176746005,-0.05284992506165182,-0.008405557352179323,0.35,0.3,0.08906145804353444,0.01845447234492661,auto
1761259875.095195,28.954997539520264,4.117270936052682,5.661152641399844,21.106234935343792,-1.0474494160791583,1.088847517382754,3.619353804884961,-0.052896927559359694,-0.018392544564535148,-0.009446140454787273,0.35,0.14656209129720688,-0.3,0.02002906047525414,auto
1761259875.2012029,29.061005353927612,4.0084777199453985,5.774902085574288,21.484600914422163,-1.0208578322127757,1.0657697525341492,3.5274845255040748,-0.03772405905016282,0.006549185882320226,-0.011036770737746868,0.35,-0.09081086077129741,-0.3,0.023677352570051206,auto
1761259875.3056557,29.16545820236206,3.9041908990543965,5.884209572849862,21.8481421935143,-0.9875909970211223,1.040010618672378,3.4343349233626848,-0.019245536426916805,0.03267841434476601,-0.011932302707729431,0.35,-0.13539555087033242,-0.2887029869173538,0.024883323740739847,auto
1761259875.408386,29.2681884765625,3.8041693567687065,5.989026821893236,22.196397993507677,-0.9567025585613275,1.0153692947595674,3.340975260296166,0.004924337249080549,0.02442981625407558,-0.008813739559587764,0.35,-0.3,-0.09193312791451466,0.011614311324989081,auto
1761259875.5109801,29.370782613754272,3.7067854140131677,6.091300323964666,22.534827590510833,-0.9330078166960616,0.9899769492297469,3.2477658389791584,0.02023841066787962,0.011848857873149585,-0.006268159601681178,0.35,-0.3,0.0024762085388917963,0.0061841088846721435,auto
1761259875.6145303,29.474332809448242,3.6109430677220393,6.1921125969330415,22.86555571932619,-0.906305560257908,0.9627707819536389,3.1468972108738926,0.01948513430996932,-0.002783201637454682,-0.004419985838033732,0.35,-0.2885638286187653,0.2041730697266489,0.004050021226558756,auto
1761259875.7167573,29.5765597820282,3.5186856923819456,6.289071253775694,23.18144025156387,-0.8844134519794187,0.9382879089981502,3.0451811796745956,0.02852922794658937,-0.028262946678772553,-0.0008379285151591909,0.35,-0.2663367705083052,0.3,-0.006343867433626674,auto
1761259875.8244743,29.684276819229126,3.4242972586678038,6.388997608573656,23.506514990843776,-0.8572717155203166,0.9058496138724018,2.9887785534238636,0.007610485994518731,-0.01660617531827004,-0.0030489561779389798,0.35,0.08367270396421496,0.2756354900735939,0.007809997591084294,auto
1761259875.9281878,29.78799033164978,3.3356216642208922,6.482595789429318,23.812397720941384,-0.838031057491702,0.8833458872051387,2.927743938503014,-0.01935799523504139,-0.04406095033927141,-0.009954836276238627,0.35,0.3,0.3,0.03158658337309514,auto
1761259876.0350983,29.894900798797607,3.246575828066983,6.576524871608768,24.120805972211482,-0.8238800853505955,0.8593935151565684,2.8377367922229095,-0.05641892856029646,-0.06261600546353478,-0.015188908596333985,0.35,0.3,0.13568539182297903,0.041843969315515636,auto
1761259876.140443,30.000245571136475,3.1619919560849623,6.6659703804578125,24.41830646853119,-0.8038601214100559,0.8423614328805943,2.78919474156788,-0.04328613237716286,-0.0006088210956042736,-0.017874317169911308,0.35,0.13949283339751137,-0.3,0.04229988294145402,auto
1761259876.244836,30.10463857650757,3.0799759708947803,6.752579040333819,24.705410946045177,-0.779718762318464,0.8227271794358336,2.7100556273085052,-0.042035332111042635,0.015787252531352956,-0.015758449356023257,0.35,0.07877482724369675,-0.3,0.028734415165210053,auto
1761259876.3491035,30.208905935287476,3.0000936750919656,6.836963378395093,24.9835538163148,-0.760262862034289,0.8048032922391971,2.6222345082701657,-0.03416621413390897,0.023501787611324237,-0.011723681085532721,0.35,0.0073652338233902055,-0.29375002350196766,0.015236234262633179,auto
1761259876.4506974,30.310499906539917,2.9242227524999165,6.917572572812304,25.2469035055517,-0.7308801921582903,0.8054929836017765,2.5869710912897004,0.046069399649766814,-0.02291134839074621,-0.010400312812152965,0.35,-0.3,-0.3,0.015262349578677056,auto
1761259876.555594,30.415396451950073,2.8490924268438524,7.000543725327423,25.516158904291306,-0.7194268524720313,0.7694598344557286,2.5513100337568715,0.015361309990041526,0.01093063168845126,-0.009612396270145636,0.35,0.14199442452510982,-0.3,0.017958906474384657,auto
1761259876.6614504,30.521252870559692,2.7745527671257317,7.082007379014054,25.782110199633102,-0.7010696694862375,0.7525789142745501,2.481206749806798,-0.02169908354321166,0.025674931025500558,-0.002174994367766041,0.35,0.2199690445625097,-0.3,-0.008864353341665535,auto
1761259876.7671711,30.626973628997803,2.701740434544748,7.161157776614239,26.03949052142707,-0.6815304364779431,0.7331933949482841,2.399007797998162,-0.038068913808877065,0.03386792971851524,0.0045698572664077675,0.35,0.25434538140071017,-0.3,-0.0238761678740566,auto
1761259876.8718245,30.731626987457275,2.6312862531954773,7.237160948687393,26.288445694700496,-0.6600461844152604,0.7116321191465862,2.3504133719064484,-0.04003011705163694,0.0274113589810642,0.009125619225311882,0.35,0.3,-0.011134526490276186,-0.030248396365662747,auto
1761259876.9785326,30.838335037231445,2.5610506082568745,7.312456934327156,26.537261049439245,-0.6427095073957962,0.6915927883465256,2.298552102858116,-0.044309161093419196,0.005002717837654245,0.00837993736000669,0.35,0.2794870373465252,0.07374622947742265,-0.018356974398905154,auto
1761259877.0822244,30.9420268535614,2.4947441688415615,7.383614609989124,26.771276136029567,-0.6237175273578035,0.6753781819000871,2.2296752456745663,-0.05242472324450109,-0.006485776580787192,0.005902261000585052,0.35,0.29042696198956985,0.27754003619105805,-0.008291694094372753,auto
1761259877.1877563,31.047558784484863,2.42871137840957,7.4540038158953665,27.003022399309813,-0.6123449535719762,0.6601631438381492,2.162419879563651,-0.049196011099970315,-0.03518003645338403,0.0025004256470151447,0.35,0.15357294553840184,0.3,0.0015464536406913304,auto
1761259877.2948794,31.15468192100525,2.363208818838726,7.523528504648479,27.231677111589963,-0.602516916687463,0.6449373264791037,2.1012365165797537,-0.044347862171968816,-0.049736637797130404,-0.0021741656318066856,0.35,0.026219466102938706,0.3,0.01389715969727946,auto
1761259877.4000516,31.259854078292847,2.3005919676836664,7.5897030071189,27.450377147450848,-0.5867028676945394,0.6293967972435396,2.053918615598313,-0.01495142350880901,-0.04907099305735173,-0.006069587369192652,0.35,-0.24980682015826014,0.2885649650200024,0.021091482611306986,auto
1761259877.5054092,31.365211725234985,2.239431789432474,7.6542329855394335,27.6632612771444,-0.5758058666228169,0.6094326573259148,1.9869548547280151,0.0037183789591571166,-0.04617340762589728,-0.005517456100347656,0.35,-0.3,0.13097971873954734,0.011732138828674028,auto
1761259877.6100411,31.46984362602234,2.1801658276648452,7.716434703743141,27.867688625012047,-0.5618205513196224,0.5918108246254551,1.9128085573540368,0.026686653603695754,-0.04455238227133062,-0.0025423182214142025,0.35,-0.3,0.05854457266989187,-0.00046132689292543126,auto
1761259877.7144773,31.57427978515625,2.1227216335472407,7.7770778152029,28.065990034469973,-0.5515702434816856,0.5735178102474545,1.8797168810875098,0.028811277995327695,-0.022863267912883033,0.0020484656912125635,0.35,-0.26970319372924273,-0.1922679036798996,-0.013871345711427601,auto
1761259877.8179388,31.677741289138794,2.067262194576926,7.8354983408904655,28.25719552523488,-0.5357160192559547,0.5535610409046107,1.8201069582067002,0.02544641850339907,0.0035271484928876204,0.0036952332531879264,0.35,-0.11412041551948862,-0.3,-0.012268249655112098,auto
1761259877.9230576,31.782860040664673,2.0125603335113404,7.892971720309445,28.44442925120961,-0.5223237438929402,0.5365358363933647,1.761701449897098,0.014346892845515519,0.015665344977327293,0.004703917748068256,0.35,0.021521003028733332,-0.3,-0.012001821201289552,auto
1761259878.0267172,31.88651967048645,1.95954657466978,7.948613403238331,28.62502551061376,-0.5033212756558402,0.520992283101433,1.7048218049974466,0.005822143441046722,0.02850053524783283,0.004753648521751402,0.35,0.11602917235961398,-0.3,-0.010092685157400378,auto
1761259878.1293325,31.989135026931763,1.9087475679963979,8.002050298281,28.79709152353386,-0.4874502285952951,0.5071079164153598,1.6499004190854312,-0.01065681137726359,0.030294737229033437,0.002757420824982955,0.35,0.27351812684284105,-0.19661548924708214,-0.0022680097833249506,auto
1761259878.2338634,32.09366583824158,1.8582508542371232,8.05517619815952,28.967253318375988,-0.4717397959391709,0.4954039898154149,1.6021670862691597,-0.026882888582204716,0.01925882541631516,0.0003930021515576071,0.35,0.3,-0.03899051346151263,0.0035934455054632813,auto
1761259878.337426,32.19722843170166,1.8095299843090562,8.106421940462246,29.130547523840438,-0.4585230063645449,0.4823200232087561,1.5564749086285612,-0.03910723784940151,0.007758917565800882,-0.0028080512333278646,0.35,0.3,0.11817587470488207,0.011571852761691218,auto
1761259878.442085,32.30188751220703,1.7615422571705852,8.156871725754025,29.290429423207446,-0.4455260309859194,0.4740855237655835,1.511435609490977,-0.05072777387102929,-0.0033329134500900168,-0.004864587157146926,0.35,0.3,0.2890090409028114,0.014051826534347401,auto
1761259878.5488908,32.40869331359863,1.7138303275418774,8.206920069894752,29.448925996969457,-0.43450093741669343,0.4627020134447697,1.4588385691433705,-0.04960228597388906,-0.013144127105135139,-0.005049481885250198,0.35,0.21355324310522394,0.2773746032628185,0.011037566492234285,auto
1761259878.653714,32.513516426086426,1.6682426015950491,8.254613871885413,29.598871696900037,-0.42237430697125883,0.4516499285881192,1.4014885494976097,-0.044489105516163585,-0.025246492314973164,-0.0036892166885959432,0.35,0.11543031359924333,0.3,0.00524178664226646,auto
1761259878.7553277,32.61513018608093,1.625126661223621,8.299565174925409,29.739275519744275,-0.41465599313726814,0.4435516478844368,1.3538943305429654,-0.026744404224628496,-0.06757753066699165,-0.0035162148078892964,0.35,-0.3,0.10681701763143997,0.005341988899455693,auto
1761259878.8596408,32.71944332122803,1.5835454805820495,8.343546024276419,29.879800427195253,-0.40255198199536524,0.4212077402959109,1.3346180306939202,0.03999295438509965,-0.0046976900461941085,-0.007204110845847203,0.35,-0.3,-0.2214156101855067,0.02045199021075363,auto
1761259878.9668255,32.82662796974182,1.5413960371247555,8.38806794809981,30.019685250835153,-0.39480821396632887,0.4092649132586113,1.277495971415464,0.029828895104925424,-0.009602405240854813,-0.008202389775559028,0.35,-0.20134043723792755,-0.23145454048147932,0.019263659997898468,auto
1761259879.0737007,32.93350315093994,1.5004269265657664,8.43120526006678,30.153133158405716,-0.383892565930257,0.39412801508332795,1.2158546575387732,0.030032362868663797,-0.00590998207775072,-0.004822665755365305,0.35,0.0007459288059218361,-0.19547939367054906,0.004973957758868826,auto
1761259879.1796086,33.03941106796265,1.4610395703182892,8.473088277138254,30.279336366857006,-0.3744283096747815,0.38401370681852615,1.1736704106939704,0.007536064052191285,0.013534936026612042,0.0013913156869236787,0.35,0.09661487336309978,-0.3,-0.014345167009713241,auto
1761259879.2843525,33.14415502548218,1.4230771545013627,8.513456543149609,30.398963226034926,-0.3613141947510655,0.3749942585806903,1.1181789661088157,-0.0019164476579184714,0.032488503915309934,0.0060535281592300075,0.35,0.17117905492755753,-0.3,-0.022502360003301462,auto
1761259879.390036,33.24983859062195,1.3856723805057083,8.553273301101166,30.514182309277853,-0.3485450355148427,0.36552272185058926,1.0695661156445233,-0.010991259106637865,0.03556927116108472,0.006844196450921665,0.35,0.2511982117529402,-0.23806429852454025,-0.017343633319639534,auto
1761259879.4975052,33.35730767250061,1.3486423301653954,8.59298012109021,30.62700042280103,-0.3341729839869539,0.35821961709182226,1.0327018165900823,-0.03703186607082583,0.025550504827270296,0.005526837480055524,0.35,0.3,-0.05669791977787822,-0.010164869899107266,auto
1761259879.6017418,33.46154427528381,1.3137266125044622,8.630415030851255,30.732332073737393,-0.3249355869816236,0.3536237423678564,0.9810276027900486,-0.04504093107606518,0.012440051488471153,0.005814801561586947,0.35,0.28684213461895847,0.09817168640160115,-0.012398577758135163,auto
1761259879.7072053,33.56700778007507,1.2791343987144963,8.667389971974476,30.834162596977556,-0.31681565904658104,0.3455862517041737,0.9469339098594715,-0.04746756572881956,-0.00313006501549723,0.006531885267589239,0.35,0.24317240874842477,0.2687452700317768,-0.014937617309430318,auto
1761259879.8118412,33.67164373397827,1.2456298826352703,8.703049454001222,30.930997260032786,-0.3094942865609703,0.33812294328350495,0.9037749651977319,-0.0453274013514781,-0.01962109952848312,0.005775145310688189,0.35,0.15388211251387818,0.3,-0.010791637013893622,auto
