timestamp,simulation_time,position_x,position_y,position_z,velocity_x,velocity_y,velocity_z,attitude_roll,attitude_pitch,attitude_yaw,angular_velocity_x,angular_velocity_y,angular_velocity_z,acceleration_x,acceleration_y,acceleration_z,motor_speed_1,motor_speed_2,motor_speed_3,motor_speed_4,control_throttle,control_roll,control_pitch,control_yaw,estimated_position_x,estimated_position_y,estimated_position_z,estimated_velocity_x,estimated_velocity_y,estimated_velocity_z,estimated_attitude_roll,estimated_attitude_pitch,estimated_attitude_yaw,sensor_accel_x,sensor_accel_y,sensor_accel_z,sensor_gyro_x,sensor_gyro_y,sensor_gyro_z,sensor_gps_x,sensor_gps_y,sensor_gps_z,sensor_gps_vx,sensor_gps_vy,sensor_gps_vz,sensor_baro_altitude,sensor_mag_x,sensor_mag_y,sensor_mag_z,flight_mode,battery_level,gps_fix,waypoint_index,mission_complete,setpoint_altitude,setpoint_position_x,setpoint_position_y,setpoint_position_z,position_error,attitude_error
1760879325.7671952,0.10972905158996582,-9.582974220543396e-14,-1.0709145580687346e-15,0.058981009683347387,-3.4726487529613218e-12,1.5465355074959702e-13,1.0736231567476644,5.378201038758441e-07,4.638282601098268e-06,-2.1512802993770627e-08,,,,,,,,,,,0.0,0.042840536493096076,1.0,-0.011421974431805326,-0.04070469814556476,0.15050353510617034,-0.8092119249853034,-0.014554230965715174,0.002070548239761537,0.9497613242621475,0.002534395666037927,-0.0009182483306766424,0.019929364736914604,,,,,,,,,,,,,,,,,auto,85.0,True,0,False,-10.0,15.0,0.0,-10.0,17.62713914878787,0.020110840862723706
1760879325.8725522,0.2150859832763672,-1.3896712018444164e-12,1.5723080567253086e-13,0.22577946013596145,-2.5698062288159596e-11,3.728971566265449e-12,2.0889640885523133,2.9554022559443747e-06,1.7761183320185504e-05,-1.1821606040508654e-07,,,,,,,,,,,0.0,0.03333430502800423,1.0,0.1553347227490094,-0.042228101668036463,0.15071184100391197,0.07470289684126057,-0.013631506642359077,0.0017741644293668443,1.9657060732383487,0.003416120387586774,-0.0026518209741558845,-0.06724121559371674,,,,,,,,,,,,,,,,,auto,85.0,True,0,False,-10.0,15.0,0.0,-10.0,18.10499872359156,0.0673801388207397
1760879325.979233,0.32176685333251953,-6.897032251631882e-12,9.702279438029685e-13,0.5022031798170766,-8.517705117222733e-11,1.2069109503886674e-11,3.087160523260277,4.645496148885059e-06,3.963322918888309e-05,-1.858197260891632e-07,,,,,,,,,,,0.0,-0.08092573224241721,1.0,-0.24144195740851673,-0.41747488974131264,-0.20949728869114925,0.5156017261303153,-0.012016277112035947,-0.00868137200128375,3.012229587947893,-0.0007650506754526252,-0.0032557969824110297,0.12354525563365419,,,,,,,,,,,,,,,,,auto,85.0,True,0,False,-10.0,15.0,0.0,-10.0,18.663341092965315,0.12359051624664269
1760879326.0869644,0.42949819564819336,-2.1755520203759474e-11,2.8441809419421346e-12,0.887188561723594,-2.0166568733400603e-10,2.2848270053210322e-11,4.051727583926884,5.0960531506490745e-06,7.053537841912285e-05,-2.0384186895917204e-07,,,,,,,,,,,0.0,-0.23864629507386614,1.0,-0.013796567441600072,-1.0832106842009406,-0.7572749874643331,0.7654635831957424,-0.03400805191200863,-0.02839019855936684,3.956776475703193,-0.006264338422743194,-0.005103204252464277,0.030186396143517716,,,,,,,,,,,,,,,,,auto,85.0,True,0,False,-10.0,15.0,0.0,-10.0,19.368488260061707,0.03124905025197418
1760879326.1940646,0.5365984439849854,-5.302713211283265e-11,5.788675437352077e-12,1.3701120838649827,-3.980125489645606e-10,3.0994088462246604e-11,4.956721869837627,2.199288725953707e-06,0.00011027423203012342,-8.797122721642993e-08,,,,,,,,,,,0.0,-0.13770127910765945,1.0,0.2543390400093487,-0.883412429217289,-0.6098770816074203,1.3785108719340824,-0.04528849692823515,-0.05544619056337469,4.887631876350119,-0.0073258413258154315,-0.010168601061158427,-0.11857981291287913,,,,,,,,,,,,,,,,,auto,85.0,True,0,False,-10.0,15.0,0.0,-10.0,19.548024199749864,0.11924026345628994
1760879326.3017523,0.6442861557006836,-1.1006293473815466e-10,9.098503765129854e-12,1.9501227715220604,-6.765926989869815e-10,2.8187909025544148e-11,5.804441845260398,-4.00587622429662e-06,0.00015940653878002072,1.6023509376628164e-07,,,,,,,,,,,0.0,-0.14255347719477207,1.0,0.007459675277084214,-0.8882643733328247,-0.6159527621952092,1.742514421016542,-0.04399219064317918,-0.057403462391834116,5.740496447025396,-0.007389198085688418,-0.01347867549434771,0.0007368319846125584,,,,,,,,,,,,,,,,,auto,85.0,True,0,False,-10.0,15.0,0.0,-10.0,19.766208223378467,0.015388887640275333
1760879326.4090831,0.7516169548034668,-2.0192955788376547e-10,1.129366717899454e-11,2.6154645949495974,-1.0602838590568938e-09,9.520547478199738e-12,6.582031262145865,-1.2120114846459836e-05,0.00021730131574869362,4.848037489651192e-07,,,,,,,,,,,0.0,-0.15931436503630056,1.0,0.22467685277297963,-0.8927020051950055,-0.6221935422794912,2.3389063151805054,-0.0379750456451276,-0.05837776370477733,6.5242444292545345,-0.003989321238431507,-0.015185854576078312,-0.10404492336754789,,,,,,,,,,,,,,,,,auto,85.0,True,0,False,-10.0,15.0,0.0,-10.0,20.129920786848242,0.1052229582444255
1760879326.5171437,0.8596775531768799,-3.40914976157093e-10,1.049597966016847e-11,3.362168366102261,-1.541093261568738e-09,-2.7657909644003268e-11,7.291244128576687,-2.2444280141010352e-05,0.00028433352884377867,8.977685246027237e-07,,,,,,,,,,,0.0,0.18162787119073026,1.0,0.07406886361856993,0.30971234647765167,0.2753202620567191,3.353761404596445,-0.024564789388392533,-0.1075621527629377,7.236023667667999,-0.004652392808434705,-0.012898549571444642,-0.05399565887484653,,,,,,,,,,,,,,,,,auto,85.0,True,0,False,-10.0,15.0,0.0,-10.0,19.854553539196488,0.05570950113957029
1760879326.622321,0.9648547172546387,-5.345045977427859e-10,4.751668338451948e-12,4.166523811066283,-2.1425105587308732e-09,-8.364085283711092e-11,7.9196239734657485,-3.1225873910960816e-05,0.00035882717300069427,1.249029377826739e-06,,,,,,,,,,,0.0,-0.24877725352100108,1.0,0.0006469553417799961,1.1579602683319918,-0.6143734717343827,4.124771626338856,0.035448390796357296,-0.02823720613560277,7.818145397335496,-0.005645999559934091,-0.01162832423577469,0.0022951820273289653,,,,,,,,,,,,,,,,,auto,85.0,True,0,False,-10.0,15.0,0.0,-10.0,19.786073187777152,0.013128712659726195
1760879326.727755,1.070288896560669,-7.98857619376305e-10,-7.809314787047284e-12,5.031658448679385,-2.8950158277467294e-09,-1.5779319507180465e-10,8.480492294891215,-4.157999080326794e-05,0.0004418939956719322,1.66319001595419e-06,,,,,,,,,,,0.0,-0.18093512686556806,1.0,0.14563413129750882,0.8075727508027267,-0.5859078624977309,4.63632127408438,0.05054301209587935,-0.043508415902870065,8.37564258919177,-0.003820525674019276,-0.01298605588990056,-0.07517314165566781,,,,,,,,,,,,,,,,,auto,85.0,True,0,False,-10.0,15.0,0.0,-10.0,20.39583731267998,0.07638216604931128
1760879326.8368976,1.179431438446045,-1.160808438462094e-09,-2.9990235459638396e-11,5.981352934134858,-3.798481425182617e-09,-2.553037081368451e-10,8.992579001570524,-5.575678905454963e-05,0.0005366778842597549,2.230256000843956e-06,,,,,,,,,,,0.0,-0.014437740877975648,1.0,-0.04052869328384651,0.8340161633960204,-0.16074183245663412,5.811830301939566,0.019044689455346174,-0.02622637545683128,8.914447042562479,1.0865630483434e-05,-0.010646247692684109,-0.005131724928627346,,,,,,,,,,,,,,,,,auto,85.0,True,0,False,-10.0,15.0,0.0,-10.0,21.230047420883473,0.011818515504876358
1760879326.9449592,1.2874929904937744,-1.6262626352371527e-09,-6.38926314345982e-11,6.982589236164957,-4.798713282889612e-09,-3.73010933759503e-10,9.441925280117486,-7.069312382505978e-05,0.0006405320986811509,2.827701077579368e-06,,,,,,,,,,,0.0,0.19987441928892402,1.0,0.09560647007774742,1.2473729366284272,0.34475705012782437,6.89074836829208,0.02216448495766595,-0.00765987841791211,9.344674024517996,-0.0012883971617831476,-0.007697179002442393,-0.04590703327323189,,,,,,,,,,,,,,,,,auto,85.0,True,0,False,-10.0,15.0,0.0,-10.0,21.78419126359192,0.04656567658470937
1760879327.053898,1.3964319229125977,-2.2095160893453207e-09,-1.1193575409019441e-10,8.028079903299734,-5.975441988518348e-09,-5.151984523824165e-10,9.833453909975322,-8.425151617194417e-05,0.0007532587552294475,3.3700259910280646e-06,,,,,,,,,,,0.0,0.026362675382214325,1.0,0.0960954352857263,0.5173959525092807,0.09166830604138083,7.719693313078986,0.011036518077624376,-0.0363456247445831,9.71411507353324,0.0033878421405336336,-0.01542033533362166,-0.042064853716333575,,,,,,,,,,,,,,,,,auto,85.0,True,0,False,-10.0,15.0,0.0,-10.0,22.88540482893635,0.044930125020380914
1760879327.1622038,1.5047376155853271,-2.92561866810923e-09,-1.7601976674905153e-10,9.111980017764242,-7.272907799446032e-09,-6.707634068135265e-10,10.172800851199668,-9.751861655449886e-05,0.00087480255486689,3.900696763173415e-06,,,,,,,,,,,0.0,0.034076423945284255,1.0,-0.05055752572298099,0.5192921004880318,0.08764982011524246,9.198562787106834,0.023526446538771326,-0.03844333429292897,10.058391096653153,-0.001089890955492634,-0.019203577160184004,0.01478108197625122,,,,,,,,,,,,,,,,,auto,85.0,True,0,False,-10.0,15.0,0.0,-10.0,24.04752371560194,0.02425789814536008
1760879327.2691529,1.6116867065429688,-3.788137463771513e-09,-2.5763998139413053e-10,10.21580993616778,-8.833993234462168e-09,-8.51623378425498e-10,10.462392902292615,-0.0001082573229132166,0.0010039142932254522,4.3302294853713975e-06,,,,,,,,,,,0.0,0.2171969098721785,1.0,-0.06344164675494743,0.3557823188748154,0.6901944293017489,10.081785456157608,0.0024834911994694245,-0.04918108774964045,10.348097347075436,0.002827163766314765,-0.02412384133800131,0.021772901066000813,,,,,,,,,,,,,,,,,auto,85.0,True,0,False,-10.0,15.0,0.0,-10.0,24.863780624626695,0.03261919368550491
1760879327.3733504,1.7158842086791992,-4.798225279768629e-09,-3.5612596620475445e-10,11.32437239049783,-1.048080000971883e-08,-1.0291170849031775e-09,10.707013280917261,-0.00011527842171913314,0.0011390597818378137,4.611056386853477e-06,,,,,,,,,,,0.0,0.1994593359804994,1.0,0.013513888410220772,0.3570852053452684,0.6850974006155154,11.338131585027197,0.021650982369132134,-0.04837924552965694,10.596154810028192,0.0006213167236096642,-0.026625936066050206,-0.00873899609909348,,,,,,,,,,,,,,,,,auto,85.0,True,0,False,-10.0,15.0,0.0,-10.0,25.888224575505056,0.028030279318701074
1760879327.48048,1.8230137825012207,-6.018906473822733e-09,-4.760052562878454e-10,12.48323340897296,-1.2309539819027964e-08,-1.205038766880783e-09,10.922202154301052,-0.00011887975648174915,0.0012862927190929233,4.75509114115396e-06,,,,,,,,,,,0.0,0.1726620331946629,1.0,-0.061786360022598685,0.36061859311197536,0.6799366662051772,12.559074953421758,0.04517814395084642,-0.04883205856757361,10.815025123892298,0.0034795282281587982,-0.026110484860347696,0.023280066567254697,,,,,,,,,,,,,,,,,auto,85.0,True,0,False,-10.0,15.0,0.0,-10.0,26.901406368450143,0.035154317454742456
1760879327.5901144,1.9326481819152832,-7.476253550493991e-09,-6.172819295962162e-10,13.6912694305383,-1.4313742152879784e-08,-1.370855216952562e-09,11.110287237161318,-0.0001204171344736685,0.0014461385942131108,4.81656659424275e-06,,,,,,,,,,,0.0,0.15757100918744735,1.0,-0.0737062453463319,0.3669349469170343,0.6748436883587361,13.83232508032659,0.0704115253167496,-0.04350572006862261,11.007170944620455,0.007052071489558196,-0.025977980354946854,0.017553468999536574,,,,,,,,,,,,,,,,,auto,85.0,True,0,False,-10.0,15.0,0.0,-10.0,27.974304738202868,0.032135828128951896
1760879327.6997662,2.04229998588562,-9.16725201287005e-09,-7.763666861839627e-10,14.918539464765752,-1.6581806653190923e-08,-1.5300362918626214e-09,11.270211369139476,-0.00011990266717979477,0.0016153585070680895,4.795968041727421e-06,,,,,,,,,,,0.0,0.17860743571497611,1.0,0.162336893289876,0.62814426426825,0.695904914590905,14.932975829591287,-0.0027547710680825145,-0.06291993865865761,11.189388404780487,0.00498243728211634,-0.019669796708340702,-0.0868131111231558,,,,,,,,,,,,,,,,,auto,85.0,True,0,False,-10.0,15.0,0.0,-10.0,28.786938091047833,0.08915291272134114
1760879327.8079274,2.150461196899414,-1.1088755613963491e-08,-9.494366990285053e-10,16.14498008797692,-1.8999093468662427e-08,-1.6681215049692018e-09,11.404151959980165,-0.00011613866929618358,0.0017915707442390507,4.645389127150384e-06,,,,,,,,,,,0.0,0.19256958148751344,1.0,-0.005977225513885496,0.6290525770162838,0.6892379765905968,16.304093660442224,0.020106996900995506,-0.06045551317850462,11.325621591832396,0.0007494525737472483,-0.022896573263042803,0.002897006512608111,,,,,,,,,,,,,,,,,auto,85.0,True,0,False,-10.0,15.0,0.0,-10.0,29.98173647605912,0.023091283920221424
1760879327.9166243,2.259158134460449,-1.329746397775187e-08,-1.137388793939958e-09,17.390952105590813,-2.1661585239300147e-08,-1.7847285867176274e-09,11.518302957427762,-0.00010853339812970695,0.001978030911778994,4.341160850149327e-06,,,,,,,,,,,0.0,0.18587908492393113,1.0,-0.05192671059970379,0.6325291425597455,0.6827054973812275,17.32899284502112,0.043108304095427354,-0.06003296204252732,11.441348201683606,7.848828061028289e-05,-0.022229316105329702,0.02970561232893519,,,,,,,,,,,,,,,,,auto,85.0,True,0,False,-10.0,15.0,0.0,-10.0,30.88307231411352,0.03710218401600976
1760879328.0264888,2.3690226078033447,-1.5814354884650573e-08,-1.33710084037633e-09,18.654780794446314,-2.4402170292027248e-08,-1.863502047838813e-09,11.615359512733678,-9.717695724581889e-05,0.0021748259011316416,3.886888646015481e-06,,,,,,,,,,,0.0,0.1676731131910182,1.0,0.21663391594326692,0.6384793020293285,0.6762134931931222,18.620461191649028,0.06565184417448514,-0.05814322722176744,11.539980823094872,0.0037465703524454993,-0.022928455740356773,-0.10630442750476016,,,,,,,,,,,,,,,,,auto,85.0,True,0,False,-10.0,15.0,0.0,-10.0,32.02875801946283,0.10881352020387049
1760879328.1340957,2.4766294956207275,-1.8624335604870237e-08,-1.5420088027545232e-09,19.916326525079455,-2.744282936008283e-08,-1.9123089063185714e-09,11.696602522470805,-8.30117317717984e-05,0.002379070025814215,3.3202692657414596e-06,,,,,,,,,,,0.0,0.30816023480007615,1.0,0.11370552280498271,0.017285952378860638,1.0182656396251508,20.146694547873082,0.0690119171627459,0.014350581383021352,11.6442656602748,-0.0026536888134911303,-0.018801787166987216,-0.09079705024166448,,,,,,,,,,,,,,,,,auto,85.0,True,0,False,-10.0,15.0,0.0,-10.0,33.67999075576455,0.09276127207827024
1760879328.2405179,2.5830516815185547,-2.1720760451863648e-08,-1.7465850857067324e-09,21.16480023337755,-3.081341352397758e-08,-1.926350483346435e-09,11.76418205496465,-6.560641997193748e-05,0.0025890252497828927,2.624051773821433e-06,,,,,,,,,,,0.0,-0.49534491081991083,1.0,-0.10237003284862001,1.2091590498635347,-0.7733585986058833,21.238525287047004,0.1049563150990043,0.049739158420923954,11.80142203068878,0.002265275190287414,-0.020633505622615667,0.044644964173828044,,,,,,,,,,,,,,,,,auto,85.0,True,0,False,-10.0,15.0,0.0,-10.0,34.15597809671791,0.049234600151200916
1760879328.349356,2.691889762878418,-2.5283767676098835e-08,-1.955387669051642e-09,22.448458884099466,-3.465005469694037e-08,-1.903390597376803e-09,11.822563556669305,-5.0132618781970935e-05,0.00281358821560814,2.0051006672743434e-06,,,,,,,,,,,0.0,-0.3143596387670425,1.0,0.12288221937515646,1.2219178865088682,-0.7678086401397525,22.207009158235213,0.12997062298650228,0.052730087876505106,11.860610944480236,0.0032077193309233655,-0.020967117625663154,-0.05505595658006647,,,,,,,,,,,,,,,,,auto,85.0,True,0,False,-10.0,15.0,0.0,-10.0,35.03878587726213,0.05900057491059336
1760879328.4580324,2.8005661964416504,-2.924581751599656e-08,-2.158697329238982e-09,23.73004591431407,-3.845677521769317e-08,-1.8497728335084114e-09,11.871465978290514,-4.064480009014067e-05,0.0030466626294332264,1.6255933540045485e-06,,,,,,,,,,,0.0,0.06384158371691108,1.0,0.03592566803477551,0.9919342675856226,-0.05685514012960262,23.64311271048066,0.035547572822572246,-0.007687303863412655,11.896373422298648,0.001720304754406276,-0.02068662949894403,-0.02020761770907828,,,,,,,,,,,,,,,,,auto,85.0,True,0,False,-10.0,15.0,0.0,-10.0,36.44294404848086,0.02896970662521228
1760879328.566991,2.909524917602539,-3.363120496280747e-08,-2.35628530131718e-09,25.025867807327746,-4.2084904612810985e-08,-1.7750761248149246e-09,11.912948346490234,-3.2347420969457204e-05,0.003290722431591631,1.293706898918206e-06,,,,,,,,,,,0.0,-0.027606057217953884,1.0,0.07126402623017336,0.6741755498815442,-0.16953089781358235,25.20464337975028,0.03318443593600175,0.02141375375345749,11.933943617537924,0.0012364276657607944,-0.02098271969456618,-0.03649078572897255,,,,,,,,,,,,,,,,,auto,85.0,True,0,False,-10.0,15.0,0.0,-10.0,38.008221510566905,0.04211152718996523
1760879328.6763163,3.018850088119507,-3.843373285998118e-08,-2.545627872352729e-09,26.330150210041563,-4.5797592683068697e-08,-1.687072720514132e-09,11.947944676341017,-2.44070273248973e-05,0.0035447238411427883,9.761031498487007e-07,,,,,,,,,,,0.0,-0.054130962321694356,1.0,-0.1844075167529742,0.6793399417876429,-0.16692905857917753,26.350940582379717,0.06242692244892711,0.026969427355979285,11.969343865799111,0.004967227041184654,-0.02296549828926499,0.09915541217865456,,,,,,,,,,,,,,,,,auto,85.0,True,0,False,-10.0,15.0,0.0,-10.0,39.07044984431556,0.1019013406215629
1760879328.7828834,3.1254172325134277,-4.352050435446545e-08,-2.7204385042371306e-09,27.60503953094405,-4.9694578784695465e-08,-1.5920749149356647e-09,11.976670057986647,-1.6735989342663645e-05,0.00380106705267723,6.692765013829658e-07,,,,,,,,,,,0.0,-0.05016048984081069,1.0,-0.04368796196780713,1.5712277461939703,-0.18272123804800686,27.673837087857375,0.06394289782200668,0.006353939372189848,12.039687753404118,0.001988537691169732,-0.025977814242500542,0.03421902056441911,,,,,,,,,,,,,,,,,auto,85.0,True,0,False,-10.0,15.0,0.0,-10.0,39.99604120682249,0.04300863266084153
1760879328.8891835,3.231717348098755,-4.9044424559399685e-08,-2.885034868633203e-09,28.88555655260437,-5.387413045171137e-08,-1.489272951659596e-09,12.00094931225834,-9.940448585269795e-06,0.004066636843065881,3.974728252475812e-07,,,,,,,,,,,0.0,-0.23751985103191392,1.0,0.046642268975139414,0.8509833797543355,-0.6487102844690689,28.911523179289745,0.07615890640029266,0.06896507559307116,12.074452524504482,0.0011666304234175034,-0.025353083423037777,-0.012602587797706618,,,,,,,,,,,,,,,,,auto,85.0,True,0,False,-10.0,15.0,0.0,-10.0,41.40920347562323,0.02833663855857395
1760879328.9971008,3.339634656906128,-5.507091114907826e-08,-3.0392852507355806e-09,30.175731599558656,-5.836933309406968e-08,-1.3828539351523546e-09,12.0215207902566,-5.915667361137916e-06,0.004342626886113635,2.3650200995006274e-07,,,,,,,,,,,0.0,-0.1332298901114027,1.0,-0.14853027666428012,0.8276980454916569,-0.4512233130872087,29.94390298255965,0.04912120244037604,0.011294381749983847,12.078615895308047,0.002669561207989948,-0.028115543536290092,0.07724352415919218,,,,,,,,,,,,,,,,,auto,85.0,True,0,False,-10.0,15.0,0.0,-10.0,42.38600158835665,0.0822445886968616
1760879329.1040907,3.446624517440796,-6.162960430586713e-08,-3.1823600620753416e-09,31.468952635979605,-6.376751317291688e-08,-1.2804318208381351e-09,12.038851120660398,-5.391926048974342e-06,0.004628052746632262,2.1557392713717844e-07,,,,,,,,,,,0.0,-0.2406836778716137,1.0,-0.005908144638864217,0.6689523346960453,-0.7588998602723724,31.455424448588946,0.05718739754830607,0.05079769991828574,12.099142954319133,0.003883590615885767,-0.030505198956487792,-0.0023232451470092674,,,,,,,,,,,,,,,,,auto,85.0,True,0,False,-10.0,15.0,0.0,-10.0,43.86920414591312,0.03083904842014101
1760879329.2114537,3.553987503051758,-6.875362512304445e-08,-3.314839372588001e-09,32.76228410042893,-6.879206773244697e-08,-1.1896671471884222e-09,12.053418577132922,-8.401866406532901e-06,0.00492255897482835,3.359922530802297e-07,,,,,,,,,,,0.0,0.030717611733794115,1.0,-0.051703323602141166,-0.5812318838081492,-0.11468309841603196,32.69795429214022,0.11609378422957396,0.04432420937205577,12.084701034822984,0.002095131886701558,-0.03368951256621676,0.04236946531233149,,,,,,,,,,,,,,,,,auto,85.0,True,0,False,-10.0,15.0,0.0,-10.0,45.4522083067892,0.05417143551194496
1760879329.3180807,3.660614490509033,-7.634230648921122e-08,-3.437424337576012e-09,34.04817182172252,-7.36352722186351e-08,-1.111683776873762e-09,12.065600483221973,-1.0657303254613112e-05,0.00522376244164154,4.26229081652343e-07,,,,,,,,,,,0.0,0.004821618522020222,1.0,-0.10172323262075858,0.14921087590573828,-0.03233902786318317,33.87089351828771,0.14977475238323043,0.03914077673430836,12.083673857485325,0.004777623738044192,-0.034473258982458614,0.06149547187602556,,,,,,,,,,,,,,,,,auto,85.0,True,0,False,-10.0,15.0,0.0,-10.0,46.316328454595556,0.07066062789636841
1760879329.4254038,3.767937660217285,-8.452195716435568e-08,-3.553016855149774e-09,35.343660202658455,-7.879031648222883e-08,-1.04407907654614e-09,12.075923575044621,-1.2767991030337418e-05,0.005535700293340259,5.106750309703898e-07,,,,,,,,,,,0.0,-0.022939148732005768,1.0,-0.08352851973417366,-0.032590853747255843,-0.022871106192129727,35.24252739445047,0.14079506934697386,0.012128060848975317,12.051984575901466,0.00835269971480762,-0.03237619345025924,0.0496370910044039,,,,,,,,,,,,,,,,,auto,85.0,True,0,False,-10.0,15.0,0.0,-10.0,47.6745801858943,0.05984836086505487
1760879329.5338805,3.8764142990112305,-9.33919713285252e-08,-3.6631442050541624e-09,36.65410532936343,-8.48525621570007e-08,-9.88853115815609e-10,12.08469377775626,-1.6647591870404197e-05,0.005860103321851651,6.658762744819831e-07,,,,,,,,,,,0.0,-0.20906788984071284,1.0,0.1192393279985224,0.7675159905449604,-0.5357672125603749,36.60825326344764,0.13872369661455924,-0.012933814774180463,12.037149161548202,0.007813931023906422,-0.028729262810937295,-0.053455110719970264,,,,,,,,,,,,,,,,,auto,85.0,True,0,False,-10.0,15.0,0.0,-10.0,48.73581762785072,0.06118722842056626
1760879329.6413658,3.9838995933532715,-1.0289298611738817e-07,-3.7674042010006236e-09,37.953435952462634,-9.166119801787304e-08,-9.54106210188516e-10,12.091995849572953,-2.555651087055421e-05,0.0061911792674258035,1.0222468487147838e-06,,,,,,,,,,,0.0,-0.2113539950139756,1.0,-0.05658957294700884,0.9877600002722554,-0.6010450957345179,37.94652238971894,0.13892948619435502,-0.017523535815817816,12.091950271562343,0.013012104523041164,-0.03153523689357712,0.02067952987105383,,,,,,,,,,,,,,,,,auto,85.0,True,0,False,-10.0,15.0,0.0,-10.0,49.9557117283389,0.039892718455131426
1760879329.7513063,4.0938401222229,-1.1327519013840642e-07,-3.871032561854488e-09,39.27704148962604,-9.803228674742892e-08,-9.448177552547802e-10,12.098237917261287,-3.9250592444825076e-05,0.006537863196716383,1.5700178816792581e-06,,,,,,,,,,,0.0,-0.2200233101874755,1.0,0.06232782581202418,0.5012585244640023,-0.6392352173078626,39.06815582565932,0.12332791753889707,0.0009809293990200095,12.081119846167239,0.012560718819643817,-0.03985848954340506,-0.03438219063946138,,,,,,,,,,,,,,,,,auto,85.0,True,0,False,-10.0,15.0,0.0,-10.0,51.16938579041827,0.05411659522841538
1760879329.858127,4.200660943984985,-1.2415099209038636e-07,-3.973522492084683e-09,40.57581862738867,-1.047650826944747e-07,-9.719365506632824e-10,12.103377767298197,-5.637343004865922e-05,0.0068871373310637725,2.2549305187046486e-06,,,,,,,,,,,0.0,-0.26548212097108154,1.0,0.11068475716306758,-0.1923518122839485,-0.7558513807147156,40.46207216288808,0.14402826151608575,0.004374582437313094,12.13858694643717,0.012349043319790578,-0.03580126267776729,-0.05867611366834688,,,,,,,,,,,,,,,,,auto,85.0,True,0,False,-10.0,15.0,0.0,-10.0,52.70483461572059,0.06983634866928053
1760879329.9664018,4.308935642242432,-1.3588640194890952e-07,-4.082205188743761e-09,41.88655096062581,-1.1230948847691966e-07,-1.0456419740353245e-09,12.10773498504862,-7.830537763711422e-05,0.0072490145013631956,3.1321964424788195e-06,,,,,,,,,,,0.0,-0.21583864249004603,1.0,-0.1628247975500135,-0.6131793943874052,-0.6054420549716577,41.75095846096469,0.13245221532026197,-0.03430597635011556,12.174367438845128,0.017110072768533775,-0.03069095658757281,0.06008325050947882,,,,,,,,,,,,,,,,,auto,85.0,True,0,False,-10.0,15.0,0.0,-10.0,54.05829846112199,0.06960378149346187
1760879330.0741653,4.416699171066284,-1.4832523970983848e-07,-4.200084097551188e-09,43.19152517983898,-1.1870549529914938e-07,-1.1513454436810372e-09,12.111377797126849,-0.000103368937503332,0.007618561672379496,4.134712981096955e-06,,,,,,,,,,,0.0,-0.10308049804799271,1.0,0.19732266337625404,-0.6780091840244031,-0.3319491318220978,43.267347846929496,0.15215916667468593,-0.025252624607901952,12.197868895876786,0.01330784109086542,-0.02602148297601749,-0.10291425440116525,,,,,,,,,,,,,,,,,auto,85.0,True,0,False,-10.0,15.0,0.0,-10.0,55.52765535160165,0.10698392388447274
1760879330.182269,4.524802923202515,-1.6151147258772333e-07,-4.3323060895703074e-09,44.50098131962859,-1.2538719665921576e-07,-1.3041440227759947e-09,12.114447621816462,-0.0001306343786860681,0.007998262180194471,5.225289007154287e-06,,,,,,,,,,,0.0,-0.12147855776880738,1.0,-0.015342818223627597,-1.346493574108945,-0.349259600184313,44.27065524620931,0.11677838517179473,-0.03335825362283986,12.181226485787045,0.011864945232727776,-0.029381487891968122,0.0016818430025204029,,,,,,,,,,,,,,,,,auto,85.0,True,0,False,-10.0,15.0,0.0,-10.0,56.680101052217715,0.031731330763247634
1760879330.2909846,4.63351845741272,-1.7544494493795455e-07,-4.483683218543805e-09,45.81203908892434,-1.323257136103229e-07,-1.5039452646429713e-09,12.117027938268096,-0.00015945354668990363,0.008387334870497132,6.377996808485019e-06,,,,,,,,,,,0.0,-0.08288735265433672,1.0,0.11140661345190285,-0.7189468243958465,-0.23308053044326624,45.83189590839504,0.08344084867328223,0.0879657654314424,12.229695557210436,0.012278743513595518,-0.030986633725303952,-0.057890498056168194,,,,,,,,,,,,,,,,,auto,85.0,True,0,False,-10.0,15.0,0.0,-10.0,58.00293282695035,0.06680006569674929
1760879330.3988183,4.741352081298828,-1.901617901390307e-07,-4.659423905499085e-09,47.1248988831962,-1.3941791410085954e-07,-1.7483657881226244e-09,12.119196731807511,-0.00018984740298037318,0.008785899644454713,7.593673269758245e-06,,,,,,,,,,,0.0,0.011510692579193908,1.0,0.1620218805873956,0.36531204198846884,0.035347491463766326,46.66883433852627,0.07322545733077562,0.0863723028000775,12.193281912768992,0.010298491254657519,-0.026487741271270567,-0.07816166672607625,,,,,,,,,,,,,,,,,auto,85.0,True,0,False,-10.0,15.0,0.0,-10.0,58.528045639341606,0.08316793555916993
1760879330.5067341,4.849267959594727,-2.0558966372023558e-07,-4.862982821074781e-09,48.43285336691827,-1.4679222262867274e-07,-2.036859683874704e-09,12.121010722899719,-0.00022019260465905245,0.009191799081012487,8.807384389002305e-06,,,,,,,,,,,0.0,-0.017573359764362154,1.0,0.32808682810160084,0.37519264898939986,0.04526006697419306,48.37606538105003,0.111266648048329,0.09869705506490074,12.19700438491145,0.012595572320874797,-0.02867639791614809,-0.1689350332154199,,,,,,,,,,,,,,,,,auto,85.0,True,0,False,-10.0,15.0,0.0,-10.0,60.18016324255414,0.17181393915230123
1760879330.6138496,4.956383466720581,-2.2170881934635134e-07,-5.0981250421702215e-09,49.73128496580014,-1.5409485795677585e-07,-2.35731387183803e-09,12.122524072878873,-0.0002517815620331252,0.009603545921559998,1.007082629237651e-05,,,,,,,,,,,0.0,-0.017465901126580988,1.0,-0.01675428659616112,0.38931194647009976,0.0564338066574438,49.89347184843317,0.15325086003934985,0.11123583004129034,12.199869446943223,0.012258148306467723,-0.031347166968069495,-0.0031748239898990657,,,,,,,,,,,,,,,,,auto,85.0,True,0,False,-10.0,15.0,0.0,-10.0,61.649844770535736,0.033808084598128646
1760879330.7218187,5.064352512359619,-2.387988394353725e-07,-5.373072832090184e-09,51.04021353919084,-1.6453859551265131e-07,-2.798233162495051e-09,12.12380584034905,-0.0002824153832079349,0.010027506311486013,1.1296040695730819e-05,,,,,,,,,,,0.0,0.5565708876313067,1.0,-0.14115205586116686,0.3610332518084483,1.4063400807822042,50.98146479147663,0.13102375565138696,0.05804127649197118,12.178752942145499,0.007757586872037111,-0.02783269273817375,0.08142485934106236,,,,,,,,,,,,,,,,,auto,85.0,True,0,False,-10.0,15.0,0.0,-10.0,62.729707380088875,0.08639934408227057
1760879330.8307428,5.173276662826538,-2.5724755734111344e-07,-5.701828977707137e-09,52.36084963208723,-1.7367809583643845e-07,-3.225581350783756e-09,12.124891191268656,-0.0003077128578157663,0.010465584848204548,1.2307780742593564e-05,,,,,,,,,,,0.0,-0.29265465486547765,1.0,0.001438383310505829,0.009181482945210151,-0.31282838003939917,52.379780665306185,0.06920645538388939,0.04499378033898759,12.139578725709546,0.010999490672639438,-0.029410234346054786,-0.0048321850204898625,,,,,,,,,,,,,,,,,auto,85.0,True,0,False,-10.0,15.0,0.0,-10.0,64.1565237310933,0.031769493093525884
1760879330.9393618,5.281895637512207,-2.765600315797762e-07,-6.074586133289303e-09,53.67789362980475,-1.8222846946012433e-07,-3.649730514958497e-09,12.125799038467987,-0.00033415066703248986,0.010911659440124767,1.3365116660344245e-05,,,,,,,,,,,0.0,-0.17279732595184394,1.0,0.20628554124715445,0.018898699646459124,-0.3071987962676487,53.58936796114559,0.11075628929305277,0.05843959196566435,12.141966871339045,0.009785389225193931,-0.030107659696136845,-0.09320490594568023,,,,,,,,,,,,,,,,,auto,85.0,True,0,False,-10.0,15.0,0.0,-10.0,65.33096880477017,0.09843464586724546
1760879331.047614,5.390147924423218,-2.9681266905860194e-07,-6.495329752298459e-09,54.990581396801716,-1.9221576171051168e-07,-4.1361830388970725e-09,12.126558214214752,-0.0003646876718728637,0.011365626532023158,1.4586400630533501e-05,,,,,,,,,,,0.0,-0.3258338989658793,1.0,0.11187044400464181,0.9381522402680489,-0.8204355725563487,55.162275896852755,0.13333581340373765,0.07610014895149907,12.142676428879392,0.004266649448301386,-0.03004811900124253,-0.06921376584782349,,,,,,,,,,,,,,,,,auto,85.0,True,0,False,-10.0,15.0,0.0,-10.0,66.66731490771284,0.07557538710363884
1760879331.1570163,5.499550104141235,-3.1830685459015196e-07,-6.974106138454311e-09,56.31113384892068,-2.0197456461964583e-07,-4.6435767930552695e-09,12.127198990844917,-0.00040068747484570247,0.011832049956952573,1.6026170740366543e-05,,,,,,,,,,,0.0,-0.12787503422112156,1.0,-0.17194820259031846,0.33530044079174043,-0.4408706538468502,56.20054583304129,0.11889555386302185,0.05189507032072818,12.126080818350362,0.0057032097408738405,-0.03306962631968922,0.06707635823450009,,,,,,,,,,,,,,,,,auto,85.0,True,0,False,-10.0,15.0,0.0,-10.0,67.80678468035383,0.07500243076244441
1760879331.2648292,5.607362985610962,-3.407178008262691e-07,-7.506173030139155e-09,57.62478760594351,-2.1164971401764167e-07,-5.179329402122259e-09,12.127733743793506,-0.0004377158921183504,0.01230537023508839,1.7507058926696832e-05,,,,,,,,,,,0.0,-0.2884130978498002,1.0,-0.1599421772917412,0.5559182595546206,-0.7050358054618331,57.65388521813289,0.09367786004631753,0.05699805994608126,12.100485310595376,0.007020545077215565,-0.031335140806240995,0.07594185408350407,,,,,,,,,,,,,,,,,auto,85.0,True,0,False,-10.0,15.0,0.0,-10.0,69.18219971871343,0.08245207277060045
1760879331.372714,5.715247869491577,-3.641423439402184e-07,-8.097629726669926e-09,58.9332115708853,-2.2293822315440028e-07,-5.802710359727211e-09,12.128180814526724,-0.0004758423783640234,0.012786237141539664,1.9031842247867422e-05,,,,,,,,,,,0.0,-0.219585135955209,1.0,0.06790135039526075,-0.18537516921675565,-0.5775443992725797,58.82555933305151,0.06730567520547097,0.03931232138410508,12.102325763808501,0.005919974259910177,-0.028593542735818288,-0.02074415167086653,,,,,,,,,,,,,,,,,auto,85.0,True,0,False,-10.0,15.0,0.0,-10.0,70.48323768152531,0.035818383687248934
1760879331.480437,5.822970867156982,-3.886407777273469e-07,-8.752898031092882e-09,60.239716357692544,-2.3182224019991155e-07,-6.364560566741126e-09,12.128555987642873,-0.0005153887746478547,0.013275767837089072,2.0613392345677825e-05,,,,,,,,,,,0.0,-0.05818381750639633,1.0,0.11964370486815037,0.3219563520727697,-0.2201366740124742,60.33450509850179,0.0969431338113221,0.06089567975227137,12.097015481392571,0.004993808662837189,-0.03004163105526877,-0.04954379959227734,,,,,,,,,,,,,,,,,auto,85.0,True,0,False,-10.0,15.0,0.0,-10.0,71.85009417486435,0.05815518721027091
1760879331.588684,5.931217908859253,-4.142417204361395e-07,-9.47454143232217e-09,61.55261429769204,-2.4133225422441955e-07,-6.979048084838428e-09,12.128872563233058,-0.0005570183906089774,0.013776646381145088,2.227823760805522e-05,,,,,,,,,,,0.0,-0.05354708196854409,1.0,-0.20260002099143837,0.3351127823437321,-0.21329331322849082,61.74802163498912,0.1474832564404004,0.06492147822144011,12.098633710688238,0.0013300621868844915,-0.03313975206852083,0.09523729238971596,,,,,,,,,,,,,,,,,auto,85.0,True,0,False,-10.0,15.0,0.0,-10.0,73.23170774793466,0.10084718188580312
1760879331.696138,6.0386717319488525,-4.407032804486849e-07,-1.0259376938663607e-08,62.85592261566333,-2.5140576566549795e-07,-7.64207422625418e-09,12.129136493034954,-0.0005989135778907949,0.014282862964707101,2.3953674458201026e-05,,,,,,,,,,,0.0,0.15051914017552487,1.0,0.14541434410687765,0.31268139869593015,0.3340791234410765,62.62469571908414,0.14904875156411626,-0.0011048039199135135,12.08194952880034,0.0009576873288541267,-0.031221729996797763,-0.07356769537477727,,,,,,,,,,,,,,,,,auto,85.0,True,0,False,-10.0,15.0,0.0,-10.0,74.09571758776947,0.07992446053473751
1760879331.8046513,6.1471850872039795,-4.6855873535367133e-07,-1.1126944343627666e-08,64.1721084114623,-2.6211632086796637e-07,-8.356041357328494e-09,12.12936030517809,-0.000638448593236656,0.014803300467615762,2.5534667033651478e-05,,,,,,,,,,,0.0,0.14798303246117306,1.0,-0.11980324891817117,-0.6801165313461915,0.38998560776515967,64.09144454424798,0.17166217305037101,-0.024530619279037245,12.09551655079592,-0.003625595067364002,-0.03603900498290001,0.06709169527079001,,,,,,,,,,,,,,,,,auto,85.0,True,0,False,-10.0,15.0,0.0,-10.0,75.73348201333565,0.07624467452916651
1760879331.9116106,6.2541444301605225,-4.971347939748501e-07,-1.2057841448752909e-08,65.46946701918692,-2.722333877241343e-07,-9.05248944886163e-09,12.129545673633453,-0.00067461795142118,0.0153253069234675,2.698100799083124e-05,,,,,,,,,,,0.0,0.14249453052393457,1.0,-0.107915527777215,-0.6587909129420921,0.3871362794983776,65.51842299167699,0.22674122756653803,-0.02978999650860045,12.097963468579211,-0.00768762384298906,-0.03563236079416011,0.05155880450337076,,,,,,,,,,,,,,,,,auto,85.0,True,0,False,-10.0,15.0,0.0,-10.0,77.12574031089743,0.0631432895716821
1760879332.0203183,6.362852096557617,-5.271757068676734e-07,-1.307706275481543e-08,66.7819021976239,-2.827624977652962e-07,-9.774353943857006e-09,12.129703252348634,-0.0007087734136904913,0.0158624157860069,2.8346758039408817e-05,,,,,,,,,,,0.0,0.13062084173514998,1.0,0.04828316791738251,-0.6313949209227637,0.383645153448756,66.8564017768937,0.27950838501088154,-0.03486403505913603,12.101011684387226,-0.007760741753786619,-0.03390051999401257,-0.02376164212765081,,,,,,,,,,,,,,,,,auto,85.0,True,0,False,-10.0,15.0,0.0,-10.0,78.43082420113232,0.04211994782802993
1760879332.1286242,6.471158027648926,-5.586844968940399e-07,-1.4187483004460087e-08,68.10177671775045,-2.986090608252034e-07,-1.0735099124243274e-08,12.129835918801579,-0.0007402649084415566,0.01641201420180271,2.960591786761653e-05,,,,,,,,,,,0.0,0.4948746518267214,1.0,-0.09048626446118593,-1.4039189334136717,1.3079377975230853,68.2736149959003,0.22467294565466958,-0.04623998259501881,12.107972901789383,-0.012282653646070806,-0.03287859698959303,0.03808286750957836,,,,,,,,,,,,,,,,,auto,85.0,True,0,False,-10.0,15.0,0.0,-10.0,79.98473643253834,0.05178967578915233
1760879332.236649,6.579182863235474,-5.916770758045264e-07,-1.539297942886881e-08,69.41210639877232,-3.1161306479272037e-07,-1.1553736258699721e-08,12.129946602202812,-0.000767747799367732,0.016967995731625544,3.0704711908834336e-05,,,,,,,,,,,0.0,-0.3567097634477591,1.0,-0.04379591611035567,-0.8896669580395564,-0.7762953924973174,69.22828870669656,0.1252364689296493,-0.10263394627860734,12.148264987033832,-0.012041989534813596,-0.026706728678419226,0.011817317121895057,,,,,,,,,,,,,,,,,auto,85.0,True,0,False,-10.0,15.0,0.0,-10.0,80.80968928269361,0.031589679527002076
1760879332.4097807,6.752314567565918,-6.258858749396622e-07,-1.667958040442702e-08,70.71318099377018,-3.260697683025688e-07,-1.2427845063031977e-08,12.130038865083627,-0.00080024212422933,0.017529680912754714,3.20039405246547e-05,,,,,,,,,,,0.0,-0.3223276158393494,1.0,-0.23348257186568538,-1.3312829327593494,-1.0350526798944304,70.62949634905944,0.10955592881374229,-0.07166385214556291,12.156269105256358,-0.01548248713791004,-0.027217745684590903,0.10539726805120524,,,,,,,,,,,,,,,,,auto,85.0,True,0,False,-10.0,15.0,0.0,-10.0,82.27331169816237,0.10995043065301847
1760879332.453092,6.795625925064087,-6.623548863436087e-07,-1.8088206096848505e-08,72.03756877238824,-3.421677263965258e-07,-1.338676297315677e-08,12.130117636135898,-0.0008398045525845041,0.018111622023093573,3.35858503231694e-05,,,,,,,,,,,0.0,-0.342280634763637,1.0,0.0507083195229729,-1.4419285394722705,-1.221135011278827,71.78852001790993,0.1602857946080183,-0.08799650542503322,12.156851072273367,-0.01933793656787025,-0.030568038461326545,-0.03468658203859483,,,,,,,,,,,,,,,,,auto,85.0,True,0,False,-10.0,15.0,0.0,-10.0,83.43374731805433,0.05011506499642879
1760879332.562721,6.90525484085083,-7.006872659299953e-07,-1.960640467701546e-08,73.36738416055466,-3.55861436962365e-07,-1.4254442095004641e-08,12.13018403791703,-0.000886421293010017,0.018706364977637505,3.544988939225656e-05,,,,,,,,,,,0.0,-0.3171755173095501,1.0,-0.1306720068320411,-1.4216444583223442,-1.231888900488386,73.20291071767139,0.20973210382529547,-0.10636214139348085,12.15918574697324,-0.016029477502389502,-0.027018388757149094,0.06385362142911594,,,,,,,,,,,,,,,,,auto,85.0,True,0,False,-10.0,15.0,0.0,-10.0,84.81693409261791,0.07116335046668973
1760879332.6728191,7.015352964401245,-7.406131520766621e-07,-2.1224599024113878e-08,74.70289782702136,-3.693251372120349e-07,-1.5142250199803645e-08,12.130239892758105,-0.0009382113766011097,0.019313503906078593,3.752081208132652e-05,,,,,,,,,,,0.0,-0.3197656914481958,1.0,0.05669635656703062,-0.7680470906340211,-1.3261352184450188,74.50189080465823,0.13133230444217214,-0.07070230177862323,12.165367002857595,-0.018851179462117156,-0.029521620774193864,-0.018549831638583765,,,,,,,,,,,,,,,,,auto,85.0,True,0,False,-10,15.0,0.0,-10.0,85.97068973337619,0.03963570756361069
1760879332.7812886,7.123822450637817,-7.814360216434878e-07,-2.2918206170099433e-08,76.01866128848904,-3.822955982398122e-07,-1.6038238628830716e-08,12.130286032491393,-0.00099457059671844,0.01992142965779594,3.977445806273451e-05,,,,,,,,,,,0.0,-0.31579926377788986,1.0,-0.08119538667360476,-0.7509594126345512,-1.334873034793332,75.67341072826399,0.18215699691518242,-0.08787035107762617,12.167510195734778,-0.018282816584689724,-0.026573626968610587,0.059240259654259886,,,,,,,,,,,,,,,,,auto,85.0,True,0,False,-10,15.0,0.0,-10.0,87.11950363868758,0.06745240838132027
1760879332.8907127,7.233246564865112,-8.24061294460819e-07,-2.4728427947533352e-08,77.346009287963,-3.953658942335217e-07,-1.6983753245452138e-08,12.130325074155374,-0.001055950866889248,0.020544372184810113,4.222888140465668e-05,,,,,,,,,,,0.0,0.09638841208662435,1.0,-0.09007541452649737,-0.7926275575408129,-0.37739342770787326,77.03519835739964,0.1599771183737604,-0.10215263165918426,12.117844835874324,-0.020602855250522512,-0.020555092217693773,0.0549719078656723,,,,,,,,,,,,,,,,,auto,85.0,True,0,False,-10,15.0,0.0,-10.0,88.45719452979715,0.06220048323722125
1760879333.0000484,7.3425822257995605,-8.677861355997499e-07,-2.6629513161069937e-08,78.6661309511614,-4.1097345684294964e-07,-1.8106868725394866e-08,12.130357508800943,-0.0011188238734150566,0.021173284573736184,4.4742956542298473e-05,,,,,,,,,,,0.0,-0.3593177614651969,1.0,0.24521581186332317,-0.05707535147244929,-1.4427813729530554,78.48556370691593,0.08678644471753279,-0.10292077893140014,12.134766072167938,-0.028917537984710483,-0.01755282527909794,-0.11939699405934084,,,,,,,,,,,,,,,,,auto,85.0,True,0,False,-10,15.0,0.0,-10.0,89.76910448902082,0.12409660699947436
1760879333.1087475,7.451281309127808,-9.136649156152195e-07,-2.8678230904244872e-08,79.99084850710778,-4.284291052115395e-07,-1.9379713322230027e-08,12.130384727527582,-0.0011889041686872941,0.02181493233698579,4.754525274691035e-05,,,,,,,,,,,0.0,-0.13483083064593637,1.0,-0.10310513821454659,-0.014678207408188995,-1.0251704792727478,79.55389444472993,0.11350062483151721,-0.09944132083138028,12.117260704212521,-0.029140637515176017,-0.01700162766453542,0.040046957600777,,,,,,,,,,,,,,,,,auto,85.0,True,0,False,-10,15.0,0.0,-10.0,90.80964456709111,0.0523640230608078
1760879333.216571,7.559104919433594,-9.60633000607518e-07,-3.082968813476603e-08,81.29879164072324,-4.4139909383200977e-07,-2.0458998956570958e-08,12.13040746415099,-0.0012586278399009617,0.02245829419192551,5.033322337829906e-05,,,,,,,,,,,0.0,-0.0030735936400111477,1.0,0.06707363818659853,0.4558384396092626,-0.4952333168483485,81.11109004956144,0.0837974028017614,-0.05085171102871717,12.15389879799232,-0.030849676617250035,-0.019131775334414576,-0.026822298562543877,,,,,,,,,,,,,,,,,auto,85.0,True,0,False,-10,15.0,0.0,-10.0,92.26596675671998,0.04513494294904626
1760879333.3249128,7.667446613311768,-1.0090436685046176e-06,-3.310039646814902e-08,82.61302160785387,-4.5273531507468095e-07,-2.1491561164278795e-08,12.130426729770202,-0.0013281113896450232,0.023113760576101528,5.3111512275878354e-05,,,,,,,,,,,0.0,0.11653927716133174,1.0,-0.07718772518723319,0.5932835358413213,-0.20730021395698636,82.45716458479201,0.06615103494403674,-0.007564425536664754,12.11080867505143,-0.03436281472524654,-0.017111283448833114,0.050359850373446174,,,,,,,,,,,,,,,,,auto,85.0,True,0,False,-10,15.0,0.0,-10.0,93.57309301138167,0.06332229928503716
1760879333.4337492,7.776283025741577,-1.0587621875978647e-06,-3.548951771478782e-08,83.92712623367453,-4.650216734495647e-07,-2.2612995877581436e-08,12.13044287752129,-0.0013964266858381385,0.023778264180491622,5.5842998229032554e-05,,,,,,,,,,,0.0,0.07100050094985041,1.0,-0.09258698894323902,0.6029038543430536,-0.20991570686510888,83.66696316590607,0.1114091934246532,-0.039809833842773326,12.112566509313243,-0.03494305594275182,-0.019412475436149774,0.05717199561101162,,,,,,,,,,,,,,,,,auto,85.0,True,0,False,-10,15.0,0.0,-10.0,94.76719068725464,0.06976029274109258
1760879333.540562,7.883095741271973,-1.1093170740313089e-06,-3.79769010402991e-08,85.22894092923146,-4.768397361203128e-07,-2.3728728463982605e-08,12.13045634391264,-0.00146203119911648,0.024445470418637594,5.846599253100625e-05,,,,,,,,,,,0.0,0.0449835928972553,1.0,-0.05681587636887393,0.6174950038705075,-0.2158586383037896,85.18864299136891,0.15912719614832166,-0.07138606536937962,12.114311867555276,-0.03380154047611347,-0.01577867040028743,0.03686434746689332,,,,,,,,,,,,,,,,,auto,85.0,True,0,False,-10,15.0,0.0,-10.0,96.26931390351604,0.05244512076751361
1760879333.6515229,7.994056701660156,-1.1624366695424867e-06,-4.065115357493849e-08,86.56275835841247,-4.892938455633784e-07,-2.4912905910739757e-08,12.130467922145046,-0.0015297193729424592,0.025138173724138662,6.117223096010455e-05,,,,,,,,,,,0.0,0.037727684080979526,1.0,0.02430431313620028,0.6372675820663277,-0.22577837813814935,86.01954743901985,0.19946511740547182,-0.10962772760100077,12.116366367730775,-0.03446352453612306,-0.014790917810584725,-0.029690980828430233,,,,,,,,,,,,,,,,,auto,85.0,True,0,False,-10,15.0,0.0,-10.0,97.08806594416937,0.047833671359050416
1760879333.7596815,8.10221529006958,-1.2165752751178137e-06,-4.343885151798946e-08,87.88696350880724,-5.025680792152841e-07,-2.6162651412935787e-08,12.130477531939285,-0.0015974115041579987,0.02583503839714504,6.387856198397453e-05,,,,,,,,,,,0.0,0.04085467382380447,1.0,-0.1583589856873702,0.6613449927918958,-0.23980390035877142,87.78331460801695,0.2417352803751343,-0.14711424346234117,12.116652045323002,-0.03647613624409763,-0.01643370407829976,0.05419190933482825,,,,,,,,,,,,,,,,,auto,85.0,True,0,False,-10,15.0,0.0,-10.0,98.82930308899675,0.06735976679283669
1760879333.869665,8.212198734283447,-1.2726019983363972e-06,-4.638735179916724e-08,89.22111566693367,-5.163308472692594e-07,-2.7461571948634867e-08,12.130485641436074,-0.001664596455510294,0.026546398926316113,6.656451916389614e-05,,,,,,,,,,,0.0,0.039849858246865696,1.0,-0.19804053884237866,0.6904525876448239,-0.2580673189128874,88.8323794974517,0.28775564462963205,-0.18590247597480875,12.120049830199754,-0.038510823771471955,-0.01558762278728936,0.09836019738458338,,,,,,,,,,,,,,,,,auto,85.0,True,0,False,-10,15.0,0.0,-10.0,99.86325141420062,0.10677446305765437
1760879333.977665,8.320198774337769,-1.3292332538414279e-06,-4.9431243455528836e-08,90.5312089686806,-5.318942900090725e-07,-2.8877154510198564e-08,12.130492258009347,-0.0017315266629129395,0.027254159485549514,6.924023770668826e-05,,,,,,,,,,,0.0,-0.2569984453738185,1.0,-0.08661010469246277,0.09769047700558194,-1.1103894462496766,90.32626963591395,0.12768610739050598,-0.07494549759106116,12.099806850300142,-0.03947426139326387,-0.0192851605057945,0.05544352931564306,,,,,,,,,,,,,,,,,auto,85.0,True,0,False,-10,15.0,0.0,-10.0,101.43309209966726,0.07073980259551584
1760879334.086071,8.4286048412323,-1.3874232739441096e-06,-5.262152426845321e-08,91.84000435976516,-5.468939894774379e-07,-3.0271809645315786e-08,12.130497836238309,-0.0018011863076293282,0.027970337588254658,7.202505725415608e-05,,,,,,,,,,,0.0,0.04591093132071296,1.0,-0.3517600460641059,0.16190265510955948,-0.4594836993638109,91.77398643485478,0.13887476337900134,0.008742144430131693,12.082684904087643,-0.042688745514339786,-0.019083278177537497,0.1777597244201285,,,,,,,,,,,,,,,,,auto,85.0,True,0,False,-10,15.0,0.0,-10.0,102.85098236248612,0.18380701870578656
1760879334.1916966,8.534230470657349,-1.4459215873422105e-06,-5.5888902944736616e-08,93.12139152114374,-5.60373429398375e-07,-3.1572941369579406e-08,12.130502482344644,-0.001869302900525245,0.028680250739522913,7.474810967919111e-05,,,,,,,,,,,0.0,0.048633028018404856,1.0,0.027356556701633124,-0.5221327926355273,-0.4337263153208868,93.10439758765139,0.1484619657624691,0.002880158937781997,12.099768833125992,-0.04813668329051401,-0.013399799001885171,-0.021328382763359757,,,,,,,,,,,,,,,,,auto,85.0,True,0,False,-10,15.0,0.0,-10.0,104.26716418346338,0.05432858182211786
1760879334.2995036,8.642037391662598,-1.5074761708023512e-06,-5.938864761049446e-08,94.43527230283574,-5.768560231260804e-07,-3.309200250262449e-08,12.130506413520953,-0.00193817544569277,0.029417089265761042,7.750127875304676e-05,,,,,,,,,,,0.0,0.2665476441359677,1.0,0.18333407754883357,-0.547259983483545,0.163329841093956,94.30058523233362,0.10127774171425298,-0.01259058389763798,12.098818514077148,-0.05188322590753479,-0.011168215397730556,-0.1015756867878144,,,,,,,,,,,,,,,,,auto,85.0,True,0,False,-10,15.0,0.0,-10.0,105.45309881382487,0.11460461732477696
1760879334.4066908,8.749224662780762,-1.570221192647841e-06,-6.301907691593413e-08,95.73550836185356,-5.966118292459785e-07,-3.4827887825088514e-08,12.130509576309853,-0.0020028581749170957,0.030155474406040102,8.008679477630608e-05,,,,,,,,,,,0.0,0.2190683901827944,1.0,-0.2179248872686156,-0.39811430427505473,0.14207745511160272,95.49515554247834,0.06645893872753006,-0.08263198423793017,12.135764231053761,-0.0517265771948549,-0.02017187671893983,0.11345715418806374,,,,,,,,,,,,,,,,,auto,85.0,True,0,False,-10,15.0,0.0,-10.0,106.61308528066557,0.12631337710279722
1760879334.515774,8.858307838439941,-1.6358112680547754e-06,-6.687751358867774e-08,97.05256541948397,-6.122492063584075e-07,-3.628841083416585e-08,12.130512407903252,-0.0020642301592507053,0.030912953731063706,8.253978226599547e-05,,,,,,,,,,,0.0,-0.10690650439744495,1.0,0.23382947998628992,-0.383793916344413,-0.6071812722819032,96.72654584316388,0.09038819616470392,-0.13819220365030868,12.13012413629351,-0.05622174807834271,-0.015492137098321304,-0.1262382560195748,,,,,,,,,,,,,,,,,auto,85.0,True,0,False,-10,15.0,0.0,-10.0,107.83128197314045,0.139057500882626
1760879334.6236935,8.966227293014526,-1.7027234454632595e-06,-7.087154446336523e-08,98.3616346674734,-6.279782333776298e-07,-3.774093980762539e-08,12.130514775015405,-0.00212623675630826,0.03167494009532206,8.501809138009413e-05,,,,,,,,,,,0.0,-0.28604253999362145,1.0,-0.0918269472653642,-0.8527027590179306,-1.2436800431510555,97.96594550235478,0.0798952563073192,-0.09119366995236314,12.162050975263359,-0.05937336973042644,-0.010374409923812769,0.03917392495139717,,,,,,,,,,,,,,,,,auto,85.0,True,0,False,-10,15.0,0.0,-10.0,109.13065707230461,0.07188478149449243
1760879334.7312503,9.073784112930298,-1.7714699977963253e-06,-7.503045168640921e-08,99.67258114849392,-6.435738636465526e-07,-3.917753386206272e-08,12.130516780785994,-0.0021911272936924048,0.03244709657070438,8.761167744337929e-05,,,,,,,,,,,0.0,-0.21187974186343034,1.0,-0.2877114042067686,-0.8415362358498782,-1.2565971527578828,99.38168423085732,0.127869507057231,-0.14768772666546295,12.162977078168769,-0.05918528190611693,-0.010832974096654307,0.16437643438665644,,,,,,,,,,,,,,,,,auto,85.0,True,0,False,-10,15.0,0.0,-10.0,110.53002375777834,0.17504246085951855
1760879334.8387911,9.18132495880127,-1.8415849892162074e-06,-7.932508891982413e-08,100.97710727505884,-6.601647271021997e-07,-4.067645044142717e-08,12.130518435678516,-0.0022574311793343176,0.03322442115981492,9.026172633062083e-05,,,,,,,,,,,0.0,-0.06739283044105063,1.0,0.006838084401189958,0.6320057889354171,-0.9013213754187217,100.50625528628231,0.10453602469114406,-0.11055754957078298,12.078503752654258,-0.057620335557169035,-0.008653249012318995,0.002331697685974382,,,,,,,,,,,,,,,,,auto,85.0,True,0,False,-10,15.0,0.0,-10.0,111.44004708931152,0.05831310832298975
1760879334.9469974,9.289531230926514,-1.9138785024973364e-06,-8.380509385303498e-08,102.28970553343669,-6.763589069259468e-07,-4.214895669850292e-08,12.130519856353736,-0.002324592454478371,0.03401555877271971,9.29459736664795e-05,,,,,,,,,,,0.0,-0.014032145332641383,1.0,-0.04260754355817023,0.3956344168638668,-0.764696133836168,102.18583096576404,0.10194400543221849,-0.1265635477689571,12.117644217651407,-0.05911470048330325,-0.01063456251216019,0.02699697416366445,,,,,,,,,,,,,,,,,auto,85.0,True,0,False,-10,15.0,0.0,-10.0,113.13502076608276,0.06585194262168173
1760879335.0543733,9.396907091140747,-1.9873311358668243e-06,-8.84068399058232e-08,103.59223060469274,-6.919748087152545e-07,-4.357691862627103e-08,12.130521062562744,-0.0023924228719940177,0.03480949322810842,9.565691855203891e-05,,,,,,,,,,,0.0,0.22674654421658724,1.0,0.15230503443725263,0.21853762127097573,-0.23325736928279817,103.23204720385304,0.08856055432951973,-0.18379933301714746,12.099161420642977,-0.062392380108135095,-0.009787314915042067,-0.0838546795173269,,,,,,,,,,,,,,,,,auto,85.0,True,0,False,-10,15.0,0.0,-10.0,114.19300570976189,0.10497717802340574
1760879335.1612449,9.50377869606018,-2.0622292472043444e-06,-9.314776504837255e-08,104.88863891193247,-7.09135489600133e-07,-4.510712198074561e-08,12.130522038665442,-0.0024587451493288423,0.03560853433997504,9.830746283955063e-05,,,,,,,,,,,0.0,0.010585091882075112,1.0,0.1246607208483822,-0.5482144164345398,-0.5103577596827615,104.53575618536054,0.10732623515827498,-0.20798252629173003,12.069215876902405,-0.05655649780571212,-0.008056927513315755,-0.06721050382960865,,,,,,,,,,,,,,,,,auto,85.0,True,0,False,-10,15.0,0.0,-10.0,115.5873993198854,0.08820886208330875
1760879335.2676585,9.61019229888916,-2.138750769594826e-06,-9.803894560895283e-08,106.17949150726889,-7.278691169340574e-07,-4.6736509816378205e-08,12.130522820675619,-0.0025218759651894963,0.0364130607598886,0.00010083027590732762,,,,,,,,,,,0.0,0.004064615754153848,1.0,-0.1797934339515339,-0.5340225701309604,-0.5352300958266113,105.7376594565023,0.16076386287998143,-0.2589037252104164,12.071106137421166,-0.05511251360050405,-0.010602218289262952,0.11942049071659219,,,,,,,,,,,,,,,,,auto,85.0,True,0,False,-10,15.0,0.0,-10.0,116.7767020639567,0.13195093705999442
1760879335.3752935,9.717827320098877,-2.2179333598742714e-06,-1.031449199581898e-07,107.48516063017645,-7.437311271463442e-07,-4.815629479785539e-08,12.130523570118363,-0.002584343110270919,0.03723564073810797,0.00010332643261589477,,,,,,,,,,,0.0,-0.19760850415513465,1.0,-0.07701919660536276,-0.45789345545144533,-1.057182197229203,107.28608438263585,0.14996254408583748,-0.2713636663447978,12.138871787964911,-0.05872046582959566,-0.006572323537143726,0.059654933808342955,,,,,,,,,,,,,,,,,auto,85.0,True,0,False,-10,15.0,0.0,-10.0,118.30507044961769,0.0839642761631361
1760879335.4827054,9.825239181518555,-2.298882416482385e-06,-1.0840776146969827e-07,108.78812277649753,-7.643399416192852e-07,-4.989161656501063e-08,12.130524086697736,-0.0026485852360033464,0.0380654590566953,0.00010589351062596641,,,,,,,,,,,0.0,-0.157209521389347,1.0,-0.19698987530218598,-0.43918739344098817,-1.0892923407848938,108.66895833202966,0.19679273327428715,-0.32843838200850034,12.139688538961957,-0.05849075201670745,-0.006720129403263787,0.1018442651513135,,,,,,,,,,,,,,,,,auto,85.0,True,0,False,-10,15.0,0.0,-10.0,119.67404370531845,0.11763750488210649
1760879335.5897958,9.932329654693604,-2.3811388446094447e-06,-1.1379750504004564e-07,110.0749873057441,-7.900662881638072e-07,-5.197439235728644e-08,12.130524382750615,-0.0027160491354874545,0.03889419550968527,0.00010858940514430561,,,,,,,,,,,0.0,-0.3258675972839533,1.0,0.18083494895424562,-1.4225126059064301,-1.5699156901552695,109.99161916838474,0.11200645982571514,-0.2512182646587058,12.154071295834969,-0.05773795090562658,-0.006203559564851586,-0.09730261537652901,,,,,,,,,,,,,,,,,auto,85.0,True,0,False,-10,15.0,0.0,-10.0,121.12040383938633,0.11331352119305069
1760879335.6967027,10.039236545562744,-2.4671020347171007e-06,-1.1947267601570512e-07,111.37790036447433,-8.091640404915451e-07,-5.359985469163722e-08,12.130524803445022,-0.0027895287268938427,0.03974290283330943,0.00011152579884091879,,,,,,,,,,,0.0,-0.3002257623658202,1.0,-0.11321781118368893,-1.4079309432302616,-1.5999507863042737,111.25541204550943,0.16265844908864607,-0.30552135573299083,12.15655820385598,-0.055935077970393626,-0.008268627535607675,0.07652786036791001,,,,,,,,,,,,,,,,,auto,85.0,True,0,False,-10,15.0,0.0,-10.0,122.37097282723008,0.09515049427810113
1760879335.8038464,10.146380186080933,-2.5551158504349976e-06,-1.2532210856114322e-07,112.68373164175338,-8.260183254153133e-07,-5.507614625457462e-08,12.130525217269422,-0.0028644840758415137,0.040602414496126636,0.00011452111477372481,,,,,,,,,,,0.0,0.2842859976679095,1.0,0.17052720941020183,-1.5679064507256513,-0.17930159997292355,112.3745148453076,0.08218237850600504,-0.15390664357808878,12.19575351946066,-0.05853457101651554,-0.013536411424986886,-0.07008785703166308,,,,,,,,,,,,,,,,,auto,85.0,True,0,False,-10,15.0,0.0,-10.0,123.49109100193488,0.09231380255219077
1760879335.9113786,10.253912448883057,-2.645023558093498e-06,-1.31336764877615e-07,113.98815448272,-8.48815154987616e-07,-5.697776665176596e-08,12.130525433080079,-0.0029371920272475674,0.04146997606335095,0.00011742643561970082,,,,,,,,,,,0.0,0.27220559845471426,1.0,0.03182260960792538,-1.5110625126025556,0.08331952042795927,114.09387090904886,0.08393056289487065,-0.16419389687749283,12.14948298653693,-0.056607282383987455,-0.009861338406982785,-0.00978340157859306,,,,,,,,,,,,,,,,,auto,85.0,True,0,False,-10,15.0,0.0,-10.0,125.18750306891353,0.05828675115775066
1760879336.0187137,10.361247539520264,-2.7369463619139625e-06,-1.3752686985670176e-07,115.28404262783761,-8.715996079545702e-07,-5.887163033080923e-08,12.130525613667146,-0.0030043459302658898,0.042341320900961134,0.00012010951728822801,,,,,,,,,,,0.0,0.1126812836215717,1.0,-0.06933819169083313,-1.400819967007764,-0.18496738150221434,115.29868652791393,0.07870564813598224,-0.15479156993572668,12.153943878691994,-0.0589923521141813,-0.007686587448016945,0.046559876335507414,,,,,,,,,,,,,,,,,auto,85.0,True,0,False,-10,15.0,0.0,-10.0,126.36764599430845,0.07554471072773597
1760879336.1264257,10.46895956993103,-2.831773067412346e-06,-1.439494572545331e-07,116.59067510828815,-8.892650904032313e-07,-6.038881822747022e-08,12.130525886491192,-0.003069366753474503,0.043228997596399484,0.0001227071572794936,,,,,,,,,,,0.0,0.09009128113863087,1.0,0.05151168476921946,-1.3895353616857342,-0.20463031056629197,116.44193457463197,0.13047505488512898,-0.20856728594374854,12.156735224256748,-0.05364301996699004,-0.004358242804802105,-0.014398520615824716,,,,,,,,,,,,,,,,,auto,85.0,True,0,False,-10,15.0,0.0,-10.0,127.49988847803539,0.055712523434581836
1760879336.2338657,10.576399564743042,-2.9287339501371212e-06,-1.5055027177487128e-07,117.90009274922373,-9.067601741280962e-07,-6.187428167298242e-08,12.130526130214573,-0.0031328054191377282,0.044127507904807586,0.00012524141265954543,,,,,,,,,,,0.0,0.09264264974854962,1.0,0.007236374562504056,-1.3727466218233642,-0.23010332508477313,117.62233655582521,0.17914216035980499,-0.26375558091689194,12.160010329806381,-0.05509140956525992,-0.0019240462124116278,-0.008768975119728475,,,,,,,,,,,,,,,,,auto,85.0,True,0,False,-10,15.0,0.0,-10.0,128.66849096593526,0.055818099988848825
1760879336.3421137,10.684647560119629,-3.02814462985603e-06,-1.573494898006186e-07,119.21319789084009,-9.282424861235354e-07,-6.362339676759328e-08,12.13052626116892,-0.003197586221247866,0.0450376995070655,0.00012782925186986363,,,,,,,,,,,0.0,-0.15259956992609097,1.0,-0.12329571139301343,-0.9420532879076012,-0.8951545979824531,118.9051467862825,0.04102181782720637,-0.18602510229122796,12.131803333173918,-0.052527655491236426,-0.001084503912584873,0.055388340263438154,,,,,,,,,,,,,,,,,auto,85.0,True,0,False,-10,15.0,0.0,-10.0,129.8902892166378,0.07634264193280736
1760879336.451798,10.794331789016724,-3.131077873371502e-06,-1.644191484571994e-07,120.5437253179072,-9.495721266905955e-07,-6.53487393251972e-08,12.130526384113022,-0.003265933401270181,0.045969278500773814,0.00013055960259833745,,,,,,,,,,,0.0,-0.24496048800100567,1.0,0.05915593901745725,-0.906688865217584,-1.2510739765517545,120.4921308777943,0.10816559602912881,-0.19641746431307866,12.08793324450315,-0.05186088887831797,-0.0003125542089737162,-0.024085396373770766,,,,,,,,,,,,,,,,,auto,85.0,True,0,False,-10,15.0,0.0,-10.0,131.46400327761603,0.05718177860004393
1760879336.5573206,10.8998544216156,-3.2324429844763796e-06,-1.7140786531260133e-07,121.8237704006992,-9.71912747882917e-07,-6.712985900513062e-08,12.130526451267016,-0.0033355293093231693,0.04687453281352939,0.0001333399374621802,,,,,,,,,,,0.0,-0.20378113608215392,1.0,-0.1458584038924567,-0.8928192373929401,-1.2743702753199608,121.59057721157185,0.1532661625011712,-0.24518500908948004,12.08960918029956,-0.054358355079578785,0.005814137031971181,0.06997972465856714,,,,,,,,,,,,,,,,,auto,85.0,True,0,False,-10,15.0,0.0,-10.0,132.55295445136528,0.0888020090970524
1760879336.6664064,11.00894021987915,-3.3391814614895475e-06,-1.7879343992110517e-07,123.14092746833157,-9.946947658793406e-07,-6.894780905134122e-08,12.130526516211297,-0.0034111949740296887,0.04781529227548322,0.00013636285237751767,,,,,,,,,,,0.0,-0.20781287332135828,1.0,-0.02199355695261195,-0.8738893555780484,-1.3038979942865299,122.96204026777436,0.19373696668744705,-0.29841200820826447,12.091127876628788,-0.053644633507838574,0.007421869439534872,0.0030448885506602352,,,,,,,,,,,,,,,,,auto,85.0,True,0,False,-10,15.0,0.0,-10.0,133.91260084630528,0.054241148553969255
1760879336.7731547,11.115688562393188,-3.4471046142893236e-06,-1.862872034698836e-07,124.44195216819122,-1.0159333832977757e-06,-7.066000434193313e-08,12.130526600134708,-0.003489925944560026,0.048753790476478896,0.00013950830955511572,,,,,,,,,,,0.0,-0.13789678743747982,1.0,-0.1571472157320348,-0.1846359883995378,-1.108310106004083,124.42996155528316,0.12561927871606357,-0.2417472717941491,12.07956749262206,-0.051806022461573,0.012208590304717626,0.07294296228527956,,,,,,,,,,,,,,,,,auto,85.0,True,0,False,-10,15.0,0.0,-10.0,135.28937905521698,0.09029722801652977
