timestamp,simulation_time,position_x,position_y,position_z,velocity_x,velocity_y,velocity_z,attitude_roll,attitude_pitch,attitude_yaw,control_throttle,control_roll,control_pitch,control_yaw,estimated_position_x,estimated_position_y,estimated_position_z,flight_mode,battery_level,setpoint_altitude,setpoint_position_x,setpoint_position_y,setpoint_position_z,position_error,attitude_error,waypoint_index,mission_complete
1761249427.1231198,0.10770297050476074,0.0,0.0,-0.0,0.0,0.0,-0.0,0.0,0.0,0.0,0.0,0.0,0.0,0.0,0.0,0.0,-0.0,manual,85.0,0.0,0.0,0.0,0.0,0.0,0.0,0,0
1761249427.2269425,0.21152567863464355,0.0,0.0,-0.0,0.0,0.0,-0.0,0.0,0.0,0.0,0.0,0.0,0.0,0.0,0.0,0.0,-0.0,manual,85.0,0.0,0.0,0.0,0.0,0.0,0.0,0,0
1761249427.3360076,0.3205907344818115,0.0,0.0,-0.0,0.0,0.0,-0.0,0.0,0.0,0.0,0.0,0.0,0.0,0.0,0.0,0.0,-0.0,manual,85.0,0.0,0.0,0.0,0.0,0.0,0.0,0,0
1761249427.4419658,0.42654895782470703,0.0,0.0,-0.0,0.0,0.0,-0.0,0.0,0.0,0.0,0.0,0.0,0.0,0.0,0.0,0.0,-0.0,manual,85.0,0.0,0.0,0.0,0.0,0.0,0.0,0,0
1761249427.5463278,0.5309109687805176,0.0,0.0,-0.0,0.0,0.0,-0.0,0.0,0.0,0.0,0.0,0.0,0.0,0.0,0.0,0.0,-0.0,manual,85.0,0.0,0.0,0.0,0.0,0.0,0.0,0,0
1761249427.6505961,0.6351792812347412,0.0,0.0,-0.0,0.0,0.0,-0.0,0.0,0.0,0.0,0.0,0.0,0.0,0.0,0.0,0.0,-0.0,manual,85.0,0.0,0.0,0.0,0.0,0.0,0.0,0,0
1761249427.7563171,0.7409002780914307,0.0,0.0,-0.0,0.0,0.0,-0.0,0.0,0.0,0.0,0.0,0.0,0.0,0.0,0.0,0.0,-0.0,manual,85.0,0.0,0.0,0.0,0.0,0.0,0.0,0,0
1761249427.9079583,0.8925414085388184,0.0,0.0,-0.0,0.0,0.0,-0.0,0.0,0.0,0.0,0.0,0.0,0.0,0.0,0.0,0.0,-0.0,manual,85.0,0.0,0.0,0.0,0.0,0.0,0.0,0,0
1761249428.0136938,0.998276948928833,0.0,0.0,-0.0,0.0,0.0,-0.0,0.0,0.0,0.0,0.0,0.0,0.0,0.0,0.0,0.0,-0.0,manual,85.0,0.0,0.0,0.0,0.0,0.0,0.0,0,0
1761249428.117472,1.1020550727844238,0.0,0.0,-0.0,0.0,0.0,-0.0,0.0,0.0,0.0,0.0,0.0,0.0,0.0,0.0,0.0,-0.0,manual,85.0,0.0,0.0,0.0,0.0,0.0,0.0,0,0
1761249428.221836,1.2064192295074463,0.0,0.0,-0.0,0.0,0.0,-0.0,0.0,0.0,0.0,0.0,0.0,0.0,0.0,0.0,0.0,-0.0,manual,85.0,0.0,0.0,0.0,0.0,0.0,0.0,0,0
1761249428.3252783,1.309861421585083,0.0,0.0,-0.0,0.0,0.0,-0.0,0.0,0.0,0.0,0.0,0.0,0.0,0.0,0.0,0.0,-0.0,manual,85.0,0.0,0.0,0.0,0.0,0.0,0.0,0,0
1761249428.42971,1.4142930507659912,0.0,0.0,-0.0,0.0,0.0,-0.0,0.0,0.0,0.0,0.0,0.0,0.0,0.0,0.0,0.0,-0.0,manual,85.0,0.0,0.0,0.0,0.0,0.0,0.0,0,0
1761249428.539561,1.524144172668457,0.0,0.0,-0.0,0.0,0.0,-0.0,0.0,0.0,0.0,0.0,0.0,0.0,0.0,0.0,0.0,-0.0,manual,85.0,0.0,0.0,0.0,0.0,0.0,0.0,0,0
1761249428.6435013,1.628084421157837,0.0,0.0,-0.0,0.0,0.0,-0.0,0.0,0.0,0.0,0.0,0.0,0.0,0.0,0.0,0.0,-0.0,manual,85.0,0.0,0.0,0.0,0.0,0.0,0.0,0,0
1761249428.7473733,1.7319564819335938,0.0,0.0,-0.0,0.0,0.0,-0.0,0.0,0.0,0.0,0.0,0.0,0.0,0.0,0.0,0.0,-0.0,manual,85.0,0.0,0.0,0.0,0.0,0.0,0.0,0,0
1761249428.8517323,1.836315393447876,0.0,0.0,0.02925612342783881,0.0,0.0,0.9383186117536985,0.0,0.0,0.0,1.0,0.0,0.0,0.0,0.0,0.0,0.02925612342783881,stabilize,85.0,2.0,0.0,0.0,-2.0,1.9707438765721612,0.0,0,0
1761249428.9621022,1.9466853141784668,0.0,0.0,0.17314034235871525,0.0,0.0,1.3623729442375236,0.0,0.0,0.0,0.5165466472407207,0.0,0.0,0.0,0.0,0.0,0.17314034235871525,stabilize,85.0,2.0,0.0,0.0,-2.0,1.8268596576412848,0.0,0,0
1761249429.0677686,2.052351713180542,0.0,0.0,0.31754493603676526,0.0,0.0,1.3618960609203643,0.0,0.0,0.0,0.35,0.0,0.0,0.0,0.0,0.0,0.31754493603676526,stabilize,85.0,2.0,0.0,0.0,-2.0,1.6824550639632347,0.0,0,0
1761249429.1728933,2.1574764251708984,0.0,0.0,0.4599277090511249,0.0,0.0,1.3321399490834436,0.0,0.0,0.0,0.454502228130347,0.0,0.0,0.0,0.0,0.0,0.4599277090511249,stabilize,85.0,2.0,0.0,0.0,-2.0,1.540072290948875,0.0,0,0
1761249429.2781017,2.2626848220825195,0.0,0.0,0.5978143725597076,0.0,0.0,1.3039430154993803,0.0,0.0,0.0,0.5746034684545989,0.0,0.0,0.0,0.0,0.0,0.5978143725597076,stabilize,85.0,2.0,0.0,0.0,-2.0,1.4021856274402924,0.0,0,0
1761249429.3824015,2.3669846057891846,0.0,0.0,0.7288086372704933,0.0,0.0,1.213968142480185,0.0,0.0,0.0,0.35,0.0,0.0,0.0,0.0,0.0,0.7288086372704933,stabilize,85.0,2.0,0.0,0.0,-2.0,1.2711913627295068,0.0,0,0
1761249429.4858043,2.4703874588012695,0.0,0.0,0.8513597412511448,0.0,0.0,1.1364434400357406,0.0,0.0,0.0,0.35033295228012784,0.0,0.0,0.0,0.0,0.0,0.8513597412511448,stabilize,85.0,2.0,0.0,0.0,-2.0,1.1486402587488551,0.0,0,0
1761249429.5940585,2.578641653060913,0.0,0.0,0.972203464753974,0.0,0.0,1.0622685231856976,0.0,0.0,0.0,0.35,0.0,0.0,0.0,0.0,0.0,0.972203464753974,stabilize,85.0,2.0,0.0,0.0,-2.0,1.027796535246026,0.0,0,0
1761249429.6982002,2.682783365249634,0.0,0.0,1.0800853823381493,0.0,0.0,0.9941963243341738,0.0,0.0,0.0,0.41978280246453775,0.0,0.0,0.0,0.0,0.0,1.0800853823381493,stabilize,85.0,2.0,0.0,0.0,-2.0,0.9199146176618507,0.0,0,0
1761249429.802956,2.78753924369812,0.0,0.0,1.1805019662544844,0.0,0.0,0.9269718721272465,0.0,0.0,0.0,0.35,0.0,0.0,0.0,0.0,0.0,1.1805019662544844,stabilize,85.0,2.0,0.0,0.0,-2.0,0.8194980337455156,0.0,0,0
1761249429.9098516,2.894434690475464,0.0,0.0,1.274483354613947,0.0,0.0,0.829089480053936,0.0,0.0,0.0,0.36436945508511653,0.0,0.0,0.0,0.0,0.0,1.274483354613947,stabilize,85.0,2.0,0.0,0.0,-2.0,0.7255166453860531,0.0,0,0
1761249430.0143523,2.9989354610443115,0.0,0.0,1.3585693456109833,0.0,0.0,0.7897607665558468,0.0,0.0,0.0,0.5646401323470737,0.0,0.0,0.0,0.0,0.0,1.3585693456109833,stabilize,85.0,2.0,0.0,0.0,-2.0,0.6414306543890167,0.0,0,0
1761249430.120509,3.1050920486450195,0.0,0.0,1.4366805722745337,0.0,0.0,0.6994162205064747,0.0,0.0,0.0,0.35,0.0,0.0,0.0,0.0,0.0,1.4366805722745337,stabilize,85.0,2.0,0.0,0.0,-2.0,0.5633194277254663,0.0,0,0
1761249430.2249658,3.2095489501953125,0.0,0.0,1.5065248763467465,0.0,0.0,0.6406669927352613,0.0,0.0,0.0,0.47194254893833987,0.0,0.0,0.0,0.0,0.0,1.5065248763467465,stabilize,85.0,2.0,0.0,0.0,-2.0,0.4934751236532535,0.0,0,0
1761249430.3320801,3.3166632652282715,0.0,0.0,1.5709428556278189,0.0,0.0,0.5713899571484092,0.0,0.0,0.0,0.44053539564493,0.0,0.0,0.0,0.0,0.0,1.5709428556278189,stabilize,85.0,2.0,0.0,0.0,-2.0,0.4290571443721811,0.0,0,0
1761249430.4379225,3.4225056171417236,0.0,0.0,1.6287731249047754,0.0,0.0,0.5185354525509128,0.0,0.0,0.0,0.4458022903016713,0.0,0.0,0.0,0.0,0.0,1.6287731249047754,stabilize,85.0,2.0,0.0,0.0,-2.0,0.37122687509522456,0.0,0,0
1761249430.542351,3.5269341468811035,0.0,0.0,1.680821654436735,0.0,0.0,0.45639672472734194,0.0,0.0,0.0,0.35,0.0,0.0,0.0,0.0,0.0,1.680821654436735,stabilize,85.0,2.0,0.0,0.0,-2.0,0.3191783455632651,0.0,0,0
1761249430.650211,3.634794235229492,0.0,0.0,1.7300672562815234,0.0,0.0,0.42796235168369356,0.0,0.0,0.0,0.35,0.0,0.0,0.0,0.0,0.0,1.7300672562815234,stabilize,85.0,2.0,0.0,0.0,-2.0,0.26993274371847664,0.0,0,0
1761249430.754294,3.738877058029175,0.0,0.0,1.7723306930495522,0.0,0.0,0.40446033898578354,0.0,0.0,0.0,0.577967725226932,0.0,0.0,0.0,0.0,0.0,1.7723306930495522,stabilize,85.0,2.0,0.0,0.0,-2.0,0.22766930695044785,0.0,0,0
1761249430.8592837,3.8438668251037598,0.0,0.0,1.8107725584962937,0.0,0.0,0.33722681611367283,0.0,0.0,0.0,0.35,0.0,0.0,0.0,0.0,0.0,1.8107725584962937,stabilize,85.0,2.0,0.0,0.0,-2.0,0.1892274415037063,0.0,0,0
1761249430.965248,3.949831247329712,0.0,0.0,1.8454019501045746,0.0,0.0,0.298022379580187,0.0,0.0,0.0,0.40448670066335496,0.0,0.0,0.0,0.0,0.0,1.8454019501045746,stabilize,85.0,2.0,0.0,0.0,-2.0,0.15459804989542536,0.0,0,0
1761249431.0703502,4.054933309555054,0.0,0.0,1.8756981370163628,0.0,0.0,0.26591984788263584,0.0,0.0,0.0,0.35,0.0,0.0,0.0,0.0,0.0,1.8756981370163628,stabilize,85.0,2.0,0.0,0.0,-2.0,0.12430186298363721,0.0,0,0
1761249431.176106,4.160689115524292,0.0,0.0,1.902473004697034,0.0,0.0,0.2375813053121214,0.0,0.0,0.0,0.35,0.0,0.0,0.0,0.0,0.0,1.902473004697034,stabilize,85.0,2.0,0.0,0.0,-2.0,0.09752699530296605,0.0,0,0
1761249431.281014,4.265597105026245,0.0,0.0,1.9270996231769757,0.0,0.0,0.24561860847941522,0.0,0.0,0.0,0.6083916817281887,0.0,0.0,0.0,0.0,0.0,1.9270996231769757,stabilize,85.0,2.0,0.0,0.0,-2.0,0.0729003768230243,0.0,0,0
1761249431.3850167,4.36959981918335,0.0,0.0,1.9490050136134198,0.0,0.0,0.23381714347394866,0.0,0.0,0.0,0.6606047871922007,0.0,0.0,0.0,0.0,0.0,1.9490050136134198,stabilize,85.0,2.0,0.0,0.0,-2.0,0.05099498638658018,0.0,0,0
1761249431.49081,4.475393056869507,0.0,0.0,1.9704421837968664,0.0,0.0,0.18794313319624467,0.0,0.0,0.0,0.35,0.0,0.0,0.0,0.0,0.0,1.9704421837968664,stabilize,85.0,2.0,0.0,0.0,-2.0,0.02955781620313358,0.0,0,0
1761249431.596433,4.5810160636901855,0.0,0.0,1.9891431599765634,0.0,0.0,0.16120317347366436,0.0,0.0,0.0,0.4507401581988608,0.0,0.0,0.0,0.0,0.0,1.9891431599765634,stabilize,85.0,2.0,0.0,0.0,-2.0,0.010856840023436565,0.0,0,0
1761249431.7016032,4.68618631362915,0.0,0.0,2.0062147836496913,0.0,0.0,0.18713983135029263,0.0,0.0,0.0,0.6843983495729136,0.0,0.0,0.0,0.0,0.0,2.0062147836496913,stabilize,85.0,2.0,0.0,0.0,-2.0,0.006214783649691302,0.0,0,0
1761249431.8073745,4.79195761680603,0.0,0.0,2.02168697952644,0.0,0.0,0.12578871878869533,0.0,0.0,0.0,0.35,0.0,0.0,0.0,0.0,0.0,2.02168697952644,stabilize,85.0,2.0,0.0,0.0,-2.0,0.02168697952643983,0.0,0,0
1761249431.9166074,4.901190519332886,0.0,0.0,2.0357821172010055,0.0,0.0,0.12237706536911937,0.0,0.0,0.0,0.4776896224359582,0.0,0.0,0.0,0.0,0.0,2.0357821172010055,stabilize,85.0,2.0,0.0,0.0,-2.0,0.03578211720100555,0.0,0,0
1761249432.0223472,5.006930351257324,0.0,0.0,2.047248835851691,0.0,0.0,0.0802479162361119,0.0,0.0,0.0,0.3745126733821734,0.0,0.0,0.0,0.0,0.0,2.047248835851691,stabilize,85.0,2.0,0.0,0.0,-2.0,0.04724883585169115,0.0,0,0
1761249432.1233091,5.107892274856567,0.0,0.0,2.0577777047704537,0.0,0.0,0.12620871958245472,0.0,0.0,0.0,0.35,0.0,0.0,0.0,0.0,0.0,2.0577777047704537,stabilize,85.0,2.0,0.0,0.0,-2.0,0.05777770477045374,0.0,0,0
1761249432.2280116,5.212594747543335,0.0,0.0,2.0673390390178814,0.0,0.0,0.12095334199146446,0.0,0.0,0.0,0.6882210768140937,0.0,0.0,0.0,0.0,0.0,2.0673390390178814,stabilize,85.0,2.0,0.0,0.0,-2.0,0.06733903901788141,0.0,0,0
1761249432.3329298,5.3175129890441895,0.0,0.0,2.075969222732102,0.0,0.0,0.0725740280864424,0.0,0.0,0.0,0.35,0.0,0.0,0.0,0.0,0.0,2.075969222732102,stabilize,85.0,2.0,0.0,0.0,-2.0,0.07596922273210183,0.0,0,0
1761249432.436401,5.4209840297698975,0.0,0.0,2.082689232319446,0.0,0.0,0.0611131680544812,0.0,0.0,0.0,0.35,0.0,0.0,0.0,0.0,0.0,2.082689232319446,stabilize,85.0,2.0,0.0,0.0,-2.0,0.08268923231944614,0.0,0,0
1761249432.5377722,5.522355318069458,0.0,0.0,2.088149769248839,0.0,0.0,0.10431939623644598,0.0,0.0,0.0,0.7706952267583481,0.0,0.0,0.0,0.0,0.0,2.088149769248839,stabilize,85.0,2.0,0.0,0.0,-2.0,0.08814976924883888,0.0,0,0
1761249432.641698,5.626281023025513,0.0,0.0,2.093965884214698,0.0,0.0,0.07860344359314843,0.0,0.0,0.0,0.6683161182547304,0.0,0.0,0.0,0.0,0.0,2.093965884214698,stabilize,85.0,2.0,0.0,0.0,-2.0,0.0939658842146982,0.0,0,0
1761249432.7456453,5.730228424072266,0.0,0.0,2.0986328516919,0.0,0.0,0.07443500072046094,0.0,0.0,0.0,0.6712941194495604,0.0,0.0,0.0,0.0,0.0,2.0986328516919,stabilize,85.0,2.0,0.0,0.0,-2.0,0.09863285169189995,0.0,0,0
1761249432.8501313,5.834714412689209,0.0,0.0,2.1029804655685416,0.0,0.0,0.01984600409505436,0.0,0.0,0.0,0.35,0.0,0.0,0.0,0.0,0.0,2.1029804655685416,stabilize,85.0,2.0,0.0,0.0,-2.0,0.10298046556854157,0.0,0,0
1761249432.9537923,5.938375473022461,0.0,0.0,2.105130373839811,0.0,0.0,0.015231500320686524,0.0,0.0,0.0,0.4688717183880545,0.0,0.0,0.0,0.0,0.0,2.105130373839811,stabilize,85.0,2.0,0.0,0.0,-2.0,0.10513037383981105,0.0,0,0
1761249433.056613,6.04119610786438,0.0,0.0,2.1070318122208525,0.0,0.0,-0.00011378435597353409,0.0,0.0,0.0,0.35,0.0,0.0,0.0,0.0,0.0,2.1070318122208525,stabilize,85.0,2.0,0.0,0.0,-2.0,0.10703181222085245,0.0,0,0
1761249433.1606338,6.145216941833496,0.0,0.0,2.1088887768622406,0.0,0.0,0.007906654161485567,0.0,0.0,0.0,0.35,0.0,0.0,0.0,0.0,0.0,2.1088887768622406,stabilize,85.0,2.0,0.0,0.0,-2.0,0.10888877686224063,0.0,0,0
1761249433.2637775,6.248360633850098,0.0,0.0,2.109942301032192,0.0,0.0,0.008006163753312092,0.0,0.0,0.0,0.4853294968073452,0.0,0.0,0.0,0.0,0.0,2.109942301032192,stabilize,85.0,2.0,0.0,0.0,-2.0,0.10994230103219182,0.0,0,0
1761249433.371418,6.356001138687134,0.0,0.0,2.110867715205175,0.0,0.0,0.03572060535153812,0.0,0.0,0.0,0.6351277505918016,0.0,0.0,0.0,0.0,0.0,2.110867715205175,stabilize,85.0,2.0,0.0,0.0,-2.0,0.11086771520517491,0.0,0,0
1761249433.4779162,6.462499380111694,0.0,0.0,2.111676481381061,0.0,0.0,-0.007286193801186121,0.0,0.0,0.0,0.35,0.0,0.0,0.0,0.0,0.0,2.111676481381061,stabilize,85.0,2.0,0.0,0.0,-2.0,0.1116764813810609,0.0,0,0
1761249433.5815175,6.566100597381592,0.0,0.0,2.1122781941143747,0.0,0.0,-0.0013938785983506098,0.0,0.0,0.0,0.35,0.0,0.0,0.0,0.0,0.0,2.1122781941143747,stabilize,85.0,2.0,0.0,0.0,-2.0,0.11227819411437467,0.0,0,0
1761249433.6869643,6.6715474128723145,0.0,0.0,2.1133764623076323,0.0,0.0,0.006887114819628223,0.0,0.0,0.0,0.35,0.0,0.0,0.0,0.0,0.0,2.1133764623076323,stabilize,85.0,2.0,0.0,0.0,-2.0,0.11337646230763232,0.0,0,0
1761249433.7924101,6.776993274688721,0.0,0.0,2.1145335992216054,0.0,0.0,0.017231054581026813,0.0,0.0,0.0,0.35,0.0,0.0,0.0,0.0,0.0,2.1145335992216054,stabilize,85.0,2.0,0.0,0.0,-2.0,0.11453359922160544,0.0,0,0
1761249433.8968282,6.88141131401062,0.0,0.0,2.115046325228132,0.0,0.0,0.0352867992662479,0.0,0.0,0.0,0.6635426077154654,0.0,0.0,0.0,0.0,0.0,2.115046325228132,stabilize,85.0,2.0,0.0,0.0,-2.0,0.11504632522813196,0.0,0,0
1761249434.0020218,6.986604928970337,0.0,0.0,2.115680570843598,0.0,0.0,-0.017920942370026584,0.0,0.0,0.0,0.35,0.0,0.0,0.0,0.0,0.0,2.115680570843598,stabilize,85.0,2.0,0.0,0.0,-2.0,0.11568057084359795,0.0,0,0
1761249434.1098325,7.094415664672852,0.0,0.0,2.1166029574704646,0.0,0.0,-0.014067762280553089,0.0,0.0,0.0,0.3774109875147704,0.0,0.0,0.0,0.0,0.0,2.1166029574704646,stabilize,85.0,2.0,0.0,0.0,-2.0,0.11660295747046456,0.0,0,0
1761249434.2131917,7.197774887084961,0.0,0.0,2.117014280042543,0.0,0.0,0.012055799784113336,0.0,0.0,0.0,0.35,0.0,0.0,0.0,0.0,0.0,2.117014280042543,stabilize,85.0,2.0,0.0,0.0,-2.0,0.1170142800425431,0.0,0,0
1761249434.3159373,7.300520420074463,0.0,0.0,2.116924974481715,0.0,0.0,0.036384647458205105,0.0,0.0,0.0,0.6970847045274575,0.0,0.0,0.0,0.0,0.0,2.116924974481715,stabilize,85.0,2.0,0.0,0.0,-2.0,0.1169249744817149,0.0,0,0
1761249434.4208035,7.405386686325073,0.0,0.0,2.1170338138763696,0.0,0.0,-0.023008936475847536,0.0,0.0,0.0,0.35,0.0,0.0,0.0,0.0,0.0,2.1170338138763696,stabilize,85.0,2.0,0.0,0.0,-2.0,0.11703381387636957,0.0,0,0
1761249434.5262845,7.510867595672607,0.0,0.0,2.1160321472428776,0.0,0.0,-0.03123886279549004,0.0,0.0,0.0,0.35,0.0,0.0,0.0,0.0,0.0,2.1160321472428776,stabilize,85.0,2.0,0.0,0.0,-2.0,0.11603214724287758,0.0,0,0
1761249434.6330578,7.617640972137451,0.0,0.0,2.1150470903514798,0.0,0.0,-0.031951796571806225,0.0,0.0,0.0,0.38132210774229114,0.0,0.0,0.0,0.0,0.0,2.1150470903514798,stabilize,85.0,2.0,0.0,0.0,-2.0,0.11504709035147975,0.0,0,0
1761249434.7393444,7.7239274978637695,0.0,0.0,2.11364660534106,0.0,0.0,0.01718087053512246,0.0,0.0,0.0,0.6646207387460449,0.0,0.0,0.0,0.0,0.0,2.11364660534106,stabilize,85.0,2.0,0.0,0.0,-2.0,0.11364660534106008,0.0,0,0
1761249434.8438566,7.828439712524414,0.0,0.0,2.112547673343244,0.0,0.0,0.012540912326619823,0.0,0.0,0.0,0.6280368885888158,0.0,0.0,0.0,0.0,0.0,2.112547673343244,stabilize,85.0,2.0,0.0,0.0,-2.0,0.112547673343244,0.0,0,0
1761249434.9496307,7.934213876724243,0.0,0.0,2.1111669792573724,0.0,0.0,-0.01662643574439201,0.0,0.0,0.0,0.47842990703461435,0.0,0.0,0.0,0.0,0.0,2.1111669792573724,stabilize,85.0,2.0,0.0,0.0,-2.0,0.1111669792573724,0.0,0,0
1761249435.0544643,8.039047479629517,0.0,0.0,2.1096338612194825,0.0,0.0,-0.019581851298923973,0.0,0.0,0.0,0.35,0.0,0.0,0.0,0.0,0.0,2.1096338612194825,stabilize,85.0,2.0,0.0,0.0,-2.0,0.10963386121948249,0.0,0,0
1761249435.1598766,8.14445972442627,0.0,0.0,2.1090553406105523,0.0,0.0,-0.00478619633109886,0.0,0.0,0.0,0.5191717170308033,0.0,0.0,0.0,0.0,0.0,2.1090553406105523,stabilize,85.0,2.0,0.0,0.0,-2.0,0.10905534061055233,0.0,0,0
1761249435.2652776,8.249860763549805,0.0,0.0,2.107268394659725,0.0,0.0,-0.015365682071350802,0.0,0.0,0.0,0.35,0.0,0.0,0.0,0.0,0.0,2.107268394659725,stabilize,85.0,2.0,0.0,0.0,-2.0,0.10726839465972482,0.0,0,0
1761249435.3699524,8.354535579681396,0.0,0.0,2.105538543467632,0.0,0.0,0.014666872100483543,0.0,0.0,0.0,0.6657694451700754,0.0,0.0,0.0,0.0,0.0,2.105538543467632,stabilize,85.0,2.0,0.0,0.0,-2.0,0.10553854346763192,0.0,0,0
1761249435.4757836,8.46036672592163,0.0,0.0,2.1045760869040913,0.0,0.0,0.00024118942417898637,0.0,0.0,0.0,0.35,0.0,0.0,0.0,0.0,0.0,2.1045760869040913,stabilize,85.0,2.0,0.0,0.0,-2.0,0.10457608690409126,0.0,0,0
1761249435.5811236,8.565706729888916,0.0,0.0,2.10283863553781,0.0,0.0,-0.03137302661957841,0.0,0.0,0.0,0.35,0.0,0.0,0.0,0.0,0.0,2.10283863553781,stabilize,85.0,2.0,0.0,0.0,-2.0,0.10283863553781014,0.0,0,0
1761249435.686299,8.670882225036621,0.0,0.0,2.1014941246582195,0.0,0.0,0.01735931610601637,0.0,0.0,0.0,0.655045694019339,0.0,0.0,0.0,0.0,0.0,2.1014941246582195,stabilize,85.0,2.0,0.0,0.0,-2.0,0.1014941246582195,0.0,0,0
1761249435.7902899,8.77487301826477,0.0,0.0,2.1006322817777443,0.0,0.0,-0.01341017600442759,0.0,0.0,0.0,0.35,0.0,0.0,0.0,0.0,0.0,2.1006322817777443,stabilize,85.0,2.0,0.0,0.0,-2.0,0.1006322817777443,0.0,0,0
1761249435.8951042,8.879687309265137,0.0,0.0,2.0993672969034427,0.0,0.0,-0.011595338163152755,0.0,0.0,0.0,0.5038400500632179,0.0,0.0,0.0,0.0,0.0,2.0993672969034427,stabilize,85.0,2.0,0.0,0.0,-2.0,0.0993672969034427,0.0,0,0
1761249436.0004778,8.985060930252075,0.0,0.0,2.0985319504706847,0.0,0.0,0.007796930618784812,0.0,0.0,0.0,0.35,0.0,0.0,0.0,0.0,0.0,2.0985319504706847,stabilize,85.0,2.0,0.0,0.0,-2.0,0.09853195047068475,0.0,0,0
1761249436.1070871,9.091670274734497,0.0,0.0,2.0981104927743046,0.0,0.0,-0.005849477796903438,0.0,0.0,0.0,0.35,0.0,0.0,0.0,0.0,0.0,2.0981104927743046,stabilize,85.0,2.0,0.0,0.0,-2.0,0.09811049277430461,0.0,0,0
1761249436.2131014,9.197684526443481,0.0,0.0,2.0969651134660574,0.0,0.0,-0.02789970103448127,0.0,0.0,0.0,0.35,0.0,0.0,0.0,0.0,0.0,2.0969651134660574,stabilize,85.0,2.0,0.0,0.0,-2.0,0.0969651134660574,0.0,0,0
1761249436.3177333,9.302316427230835,0.0,0.0,2.096495642591494,0.0,0.0,-0.022391729942314555,0.0,0.0,0.0,0.35,0.0,0.0,0.0,0.0,0.0,2.096495642591494,stabilize,85.0,2.0,0.0,0.0,-2.0,0.09649564259149379,0.0,0,0
1761249436.4247413,9.409324407577515,0.0,0.0,2.0950816693026675,0.0,0.0,-0.03023671769880353,0.0,0.0,0.0,0.35,0.0,0.0,0.0,0.0,0.0,2.0950816693026675,stabilize,85.0,2.0,0.0,0.0,-2.0,0.09508166930266748,0.0,0,0
1761249436.530221,9.514804124832153,0.0,0.0,2.093151133441448,0.0,0.0,-0.04041495334219514,0.0,0.0,0.0,0.35,0.0,0.0,0.0,0.0,0.0,2.093151133441448,stabilize,85.0,2.0,0.0,0.0,-2.0,0.09315113344144788,0.0,0,0
1761249436.6376555,9.622238636016846,0.0,0.0,2.0915829454126014,0.0,0.0,-0.003398521924495794,0.0,0.0,0.0,0.5564009582707161,0.0,0.0,0.0,0.0,0.0,2.0915829454126014,stabilize,85.0,2.0,0.0,0.0,-2.0,0.09158294541260137,0.0,0,0
1761249436.7411053,9.725688457489014,0.0,0.0,2.0897290560527875,0.0,0.0,-0.039560807689380306,0.0,0.0,0.0,0.3592327765601613,0.0,0.0,0.0,0.0,0.0,2.0897290560527875,stabilize,85.0,2.0,0.0,0.0,-2.0,0.08972905605278747,0.0,0,0
1761249436.8455162,9.83009934425354,0.0,0.0,2.0892696299991464,0.0,0.0,0.0031233968782065982,0.0,0.0,0.0,0.35,0.0,0.0,0.0,0.0,0.0,2.0892696299991464,stabilize,85.0,2.0,0.0,0.0,-2.0,0.08926962999914645,0.0,0,0
1761249436.9508042,9.935387372970581,0.0,0.0,2.08865589247358,0.0,0.0,0.005094294713935091,0.0,0.0,0.0,0.35,0.0,0.0,0.0,0.0,0.0,2.08865589247358,stabilize,85.0,2.0,0.0,0.0,-2.0,0.08865589247358008,0.0,0,0
1761249437.0541487,10.038731813430786,0.0,0.0,2.0873366169383476,0.0,0.0,0.029710775906476028,0.0,0.0,0.0,0.7076096687473141,0.0,0.0,0.0,0.0,0.0,2.0873366169383476,stabilize,85.0,2.0,0.0,0.0,-2.0,0.0873366169383476,0.0,0,0
1761249437.160282,10.144865036010742,0.0,0.0,2.0869295659503675,0.0,0.0,0.009165163537794872,0.0,0.0,0.0,0.35,0.0,0.0,0.0,0.0,0.0,2.0869295659503675,stabilize,85.0,2.0,0.0,0.0,-2.0,0.0869295659503675,0.0,0,0
1761249437.264484,10.249067068099976,0.0,0.0,2.086599603052127,0.0,0.0,0.013505831583713327,0.0,0.0,0.0,0.6010578394641535,0.0,0.0,0.0,0.0,0.0,2.086599603052127,stabilize,85.0,2.0,0.0,0.0,-2.0,0.086599603052127,0.0,0,0
1761249437.369506,10.35408902168274,0.0,0.0,2.0859368191402505,0.0,0.0,0.011152136297423093,0.0,0.0,0.0,0.5937744930512736,0.0,0.0,0.0,0.0,0.0,2.0859368191402505,stabilize,85.0,2.0,0.0,0.0,-2.0,0.08593681914025053,0.0,0,0
1761249437.4731286,10.457711696624756,0.0,0.0,2.0847149579876705,0.0,0.0,-0.026846715956624544,0.0,0.0,0.0,0.41530774142348104,0.0,0.0,0.0,0.0,0.0,2.0847149579876705,stabilize,85.0,2.0,0.0,0.0,-2.0,0.08471495798767048,0.0,0,0
1761249437.5802326,10.564815759658813,0.0,0.0,2.0830961345490495,0.0,0.0,0.016586160569541597,0.0,0.0,0.0,0.650013848755719,0.0,0.0,0.0,0.0,0.0,2.0830961345490495,stabilize,85.0,2.0,0.0,0.0,-2.0,0.08309613454904952,0.0,0,0
1761249437.686188,10.67077112197876,0.0,0.0,2.081680616969219,0.0,0.0,-0.03547379312080212,0.0,0.0,0.0,0.35,0.0,0.0,0.0,0.0,0.0,2.081680616969219,stabilize,85.0,2.0,0.0,0.0,-2.0,0.0816806169692188,0.0,0,0
1761249437.7897766,10.774359703063965,0.0,0.0,2.0814355494976913,0.0,0.0,0.00035668103219307565,0.0,0.0,0.0,0.35,0.0,0.0,0.0,0.0,0.0,2.0814355494976913,stabilize,85.0,2.0,0.0,0.0,-2.0,0.08143554949769127,0.0,0,0
1761249437.8943193,10.878902435302734,0.0,0.0,2.0801814382732036,0.0,0.0,-0.023186512807191542,0.0,0.0,0.0,0.35,0.0,0.0,0.0,0.0,0.0,2.0801814382732036,stabilize,85.0,2.0,0.0,0.0,-2.0,0.08018143827320356,0.0,0,0
1761249438.0009077,10.985490798950195,0.0,0.0,2.079049169857356,0.0,0.0,0.00782911939340479,0.0,0.0,0.0,0.35,0.0,0.0,0.0,0.0,0.0,2.079049169857356,stabilize,85.0,2.0,0.0,0.0,-2.0,0.0790491698573561,0.0,0,0
1761249438.1069756,11.091558694839478,0.0,0.0,2.078386678573137,0.0,0.0,0.012530555970824708,0.0,0.0,0.0,0.6043633369992254,0.0,0.0,0.0,0.0,0.0,2.078386678573137,stabilize,85.0,2.0,0.0,0.0,-2.0,0.07838667857313686,0.0,0,0
1761249438.2115555,11.196138620376587,0.0,0.0,2.077537199144826,0.0,0.0,-0.015061495855188938,0.0,0.0,0.0,0.35,0.0,0.0,0.0,0.0,0.0,2.077537199144826,stabilize,85.0,2.0,0.0,0.0,-2.0,0.07753719914482593,0.0,0,0
1761249438.3169234,11.301506519317627,0.0,0.0,2.0771581255796128,0.0,0.0,0.034462253454826716,0.0,0.0,0.0,0.7007169036277612,0.0,0.0,0.0,0.0,0.0,2.0771581255796128,stabilize,85.0,2.0,0.0,0.0,-2.0,0.07715812557961277,0.0,0,0
1761249438.4235322,11.40811538696289,0.0031867212980994696,0.0,2.1162004119190057,0.12815525651160042,0.0,0.8990786733312073,0.0,-0.17220007537404403,0.0,1.0,0.0,-0.3,0.0,0.0031867212980994696,0.0,2.1162004119190057,auto,85.0,5,10.0,0.0,0.0,10.218345262939435,0.17220007537404403,0,0
1761249438.5272963,11.511879444122314,0.04097778378477533,0.0,2.25402881333277,0.6096020699489058,0.0,1.5430576642641647,0.0,-0.42585769094317416,0.0,0.35,0.0,-0.3,0.0,0.04097778378477533,0.0,2.25402881333277,auto,85.0,5,10.0,0.0,0.0,10.210914229117916,0.42585769094317416,0,0
1761249438.6312532,11.615836381912231,0.1382961989918211,0.0,2.421830975482284,1.2862278394784494,0.0,1.6323305618504242,0.0,-0.6558905095295688,0.0,0.35,0.0,0.07099346958112973,0.0,0.1382961989918211,0.0,2.421830975482284,auto,85.0,5,10.0,0.0,0.0,10.154726344546397,0.6558905095295688,0,0
1761249438.735672,11.720255136489868,0.31886774362025355,0.0,2.5999529345355015,2.110626385362491,0.0,1.7636783303142836,0.0,-0.5134720777816197,0.0,0.8007293024352904,0.0,0.3,0.0,0.31886774362025355,0.0,2.5999529345355015,auto,85.0,5,10.0,0.0,0.0,10.024174630727268,0.5134720777816197,0,0
1761249438.8407822,11.8253653049469,0.5635698186367403,0.0,2.7840863257490103,2.499131681678879,0.0,1.756228849712745,0.0,-0.2440849390500871,0.0,0.35,0.0,0.3,0.0,0.5635698186367403,0.0,2.7840863257490103,auto,85.0,5,10.0,0.0,0.0,9.838564490664584,0.2440849390500871,0,0
1761249438.9441185,11.928701639175415,0.8282511950281861,0.0,2.9632269896351833,2.580323964110863,0.0,1.711076674352035,0.0,0.017351491693532173,0.0,0.3734688337570946,0.0,0.3,0.0,0.8282511950281861,0.0,2.9632269896351833,auto,85.0,5,10.0,0.0,0.0,9.638552294489267,0.017351491693532173,0,0
1761249439.0500603,12.034643411636353,1.094989437038206,0.0,3.1419654917332895,2.443793212147266,0.0,1.6595233996193894,0.0,0.0662535595328323,0.0,0.35,0.0,-0.3,0.0,1.094989437038206,0.0,3.1419654917332895,auto,85.0,5,10.0,0.0,0.0,9.4430482513701,0.06625355953283228,0,0
1761249439.1551335,12.139716625213623,1.3503969169560506,0.0,3.3124721219435,2.4252219358837426,0.0,1.5781513297408085,0.0,0.030531902391650437,0.0,0.38029169707570387,0.0,0.17312458400094777,0.0,1.3503969169560506,0.0,3.3124721219435,auto,85.0,5,10.0,0.0,0.0,9.262186839664608,0.030531902391650434,0,0
1761249439.259543,12.244126081466675,1.5993083533080794,0.0,3.473413436028933,2.3588284968607125,0.0,1.5013016063944806,0.0,-0.0073432756716721335,0.0,0.35,0.0,0.18771957320171673,0.0,1.5993083533080794,0.0,3.473413436028933,auto,85.0,5,10.0,0.0,0.0,9.090446690916005,0.007343275671672133,0,0
1761249439.3640924,12.34867548942566,1.842361846419614,0.0,3.6255418310350813,2.2848912002114625,0.0,1.4076694898596844,0.0,0.011253546461622466,0.0,0.35,0.0,-0.3,0.0,1.842361846419614,0.0,3.6255418310350813,auto,85.0,5,10.0,0.0,0.0,8.927015952340156,0.011253546461622466,0,0
1761249439.4687014,12.453284502029419,2.0788475661601455,0.0,3.768734327724761,2.223106271506652,0.0,1.3214356057376409,0.0,0.0336735802072005,0.0,0.35,0.0,-0.3,0.0,2.0788475661601455,0.0,3.768734327724761,auto,85.0,5,10.0,0.0,0.0,8.772001727832595,0.0336735802072005,0,0
1761249439.5723994,12.556982517242432,2.3063285613906284,0.0,3.9003238674417386,2.155806189388986,0.0,1.2181693816425028,0.0,0.0317568818464277,0.0,0.35,0.0,-0.015882880269550988,0.0,2.3063285613906284,0.0,3.9003238674417386,auto,85.0,5,10.0,0.0,0.0,8.625839465014943,0.0317568818464277,0,0
1761249439.6765676,12.661150693893433,2.528335015659002,0.0,4.0237002947367015,2.093549714267376,0.0,1.148155341444497,0.0,0.0437335650103661,0.0,0.35,0.0,-0.23141891501446282,0.0,2.528335015659002,0.0,4.0237002947367015,auto,85.0,5,10.0,0.0,0.0,8.486220695933591,0.0437335650103661,0,0
1761249439.7802522,12.764835357666016,2.7428476774554555,0.0,4.137357863749708,2.030292565960894,0.0,1.0536780516874775,0.0,0.0592774316541,0.0,0.35,0.0,-0.3,0.0,2.7428476774554555,0.0,4.137357863749708,auto,85.0,5,10.0,0.0,0.0,8.353681219997878,0.059277431654099995,0,0
1761249439.8875136,12.87209677696228,2.9596961798336645,0.0,4.244893270200326,2.015573573118611,0.0,0.9556014486929059,0.0,0.051840618967384684,0.0,0.35,0.0,0.3,0.0,2.9596961798336645,0.0,4.244893270200326,auto,85.0,5,10.0,0.0,0.0,8.221009473029497,0.051840618967384684,0,0
1761249439.9921443,12.976727485656738,3.1659193424460472,0.0,4.339904535479281,1.9377161818436204,0.0,0.8860129860553034,0.0,0.015231577027936458,0.0,0.5384310377783859,0.0,0.2386326488280194,0.0,3.1659193424460472,0.0,4.339904535479281,auto,85.0,5,10.0,0.0,0.0,8.095642643485858,0.015231577027936458,0,0
1761249440.0945644,13.079147577285767,3.359955622509621,0.0,4.42402039839322,1.8835887246132055,0.0,0.7922196394751954,0.0,0.043928609036647664,0.0,0.40114444353332834,0.0,-0.3,0.0,3.359955622509621,0.0,4.42402039839322,auto,85.0,5,10.0,0.0,0.0,7.978856172437306,0.043928609036647664,0,0
1761249440.2006197,13.185202836990356,3.5570506379457054,0.0,4.50461783888414,1.7900042471899362,0.0,0.7174116897203453,0.0,0.04019010833611585,0.0,0.35,0.0,-0.3,0.0,3.5570506379457054,0.0,4.50461783888414,auto,85.0,5,10.0,0.0,0.0,7.861499752362081,0.04019010833611585,0,0
1761249440.306424,13.291007041931152,3.745906900951668,0.0,4.57695234704805,1.7667877872014712,0.0,0.6549094597180382,0.0,0.08469387990666341,0.0,0.506575807593269,0.0,0.09747281637892555,0.0,3.745906900951668,0.0,4.57695234704805,auto,85.0,5,10.0,0.0,0.0,7.7499789211786005,0.08469387990666341,0,0
1761249440.4114263,13.39600944519043,3.9278628838143224,0.0,4.641061645476909,1.7177085520949638,0.0,0.5727729286702561,0.0,0.033105350006931704,0.0,0.36478103706599735,0.0,0.3,0.0,3.9278628838143224,0.0,4.641061645476909,auto,85.0,5,10.0,0.0,0.0,7.642663302467049,0.033105350006931704,0,0
1761249440.5178084,13.502391576766968,4.106615600681476,0.0,4.7001008594698455,1.6597854518717121,0.0,0.5185486512177631,0.0,-0.014317281918235692,0.0,0.35,0.0,0.3,0.0,4.106615600681476,0.0,4.7001008594698455,auto,85.0,5,10.0,0.0,0.0,7.538098418521752,0.01431728191823569,0,0
1761249440.6273797,13.611962795257568,4.286939702109387,0.0,4.753583478433966,1.602620496168045,0.0,0.4673507265834605,0.0,0.09252971240848396,0.0,0.35,0.0,-0.3,0.0,4.286939702109387,0.0,4.753583478433966,auto,85.0,5,10.0,0.0,0.0,7.4320665937392105,0.09252971240848396,0,0
1761249440.7303152,13.714898347854614,4.449730703149291,0.0,4.798190067491458,1.5641123460991195,0.0,0.3994344022529804,0.0,0.06371806734395487,0.0,0.35,0.0,-0.14326800995031366,0.0,4.449730703149291,0.0,4.798190067491458,auto,85.0,5,10.0,0.0,0.0,7.336764763254806,0.06371806734395487,0,0
1761249440.8337116,13.818294763565063,4.609320666491229,0.0,4.838806967327412,1.528958530905914,0.0,0.365569239791176,0.0,0.06462314627048668,0.0,0.35,0.0,-0.07181430812293313,0.0,4.609320666491229,0.0,4.838806967327412,auto,85.0,5,10.0,0.0,0.0,7.243857849500836,0.06462314627048668,0,0
1761249440.9379396,13.922522783279419,4.765465243072739,0.0,4.875714447690511,1.4816191466466302,0.0,0.3336077501431783,0.0,0.046940864546937966,0.0,0.35,0.0,0.3,0.0,4.765465243072739,0.0,4.875714447690511,auto,85.0,5,10.0,0.0,0.0,7.153526787319492,0.046940864546937966,0,0
1761249441.044277,14.028860092163086,4.919876807754151,0.0,4.908377765431335,1.4370966896033537,0.0,0.29771133820484064,0.0,0.03761926588552681,0.0,0.35,0.0,0.3,0.0,4.919876807754151,0.0,4.908377765431335,auto,85.0,5,10.0,0.0,0.0,7.063980742936299,0.03761926588552681,0,0
1761249441.1475008,14.132083892822266,5.064986406408278,0.0,4.937354676447207,1.3916024108412417,0.0,0.2593766285887313,0.0,0.006089441964003897,0.0,0.35,0.0,0.3,0.0,5.064986406408278,0.0,4.937354676447207,auto,85.0,5,10.0,0.0,0.0,6.980818746391442,0.006089441964003897,0,0
1761249441.2535114,14.238094568252563,5.20964401222238,0.0,4.963388355238804,1.3411894192143905,0.0,0.2202975335246483,0.0,-0.018629406642074155,0.0,0.35,0.0,-0.22789450036060738,0.0,5.20964401222238,0.0,4.963388355238804,auto,85.0,5,10.0,0.0,0.0,6.898023952883685,0.018629406642074155,0,0
1761249441.3549,14.33948302268982,5.344922154346494,0.0,4.985065848745881,1.3051359342480136,0.0,0.20367840291771647,0.0,0.0794091718256241,0.0,0.35,0.0,0.3,0.0,5.344922154346494,0.0,4.985065848745881,auto,85.0,5,10.0,0.0,0.0,6.82060343851089,0.0794091718256241,0,0
1761249441.459698,14.444281101226807,5.477042929120876,0.0,5.004547271316906,1.2461715085346294,0.0,0.1677563361220921,0.0,-0.05010725390055822,0.0,0.35,0.0,0.3,0.0,5.477042929120876,0.0,5.004547271316906,auto,85.0,5,10.0,0.0,0.0,6.745564028000991,0.05010725390055823,0,0
1761249441.5658267,14.55040979385376,5.608835666677274,0.0,5.021077408280868,1.2174157127251728,0.0,0.1444120864746515,0.0,0.01631893207977336,0.0,0.35,0.0,-0.28316844219500537,0.0,5.608835666677274,0.0,5.021077408280868,auto,85.0,5,10.0,0.0,0.0,6.670348007577576,0.01631893207977336,0,0
1761249441.6699624,14.654545545578003,5.734442576022354,0.0,5.0363423961655895,1.1812989167884287,0.0,0.15515588050546533,0.0,0.03032718385735575,0.0,0.35,0.0,-0.2959222155051463,0.0,5.734442576022354,0.0,5.0363423961655895,auto,85.0,5,10.0,0.0,0.0,6.599979156684191,0.03032718385735575,0,0
1761249441.7742715,14.758854627609253,5.8569768928000485,0.0,5.050143740313555,1.153769874398612,0.0,0.11816753383760965,0.0,0.04892784847737273,0.0,0.4543524008737063,0.0,-0.09065013223451404,0.0,5.8569768928000485,0.0,5.050143740313555,auto,85.0,5,10.0,0.0,0.0,6.532120043647462,0.04892784847737272,0,0
1761249441.8780317,14.862614870071411,5.975583379522168,0.0,5.061867076406717,1.1248962817507069,0.0,0.12652084405065,0.0,0.07222002526998693,0.0,0.35,0.0,-0.3,0.0,5.975583379522168,0.0,5.061867076406717,auto,85.0,5,10.0,0.0,0.0,6.466716897652819,0.07222002526998693,0,0
1761249441.9832141,14.96779727935791,6.092258479825527,0.0,5.072941413051643,1.0986923044817156,0.0,0.11683456159337852,0.0,0.054865802752618945,0.0,0.5920295941259465,0.0,0.026316463091358176,0.0,6.092258479825527,0.0,5.072941413051643,auto,85.0,5,10.0,0.0,0.0,6.403528587329793,0.054865802752618945,0,0
1761249442.0857396,15.070322751998901,6.202376345422912,0.0,5.081680507169249,1.0536304949729518,0.0,0.07266188434955395,0.0,0.07974687116449394,0.0,0.35,0.0,0.1514895567582882,0.0,6.202376345422912,0.0,5.081680507169249,auto,85.0,5,10.0,0.0,0.0,6.343927978685395,0.07974687116449394,0,0
1761249442.1899588,15.17454195022583,6.309324696992429,0.0,5.088395156280769,1.0293535226109636,0.0,0.07137487264382741,0.0,-0.02653563126299611,0.0,0.4879686437485258,0.0,0.3,0.0,6.309324696992429,0.0,5.088395156280769,auto,85.0,5,10.0,0.0,0.0,6.285924709912744,0.02653563126299611,0,0
1761249442.2949834,15.279566526412964,6.415671911226945,0.0,5.094892368993119,0.9991032868832854,0.0,0.07204854544989929,0.0,-0.014792134575526326,0.0,0.35,0.0,0.1373181201013951,0.0,6.415671911226945,0.0,5.094892368993119,auto,85.0,5,10.0,0.0,0.0,6.229392915813853,0.014792134575526326,0,0
1761249442.4009268,15.385509967803955,6.519847168126151,0.0,5.100212471979683,0.9636365925780502,0.0,0.06498154701146994,0.0,-0.013822281520116927,0.0,0.5842356013563593,0.0,-0.09526354679762089,0.0,6.519847168126151,0.0,5.100212471979683,auto,85.0,5,10.0,0.0,0.0,6.174433657635062,0.013822281520116927,0,0
1761249442.5060313,15.490614414215088,6.620583941624883,0.0,5.1049640069115405,0.9385334106884358,0.0,0.03534450924152441,0.0,0.012150653531188368,0.0,0.42090182053055974,0.0,-0.22712944714513858,0.0,6.620583941624883,0.0,5.1049640069115405,auto,85.0,5,10.0,0.0,0.0,6.122181833910681,0.012150653531188368,0,0
1761249442.611882,15.596465110778809,6.7190859682148005,0.0,5.109670337063931,0.908361400125137,0.0,0.037221443421043963,0.0,0.028109119447317414,0.0,0.35,0.0,-0.3,0.0,6.7190859682148005,0.0,5.109670337063931,auto,85.0,5,10.0,0.0,0.0,6.07232474736291,0.028109119447317414,0,0
1761249442.7177975,15.702380657196045,6.814944704943465,0.0,5.113174977007747,0.8870187321634292,0.0,0.02503866795641318,0.0,0.0652126416733593,0.0,0.4036507157888303,0.0,-0.3,0.0,6.814944704943465,0.0,5.113174977007747,auto,85.0,5,10.0,0.0,0.0,6.024046445543546,0.0652126416733593,0,0
1761249442.8226817,15.807264804840088,6.906950462448357,0.0,5.115402383787429,0.8635805314941308,0.0,0.046911402183791154,0.0,0.06216657548445413,0.0,0.6263317074830821,0.0,-0.10786492062696743,0.0,6.906950462448357,0.0,5.115402383787429,auto,85.0,5,10.0,0.0,0.0,5.977817075639447,0.06216657548445413,0,0
1761249442.922932,15.907515048980713,6.991568675571522,0.0,5.118360005551819,0.8345196482701432,0.0,0.03998116399609629,0.0,0.014218182935962725,0.0,0.35,0.0,0.03174341904160862,0.0,6.991568675571522,0.0,5.118360005551819,auto,85.0,5,10.0,0.0,0.0,5.9370251961933675,0.014218182935962727,0,0
1761249443.0278842,16.01246738433838,7.07816644883125,0.0,5.120745475366476,0.8232859280723603,0.0,0.007580504681822163,0.0,0.01834583267266987,0.0,0.35,0.0,0.3,0.0,7.07816644883125,0.0,5.120745475366476,auto,85.0,5,10.0,0.0,0.0,5.895688723484444,0.01834583267266987,0,0
1761249443.133625,16.118208169937134,7.163353045441324,0.0,5.121850834377869,0.8012817074017025,0.0,0.01743334620552278,0.0,0.021277778588627432,0.0,0.48015585789757215,0.0,0.3,0.0,7.163353045441324,0.0,5.121850834377869,auto,85.0,5,10.0,0.0,0.0,5.854905798936844,0.021277778588627436,0,0
1761249443.237935,16.2225182056427,7.245116565181864,0.0,5.12310210985231,0.7798923598885699,0.0,0.03912877519226052,0.0,0.019741239385656403,0.0,0.35,0.0,0.3,0.0,7.245116565181864,0.0,5.12310210985231,auto,85.0,5,10.0,0.0,0.0,5.81683401580349,0.019741239385656403,0,0
1761249443.3426743,16.32725739479065,7.325167727108556,0.0,5.1241306274081575,0.7582570961667364,0.0,0.0030316900703777835,0.0,0.029854140505509334,0.0,0.4236279212843459,0.0,0.2548555092049183,0.0,7.325167727108556,0.0,5.1241306274081575,auto,85.0,5,10.0,0.0,0.0,5.780263175223419,0.029854140505509334,0,0
1761249443.4487455,16.43332862854004,7.403253073938602,0.0,5.125328293167438,0.7377232589846254,0.0,-0.0058346188006963805,0.0,0.03814223856451169,0.0,0.35,0.0,0.15437284165093762,0.0,7.403253073938602,0.0,5.125328293167438,auto,85.0,5,10.0,0.0,0.0,5.74561438931921,0.03814223856451169,0,0
1761249443.5569694,16.541552543640137,7.482216554308908,0.0,5.126409510886791,0.7208499349347745,0.0,0.022161388284237138,0.0,0.038252427503196754,0.0,0.35,0.0,0.3,0.0,7.482216554308908,0.0,5.126409510886791,auto,85.0,5,10.0,0.0,0.0,5.711331539379119,0.038252427503196754,0,0
1761249443.6619618,16.646544933319092,7.552776442354233,0.001034579349552909,5.151609048961079,0.5919544200942263,0.058741834943544374,0.7278372595439296,0.11267302361304314,0.12721628036653038,0.006363459859225174,1.0,0.3,0.3,-0.022701714300202507,7.552776442354233,0.001034579349552909,5.151609048961079,auto,85.0,20,0.0,10.0,0.0,13.548535613300876,0.17005788973693933,1,0
1761249443.7659268,16.7505099773407,7.592038302668845,0.02758785472174541,5.279239164438174,0.0903302221198007,0.526295665100875,1.6766287105825193,0.3488251664426143,0.36374092990240214,0.026471273038022807,1.0,0.3,0.3,-0.09085580305682041,7.592038302668845,0.02758785472174541,5.279239164438174,auto,85.0,20,0.0,10.0,0.0,13.59994175501579,0.5046654229548874,1,0
1761249443.8701518,16.854734897613525,7.5586128295137,0.12499841349474816,5.487965259091346,-0.7815379999233805,1.4081194466153053,2.2606878788352938,0.5830308105437529,0.5960883782909568,0.04345498900583582,1.0,0.2963500341507004,0.235398065899719,-0.12,7.5586128295137,0.12499841349474816,5.487965259091346,auto,85.0,20,0.0,10.0,0.0,13.592867501927763,0.8349458765970078,1,0
1761249443.9745002,16.959083318710327,7.424445457048562,0.333467407876835,5.7418076742595225,-1.741836991234286,2.569489325210558,2.602809206665039,0.5868382866755862,0.4874857361986703,0.05130902705440346,1.0,-0.3,-0.3,-0.12,7.424445457048562,0.333467407876835,5.7418076742595225,auto,85.0,20,0.0,10.0,0.0,13.473403358745479,0.7646267939084836,1,0
1761249444.0796978,17.06428098678589,7.204659126501446,0.6494040513632955,6.040880403285772,-2.3541439078241444,3.33409828466759,3.076849249523675,0.3461026748159279,0.24659354397382277,0.0595694491321766,1.0,-0.3,-0.3,-0.12,7.204659126501446,0.6494040513632955,6.040880403285772,auto,85.0,20,0.0,10.0,0.0,13.260203383453204,0.42911997939296714,1,0
1761249444.1857564,17.170339584350586,6.944437018025806,1.0186592796740987,6.384195716343356,-2.4917362087371266,3.5704295723408355,3.3986792623138244,0.09241688376476508,-0.007033085948777559,0.056349390088792445,0.5927011770381799,-0.3,-0.3,-0.1124990691495415,6.944437018025806,1.0186592796740987,6.384195716343356,auto,85.0,20,0.0,10.0,0.0,13.024885472682215,0.10846934343920356,1,0
1761249444.291167,17.275750160217285,6.6916518895208394,1.3917569930425173,6.76089412893487,-2.2450891487562403,3.450639727650125,3.716075231802646,-0.16031102147653167,-0.24737690731174417,0.04633088432625545,0.35,-0.3,0.3,-0.07483862825569179,6.6916518895208394,1.3917569930425173,6.76089412893487,auto,85.0,20,0.0,10.0,0.0,12.829253372664608,0.29839823846736285,1,0
1761249444.3914058,17.375988960266113,6.483013556189017,1.7177511958960785,7.146581698023153,-1.9699486717584835,2.992349670173406,3.9832933679806874,-0.39599957142854214,-0.040387083527585924,0.041242345221553414,0.9384778988572783,0.3,0.3,-0.0686926750061302,6.483013556189017,1.7177511958960785,7.146581698023153,auto,85.0,20,0.0,10.0,0.0,12.716081943324008,0.40018459256551475,1,0
1761249444.4962244,17.480807542800903,6.277867522212635,2.003858684590735,7.5729241302026775,-1.953543979656193,2.5158538349976736,4.173094829331507,-0.18295206951859874,-0.015371170421678463,0.03829447624076399,0.35,0.3,-0.3,-0.07080098748764051,6.277867522212635,2.003858684590735,7.5729241302026775,auto,85.0,20,0.0,10.0,0.0,12.67671394503533,0.18754785931016357,1,0
1761249444.6033418,17.58792495727539,6.0775580760067545,2.262427751456069,8.026951071202015,-1.8046992562164108,2.389408278491368,4.334909569507581,0.046826704796293514,-0.02618755009405544,0.03445866145270035,0.49381123588967957,-0.3,0.12411485776070807,-0.06265163503306385,6.0775580760067545,2.262427751456069,8.026951071202015,auto,85.0,20,0.0,10.0,0.0,12.697979365558258,0.06376462507628895,1,0
1761249444.7080636,17.692646741867065,5.8915364993463895,2.5098447285815277,8.491112151365565,-1.7135593716267818,2.266579260926235,4.469143388998925,-0.14118219478616922,-0.028723125950624977,0.025640204051072465,0.3632415631016636,0.3,0.3,-0.03735682706544114,5.8915364993463895,2.5098447285815277,8.491112151365565,auto,85.0,20,0.0,10.0,0.0,12.763683397834521,0.14633813635821638,1,0
1761249444.8140466,17.798629760742188,5.712415740237799,2.7425321162379697,8.973982217397083,-1.6474269460773756,2.1639092762070162,4.624384923373335,-0.01855818169133392,-0.06772735793384405,0.020284421560891833,0.35,-0.3,0.3,-0.029647280248935495,5.712415740237799,2.7425321162379697,8.973982217397083,auto,85.0,20,0.0,10.0,0.0,12.87768964183067,0.07309486218912765,1,0
1761249444.9175372,17.902120351791382,5.54496710013145,2.9598767671670565,9.457707945234231,-1.5879469510871906,2.044121320317294,4.761853018014573,0.005006919769457389,-0.060942729788415216,0.021405922754793073,0.751153777920848,0.07969227552995345,0.0829727899206469,-0.044303823351083904,5.54496710013145,2.9598767671670565,9.457707945234231,auto,85.0,20,0.0,10.0,0.0,13.029130241591764,0.06478656564925897,1,0
1761249445.0203602,18.004943370819092,5.385174143355881,3.1673622209192374,9.948975851863716,-1.5333332626504315,1.962996582477813,4.813784508647193,-0.08389734707706643,-0.03615839647105697,0.022910941527314342,0.35,0.3,-0.09750133227579769,-0.05062348695803232,5.385174143355881,3.1673622209192374,9.948975851863716,auto,85.0,20,0.0,10.0,0.0,13.216170401268206,0.09418654746616371,1,0
1761249445.1242197,18.108802795410156,5.229403456570503,3.3675477679181003,10.454503500547828,-1.4791299356593686,1.9017699342151333,4.870153230479089,-0.056446208710028825,-0.037760598619209225,0.01638147888416586,0.35,-0.14847982959267264,-0.13910289003667287,-0.02480465318808165,5.229403456570503,3.3675477679181003,10.454503500547828,auto,85.0,20,0.0,10.0,0.0,13.439967506114234,0.069859789122567,1,0
1761249445.2276895,18.21227264404297,5.0802610429698305,3.558841029049949,10.96863184244433,-1.4304998390943366,1.8263264141629572,5.002693769085246,0.00387589970422931,0.0034059708463439024,0.0034599230663594155,0.35,-0.3,-0.3,0.015824733528419135,5.0802610429698305,3.558841029049949,10.96863184244433,auto,85.0,20,0.0,10.0,0.0,13.697023970514577,0.006212431371734853,1,0
1761249445.3314865,18.31606960296631,4.934961489540057,3.7445382618567913,11.48996717205072,-1.3827748504184045,1.7607626648128367,5.028615420208608,0.004681524761250356,0.010032352879629537,-0.00456001528430902,0.35,-0.15642894881331,-0.3,0.025247669818108658,4.934961489540057,3.7445382618567913,11.48996717205072,auto,85.0,20,0.0,10.0,0.0,13.982274209706384,0.011973241740846258,1,0
1761249445.4361043,18.420687437057495,4.793051439608859,3.9254404132554206,12.019040979692019,-1.3463601163473538,1.7045637086255847,5.064003727128883,0.021856313933447925,0.029307100457854063,-0.0076803025270234925,0.35,-0.3,-0.3,0.021058624684737428,4.793051439608859,3.9254404132554206,12.019040979692019,auto,85.0,20,0.0,10.0,0.0,14.29443816129767,0.037357618271388546,1,0
1761249445.5415268,18.52610993385315,4.654569164313389,4.10135376730962,12.556115003593398,-1.2798403360220023,1.630729712932181,5.102458570360504,0.025910336406871032,0.027870533227765414,-0.014222364430689466,0.35,0.2957608483140442,0.3,0.037463042934860934,4.654569164313389,4.10135376730962,12.556115003593398,auto,85.0,20,0.0,10.0,0.0,14.632671166512036,0.04062496529372725,1,0
1761249445.6464598,18.631042957305908,4.5200996169970695,4.272027151155412,13.096046756690935,-1.2492619887464518,1.586538671958176,5.215709353015737,-0.07040642554185686,-0.06502916235013276,-0.02030074701829997,0.35,0.3,0.3,0.052167579296729105,4.5200996169970695,4.272027151155412,13.096046756690935,auto,85.0,20,0.0,10.0,0.0,14.991578107661415,0.09796926580842573,1,0
1761249445.7525604,18.737143516540527,4.389249321439225,4.437995459358125,13.64682118529096,-1.2429874105166407,1.571928290730025,5.176736980908232,0.03477928722648438,0.0302018530250052,-0.027197131074334243,0.35,-0.3,-0.3,0.06594867532324557,4.389249321439225,4.437995459358125,13.64682118529096,auto,85.0,20,0.0,10.0,0.0,15.376512367217142,0.05349237968908126,1,0
1761249445.8559175,18.840500593185425,4.264832777166722,4.595874392195766,14.179680845250612,-1.1655182308248278,1.485038197347322,5.180473810342945,-0.041454793282542354,-0.04036194440968501,-0.03481600879558002,0.35,-0.3,-0.3,0.08450277425156391,4.264832777166722,4.595874392195766,14.179680845250612,auto,85.0,20,0.0,10.0,0.0,15.762509986524615,0.06752585364941881,1,0
1761249445.9597325,18.944315671920776,4.147152809146849,4.7452469318869275,14.72327682751024,-1.11825815650502,1.4018403129132377,5.202276123289172,0.05272584032490171,0.07551572056376833,-0.038432770070055335,0.35,0.3,-0.20007786094440128,0.08526748034019474,4.147152809146849,4.7452469318869275,14.72327682751024,auto,85.0,20,0.0,10.0,0.0,16.173626271456822,0.09979837726882095,1,0
1761249446.06628,19.050863027572632,4.027860686875509,4.897378178977819,15.277513529053843,-1.0930668299074755,1.4240003297446484,5.201139575124965,-0.05912284279276757,-0.013966482889193447,-0.036098390974886964,0.4883908290402606,-0.3,0.3,0.07082458518784657,4.027860686875509,4.897378178977819,15.277513529053843,auto,85.0,20,0.0,10.0,0.0,16.603097024099817,0.07066588296461201,1,0
1761249446.1715963,19.156179428100586,3.9131507156686918,5.043105126174204,15.826071932198237,-1.0693444128885916,1.3775242006008195,5.229323206596229,0.05458353651200073,-0.028482476869257617,-0.024724999296540644,0.35,-0.3,0.3,0.028810989861092547,3.9131507156686918,5.043105126174204,15.826071932198237,auto,85.0,20,0.0,10.0,0.0,17.03960410680987,0.06634711400640309,1,0
1761249446.276171,19.260754108428955,3.8022643207740336,5.185160715797034,16.365870519208773,-1.0426689522584818,1.3294468129975192,5.082943327008029,0.01581604192383769,-0.051500762700767526,-0.013230975162423013,0.35,0.07154164318678612,0.3,0.0005199057223149485,3.8022643207740336,5.185160715797034,16.365870519208773,auto,85.0,20,0.0,10.0,0.0,17.47803218755596,0.055475530142991995,1,0
1761249446.3816116,19.36619472503662,3.6936366277253003,5.324597880067316,16.894368677858367,-1.023839568078603,1.2960738416226498,4.935612256630785,-0.03197964486745375,-0.035448294611266126,-0.0069348102286353195,0.35,0.3,-0.03867755626182038,-0.0025382473748001254,3.6936366277253003,5.324597880067316,16.894368677858367,auto,85.0,20,0.0,10.0,0.0,17.91429679178468,0.04824283231323349,1,0
1761249446.4860675,19.470650672912598,3.5891632963846543,5.458861749897712,17.402588072161016,-0.9974166541679367,1.2632786572137138,4.810249349663582,-0.0659740330527764,0.02205705548201573,-0.0018323732936214748,0.35,0.2979690287701949,-0.3,-0.010068871413273773,3.5891632963846543,5.458861749897712,17.402588072161016,auto,85.0,20,0.0,10.0,0.0,18.339959143465332,0.06958767366188304,1,0
1761249446.5921497,19.576732873916626,3.4862298725329115,5.590254556411101,17.90838492256248,-0.93956967904187,1.2214836884404068,4.714013926502007,-0.0518243928829042,0.006898468354388884,0.0021618099939401257,0.35,0.03454014178196806,0.3,-0.013826119757163947,3.4862298725329115,5.590254556411101,17.90838492256248,auto,85.0,20,0.0,10.0,0.0,18.769920195250087,0.052326188335937635,1,0
1761249446.6967137,19.681296825408936,3.387569517000777,5.715665577315191,18.396113850936725,-0.9266556034408256,1.1982873289800173,4.6130711820799855,0.008962030171397323,-0.0649048602411932,0.005898004208535965,0.35,-0.3,0.3,-0.02140626904906221,3.387569517000777,5.715665577315191,18.396113850936725,auto,85.0,20,0.0,10.0,0.0,19.189792950799156,0.06578560117051273,1,0
1761249446.7998078,19.784390926361084,3.2936232484629278,5.836668142863452,18.866944065304388,-0.9140966040800487,1.160559964369727,4.515717467832469,0.025230655690917623,-0.003754114908674617,0.006891587044120907,0.35,-0.3,-0.3,-0.01888256883387009,3.2936232484629278,5.836668142863452,18.866944065304388,auto,85.0,20,0.0,10.0,0.0,19.599562868053663,0.02642296988091728,1,0
1761249446.902375,19.886958122253418,3.2022265449076683,5.953587393766299,19.323828131308016,-0.8823595490686839,1.1223680870453179,4.391491913202132,0.03405346167427864,0.037119074144264116,-0.00011037794490232463,0.35,-0.19253436847608157,-0.3,0.011356243342700445,3.2022265449076683,5.953587393766299,19.323828131308016,auto,85.0,20,0.0,10.0,0.0,20.000951064215155,0.05037336697719998,1,0
1761249447.007173,19.991756200790405,3.111216376158029,6.070088710368064,19.77883936274258,-0.8502110976924885,1.0837484275517166,4.298160366902012,-0.009360432508186958,0.02684087543536093,-0.007879860350000342,0.35,0.3,-0.029768177003709574,0.03033904450694265,3.111216376158029,6.070088710368064,19.77883936274258,auto,85.0,20,0.0,10.0,0.0,20.404076960765114,0.029498177740538357,1,0
1761249447.1136692,20.098252296447754,3.0205875846705212,6.185150808186236,20.231925171378574,-0.8304212618533234,1.0576513818805302,4.21022956406664,-0.05958601543111006,-0.034553786599934654,-0.015114121754273948,0.35,0.3,0.3,0.045254457458664,3.0205875846705212,6.185150808186236,20.231925171378574,auto,85.0,20,0.0,10.0,0.0,20.808839944917874,0.07051874984536614,1,0
1761249447.2189116,20.203494787216187,2.9335393824391516,6.295304651895433,20.67064132900139,-0.8169173599938645,1.0473583513216533,4.136105340793683,-0.02402742821697088,-0.051523231531846674,-0.02026844842463031,0.35,-0.26286523385121496,0.3,0.05240425537702656,2.9335393824391516,6.295304651895433,20.67064132900139,auto,85.0,20,0.0,10.0,0.0,21.203910815762487,0.06035537006553656,1,0
1761249447.3253057,20.30988883972168,2.8479754015500895,6.403443326864061,21.104884661083133,-0.7929187851018269,1.0060000208686137,4.019487229204968,0.043703517926471494,-0.04709942068267609,-0.01632905176572764,0.35,-0.3,0.17783890961659826,0.02796934742436948,2.8479754015500895,6.403443326864061,21.104884661083133,auto,85.0,20,0.0,10.0,0.0,21.597739241608952,0.06629472708565082,1,0
1761249447.4336345,20.418217658996582,2.763974397929365,6.510896547398138,21.531397137662406,-0.764705420752597,0.9606118156433535,3.8629595725527905,-0.013645481054186195,-0.02575843051477923,-0.008494121418321331,0.35,0.3,0.0781921214929713,0.0021210136209402417,2.763974397929365,6.510896547398138,21.531397137662406,auto,85.0,20,0.0,10.0,0.0,21.98668824709861,0.03036191684419891,1,0
1761249447.5378518,20.522434949874878,2.6851302782520636,6.611289987402054,21.929605978349397,-0.747331925571355,0.9529119233678984,3.765144932087484,-0.0655420468911323,-0.051047006034371005,-0.009672156472272313,0.35,0.14723722437881842,0.1383378174421406,0.018441718884045364,2.6851302782520636,6.611289987402054,21.929605978349397,auto,85.0,20,0.0,10.0,0.0,22.351753813209495,0.08363675834569759,1,0
1761249447.6425693,20.62715244293213,2.6082636563831487,6.708872181266727,22.322690293281887,-0.7396338528321397,0.935709085144764,3.7423634944486013,0.011938392389427496,0.000713639669987675,-0.018050801044459632,0.35,-0.3,-0.3,0.04998239051993324,2.6082636563831487,6.708872181266727,22.322690293281887,auto,85.0,20,0.0,10.0,0.0,22.71424802960095,0.02165331181988532,1,0
1761249447.7476037,20.732186794281006,2.532722986486482,6.804412240564767,22.7111238478836,-0.7101738614458434,0.8891273675817178,3.658058006342038,0.03291318268923887,0.02312425587775567,-0.024235270856512937,0.35,-0.1386314583946908,-0.3,0.0629021514737144,2.532722986486482,6.804412240564767,22.7111238478836,auto,85.0,20,0.0,10.0,0.0,23.074263006398198,0.04696123037276256,1,0
1761249447.8535576,20.838140726089478,2.458896751131537,6.898282710232375,23.09356166592891,-0.6874197792224247,0.8591274665872745,3.5629132427007826,-0.04412306690696609,0.028564912926478073,-0.022434075652653228,0.35,0.3,-0.19474922978548725,0.044790141953173976,2.458896751131537,6.898282710232375,23.09356166592891,auto,85.0,20,0.0,10.0,0.0,23.430309724722587,0.0571496897118685,1,0
1761249447.957459,20.942042112350464,2.3885693697505235,6.987123345118792,23.460340291949546,-0.6649252167973898,0.8474289424206503,3.481630203496636,-0.05061420703932079,0.037144366149393364,-0.011300293856040007,0.35,0.17092752736492342,-0.0825000816476287,0.00288003990855875,2.3885693697505235,6.987123345118792,23.460340291949546,auto,85.0,20,0.0,10.0,0.0,23.773309739826086,0.06379026988571444,1,0
1761249448.0661864,21.050769567489624,2.31660330828929,7.077610545591899,23.835911960838725,-0.6407734263619264,0.8287918687288478,3.4306163512041805,-0.03185040869654461,-0.002919238837290398,0.0009099878212389092,0.35,-0.26620856198305465,0.28940773418490673,-0.025641727187342374,2.31660330828929,7.077610545591899,23.835911960838725,auto,85.0,20,0.0,10.0,0.0,24.125872212545335,0.03199685246021665,1,0
1761249448.1717732,21.15635633468628,2.2489609352494355,7.1623947689937015,24.19357385887599,-0.6240595893006158,0.7994344639951921,3.362871942991156,0.040843867812655456,-0.03367617871684697,0.01029211254740467,0.35,-0.3,0.3,-0.04183375479228518,2.2489609352494355,7.1623947689937015,24.19357385887599,auto,85.0,20,0.0,10.0,0.0,24.463009724892807,0.05392804587183865,1,0
1761249448.2773736,21.261956691741943,2.18329554001402,7.2454183458519585,24.545252901380646,-0.6121158226046762,0.7655885174909838,3.2764399581086945,0.015186135806765106,-0.054786536382346,0.016197844168302732,0.35,0.08295660820250939,0.24289418391768047,-0.04764853137406416,2.18329554001402,7.2454183458519585,24.545252901380646,auto,85.0,20,0.0,10.0,0.0,24.79564355884213,0.05911474811936742,1,0
1761249448.3815534,21.36613655090332,2.120708049089083,7.324899355535034,24.884287982100556,-0.5990667882569474,0.7424429560276032,3.223166409105507,-0.023483369575614983,-0.029885172149749867,0.019351842496711135,0.35,0.3,-0.06280995665038579,-0.04687300915038961,2.120708049089083,7.324899355535034,24.884287982100556,auto,85.0,20,0.0,10.0,0.0,25.11735166102514,0.04265074406223905,1,0
1761249448.4868085,21.471391677856445,2.0591799109839184,7.40307101888732,25.21934432478415,-0.5855531733300423,0.7272691244786146,3.1524264579375028,-0.06926575368458178,-0.0011814714231658807,0.02049158244052738,0.35,0.3,-0.3,-0.045181225380955564,2.0591799109839184,7.40307101888732,25.21934432478415,auto,85.0,20,0.0,10.0,0.0,25.436186628713926,0.07224296131204645,1,0
1761249448.592641,21.577224254608154,1.999170174701654,7.478696325378514,25.551232156003444,-0.5648273246005017,0.7194026271740652,3.1244309513981685,-0.014707046959109269,0.029258299114883694,0.016877830854694013,0.35,-0.3,-0.3,-0.029644383416419284,1.999170174701654,7.478696325378514,25.551232156003444,auto,85.0,20,0.0,10.0,0.0,25.75304095242076,0.0368402832740617,1,0
1761249448.696782,21.681365251541138,1.9418943867971379,7.551228690106518,25.872662455235204,-0.536793159469321,0.6897016995901379,3.0462004906808557,0.028294474763183242,0.034689102265200875,0.00784398735960808,0.35,-0.3,-0.07317384155105358,0.001613956680263897,1.9418943867971379,7.551228690106518,25.872662455235204,auto,85.0,20,0.0,10.0,0.0,26.06073861693427,0.04544710393179822,1,0
1761249448.800551,21.785134077072144,1.8862660930045294,7.621502808140239,26.185900045489777,-0.5170011104934514,0.6673122229268775,2.9813214824213703,0.031076111150972162,-0.013988211711872296,0.0019268064370777528,0.35,-0.2149088319627092,0.3,0.009679731176604322,1.8862660930045294,7.621502808140239,26.185900045489777,auto,85.0,20,0.0,10.0,0.0,26.361271021285845,0.03413366863098225,1,0
1761249448.9088411,21.89342427253723,1.830002803020668,7.692420209179319,26.502624008154378,-0.5121140308093027,0.6352446100287967,2.9041458763997374,-0.010410189643259543,-0.06639368779922053,0.001959340030469119,0.35,0.3,0.3,-0.0017268274217990967,1.830002803020668,7.692420209179319,26.502624008154378,auto,85.0,20,0.0,10.0,0.0,26.66576295678915,0.06723342056852376,1,0
1761249449.0134118,21.997994899749756,1.7772532371454197,7.75957885765239,26.805649277106518,-0.5092153104066299,0.6251553527406183,2.8693844028004363,-0.052360558878909946,-0.00821229103863689,0.0024231332828220124,0.35,0.3,-0.3,-0.005326008996479716,1.7772532371454197,7.75957885765239,26.805649277106518,auto,85.0,20,0.0,10.0,0.0,26.957762316840455,0.05305602157268665,1,0
1761249449.119477,22.104060173034668,1.7252811597159619,7.825441004382755,27.105625121112,-0.48658427280200545,0.6182711473008882,2.7813872376275683,-0.05111388283803648,0.039401252976088146,0.006675300050431269,0.35,-0.07801289767540191,-0.3,-0.022224318484445924,1.7252811597159619,7.825441004382755,27.105625121112,auto,85.0,20,0.0,10.0,0.0,27.247389143030723,0.06488179548709717,1,0
1761249449.225135,22.209718227386475,1.674718161894678,7.888327731649005,27.397084374612124,-0.4673550515887169,0.597063694659558,2.71780256716133,0.02923203027538896,0.029207962608739604,0.009184605555193131,0.35,-0.3,-0.028603634732852205,-0.024712554716949227,1.674718161894678,7.888327731649005,27.397084374612124,auto,85.0,20,0.0,10.0,0.0,27.529331138266297,0.042331709780958196,1,0
1761249449.33126,22.315843105316162,1.6253433237010042,7.950106424029495,27.683178863987287,-0.44781477697616273,0.5698898315695897,2.67206404853888,0.033864702889052245,0.0008949694619044372,0.004159010596447411,0.35,-0.2322548596460135,0.2243454911892861,-0.0015895968546539192,1.6253433237010042,7.950106424029495,27.683178863987287,auto,85.0,20,0.0,10.0,0.0,27.806513564418985,0.03413087226021168,1,0
1761249449.4360723,22.420655488967896,1.5779594205796523,8.00941812485977,27.960666197971854,-0.4376721227295552,0.5540947523705758,2.611040674081411,0.019958948392332015,-0.048127099907275886,-0.0004925033641605896,0.35,-0.04306339029744098,0.3,0.009610596032589513,1.5779594205796523,8.00941812485977,27.960666197971854,auto,85.0,20,0.0,10.0,0.0,28.075812123054224,0.052103933881967074,1,0
1761249449.5361204,22.520703554153442,1.5342711958725845,8.064578572161997,28.219114994997035,-0.43673890356369455,0.5325372693985974,2.5516785461342684,-0.028886064931380035,-0.043841294952995984,0.0011359139386972437,0.35,-0.20651892793353815,-0.3,-0.003704769398025147,1.5342711958725845,8.064578572161997,28.219114994997035,auto,85.0,20,0.0,10.0,0.0,28.326988814674344,0.05251432367318103,1,0
1761249449.6400018,22.624584913253784,1.4916494995564573,8.119082020954576,28.47903972588392,-0.4078341804366236,0.5261873630101674,2.462837426766959,-0.00794606821443159,0.0556563330957,-0.00031827929146209776,0.35,-0.16771022173396513,-0.2501456087177033,0.002137272522008454,1.4916494995564573,8.119082020954576,28.47903972588392,auto,85.0,20,0.0,10.0,0.0,28.580038040245814,0.05622160363628278,1,0
1761249449.745281,22.7298641204834,1.448782376160055,8.173177425847737,28.7349854947667,-0.39234588260931735,0.5170314058718845,2.421073456541605,0.0181348317572303,0.01118776635839602,0.0017441708192633318,0.35,-0.3,0.25856020625922327,-0.00636518289059246,1.448782376160055,8.173177425847737,28.7349854947667,auto,85.0,20,0.0,10.0,0.0,28.829423207469084,0.021379438037513427,1,0
1761249449.8497102,22.834293365478516,1.4073655572780273,8.225364335203109,28.984377767809697,-0.3835821999598073,0.4899917885716549,2.3744523292004587,0.04241791180472266,-0.024348669773158575,0.005856286530743112,0.35,-0.22276660446076182,0.3,-0.021362902814458785,1.4073655572780273,8.225364335203109,28.984377767809697,auto,85.0,20,0.0,10.0,0.0,29.072739192268806,0.049258837313985795,1,0
1761249449.954893,22.939476251602173,1.366560752332012,8.276764552844853,29.232169471041725,-0.3803357579974922,0.47051477748154585,2.340246565005164,-0.002210472478693184,-0.05499266466298231,0.006038203787654024,0.35,0.3,0.3,-0.015273926682484038,1.366560752332012,8.276764552844853,29.232169471041725,auto,85.0,20,0.0,10.0,0.0,29.314787406356032,0.05536731220039061,1,0
