timestamp,simulation_time,position_x,position_y,position_z,velocity_x,velocity_y,velocity_z,attitude_roll,attitude_pitch,attitude_yaw,control_throttle,control_roll,control_pitch,control_yaw,estimated_position_x,estimated_position_y,estimated_position_z,flight_mode,battery_level,setpoint_altitude,setpoint_position_x,setpoint_position_y,setpoint_position_z,position_error,attitude_error
1761053631.6973915,0.10467767715454102,0.0,0.0,-0.0,0.0,0.0,-0.0,0.0,0.0,0.0,0.0,0.0,0.0,0.0,-0.05942182401751936,0.07409018341011255,0.08600702807189722,manual,85.0,0.0,0.0,0.0,0.0,0.12813086015895342,0.006956444878062132
1761053631.806286,0.21357226371765137,0.0,0.0,-0.0,0.0,0.0,-0.0,0.0,0.0,0.0,0.0,0.0,0.0,0.0,-0.05953631309687188,0.07414903753921528,-0.013137184277125218,manual,85.0,0.0,0.0,0.0,0.0,0.09599603093822089,0.014197433788063768
1761053631.9156082,0.3228943347930908,0.0,0.0,-0.0,0.0,0.0,-0.0,0.0,0.0,0.0,0.0,0.0,0.0,0.0,-0.1251108499101221,0.10141763346089262,-0.14099317328433014,manual,85.0,0.0,0.0,0.0,0.0,0.21404984479047448,0.03154845552066411
1761053632.0245686,0.4318547248840332,0.0,0.0,-0.0,0.0,0.0,-0.0,0.0,0.0,0.0,0.0,0.0,0.0,0.0,0.10460699502630862,0.03643243520198031,-0.17398237697076302,manual,85.0,0.0,0.0,0.0,0.0,0.20625181996670316,0.04901713070762896
1761053632.1348374,0.542123556137085,0.0,0.0,-0.0,0.0,0.0,-0.0,0.0,0.0,0.0,0.0,0.0,0.0,0.0,0.14528100107860534,0.009767533800360264,-0.478130965368574,manual,85.0,0.0,0.0,0.0,0.0,0.49981115837406775,0.012935801661118683
1761053632.2452362,0.6525223255157471,0.0,0.0,-0.0,0.0,0.0,-0.0,0.0,0.0,0.0,0.0,0.0,0.0,0.0,0.14260410731272957,0.007113882627101253,-0.4913393872632474,manual,85.0,0.0,0.0,0.0,0.0,0.511664863191441,0.04849158515037732
1761053632.352843,0.7601292133331299,0.0,0.0,-0.0,0.0,0.0,-0.0,0.0,0.0,0.0,0.0,0.0,0.0,0.0,0.13995150650638508,0.004450197851735015,-0.6675005866897143,manual,85.0,0.0,0.0,0.0,0.0,0.6820287836047971,0.026155168147970514
1761053632.461952,0.8692381381988525,0.0,0.0,-0.0,0.0,0.0,-0.0,0.0,0.0,0.0,0.0,0.0,0.0,0.0,0.6219990828255233,-0.0766043149626197,-0.8415931508932311,manual,85.0,0.0,0.0,0.0,0.0,1.0492998197546215,0.034301023760243084
1761053632.5708888,0.9781749248504639,0.0,0.0,-0.0,0.0,0.0,-0.0,0.0,0.0,0.0,0.0,0.0,0.0,0.0,0.28231582187007337,-0.12254301589523103,-0.8768822570660687,manual,85.0,0.0,0.0,0.0,0.0,0.9293231444337092,0.032070010388309235
1761053632.6787653,1.0860514640808105,0.0,0.0,-0.0,0.0,0.0,-0.0,0.0,0.0,0.0,0.0,0.0,0.0,0.0,0.19219715385493288,-0.2167630774011615,-0.8784589997763607,manual,85.0,0.0,0.0,0.0,0.0,0.9249952388863646,0.06828409341507626
1761053632.7879014,1.1951875686645508,0.0,0.0,-0.0,0.0,0.0,-0.0,0.0,0.0,0.0,0.0,0.0,0.0,0.0,0.33577666267857254,-0.04330313316468425,-0.7405680436674315,manual,85.0,0.0,0.0,0.0,0.0,0.8142862861689646,0.009184048661880497
1761053632.894762,1.3020482063293457,0.0,0.0,-0.0,0.0,0.0,-0.0,0.0,0.0,0.0,0.0,0.0,0.0,0.0,0.3206377192478966,0.33374277975417166,-0.8705198622053577,manual,85.0,0.0,0.0,0.0,0.0,0.9858993967624534,0.012339321793184341
1761053633.0034134,1.4106996059417725,0.0,0.0,-0.0,0.0,0.0,-0.0,0.0,0.0,0.0,0.0,0.0,0.0,0.0,0.3863175796550665,0.15662148542569115,-0.8885465306169624,manual,85.0,0.0,0.0,0.0,0.0,0.9814715987327087,0.052103621805673725
1761053633.1130002,1.5202863216400146,0.0,0.0,-0.0,0.0,0.0,-0.0,0.0,0.0,0.0,0.0,0.0,0.0,0.0,0.38982784313677193,0.15447566472682575,-0.8762760282849849,manual,85.0,0.0,0.0,0.0,0.0,0.9714361306974175,0.010806208426158355
1761053633.2235177,1.6308038234710693,0.0,0.0,-0.0,0.0,0.0,-0.0,0.0,0.0,0.0,0.0,0.0,0.0,0.0,0.014525237373790523,0.8145426973462064,-1.0637573594355902,manual,85.0,0.0,0.0,0.0,0.0,1.3398770496109627,0.05637322466524393
1761053633.3337102,1.7409963607788086,0.0,0.0,-0.0,0.0,0.0,-0.0,0.0,0.0,0.0,0.0,0.0,0.0,0.0,-0.13904293906004456,0.8528773520893783,-0.9943398372545301,manual,85.0,0.0,0.0,0.0,0.0,1.3173626792044817,0.012038669331214884
1761053633.4417965,1.8490827083587646,0.0,0.0,-0.0,0.0,0.0,-0.0,0.0,0.0,0.0,0.0,0.0,0.0,0.0,-0.1345456455096057,0.8544229972782929,-1.1468164025662968,manual,85.0,0.0,0.0,0.0,0.0,1.436429270865336,0.014450172529698758
1761053633.5418015,1.9490876197814941,0.0,0.0,-0.0,0.0,0.0,-0.0,0.0,0.0,0.0,0.0,0.0,0.0,0.0,-0.13038569198450725,0.8557515828688268,-1.2234269723676177,manual,85.0,0.0,0.0,0.0,0.0,1.4986943507511385,0.0399897656863723
1761053633.7464378,2.153723955154419,0.0,0.0,-0.0,0.0,0.0,-0.0,0.0,0.0,0.0,0.0,0.0,0.0,0.0,-0.18977746401741527,0.6323653869885978,-2.1109490876351917,manual,85.0,0.0,0.0,0.0,0.0,2.2117883079304788,0.025879360080157402
1761053633.8458219,2.253108024597168,0.0,0.0,-0.0,0.0,0.0,-0.0,0.0,0.0,0.0,0.0,0.0,0.0,0.0,-0.18632368638040017,0.6313306933824848,-1.7919032690775702,manual,85.0,0.0,0.0,0.0,0.0,1.908982002598263,0.011283969633186538
1761053633.9547303,2.362016439437866,0.0,0.0,-0.0,0.0,0.0,-0.0,0.0,0.0,0.0,0.0,0.0,0.0,0.0,-0.5440844315008962,0.006242122128147937,-1.2970391737509168,manual,85.0,0.0,0.0,0.0,0.0,1.4065480620777866,0.035401956200567755
1761053634.0621996,2.4694857597351074,0.0,0.0,-0.0,0.0,0.0,-0.0,0.0,0.0,0.0,0.0,0.0,0.0,0.0,0.0460666452328942,0.30795685836293085,-1.074526467667505,manual,85.0,0.0,0.0,0.0,0.0,1.1187344153702368,0.05646976083150303
1761053634.1813478,2.5886340141296387,0.0,0.0,-0.0,0.0,0.0,-0.0,0.0,0.0,0.0,0.0,0.0,0.0,0.0,-0.16587533271935176,0.24786440655639358,-0.9046547966281397,manual,85.0,0.0,0.0,0.0,0.0,0.9525500989998424,0.015141661327624407
1761053634.2806008,2.687886953353882,0.0,0.0,-0.0,0.0,0.0,-0.0,0.0,0.0,0.0,0.0,0.0,0.0,0.0,-0.06636498211757433,0.5470939544368462,-0.7433614146553514,manual,85.0,0.0,0.0,0.0,0.0,0.925366034945749,0.015614526038743397
1761053634.3896937,2.7969799041748047,0.0,0.0,-0.0,0.0,0.0,-0.0,0.0,0.0,0.0,0.0,0.0,0.0,0.0,-0.22039514811068633,0.29191192668758564,-0.8201590068436354,manual,85.0,0.0,0.0,0.0,0.0,0.8980241593408989,0.01875642397719316
1761053634.4990065,2.906292676925659,0.0,0.0,-0.0,0.0,0.0,-0.0,0.0,0.0,0.0,0.0,0.0,0.0,0.0,0.023774183197991544,-0.07714116071798922,-0.8567005220093353,manual,85.0,0.0,0.0,0.0,0.0,0.8604950638293737,0.01325373003997145
1761053634.6089306,3.01621675491333,0.0,0.0,-0.0,0.0,0.0,-0.0,0.0,0.0,0.0,0.0,0.0,0.0,0.0,-0.03871996873674499,-0.051721449172120786,-0.7509705015166739,manual,85.0,0.0,0.0,0.0,0.0,0.753744677216127,0.06385504674577998
1761053634.7162437,3.1235299110412598,0.0,0.0,-0.0,0.0,0.0,-0.0,0.0,0.0,0.0,0.0,0.0,0.0,0.0,-0.041427254688881726,-0.05388279620196646,-0.8211730927830916,manual,85.0,0.0,0.0,0.0,0.0,0.8239810807710017,0.05126574934046331
1761053634.8271685,3.23445463180542,0.0,0.0,-0.0,0.0,0.0,-0.0,0.0,0.0,0.0,0.0,0.0,0.0,0.0,-0.1947992431637966,0.33086650348809105,-0.9598114917307489,manual,85.0,0.0,0.0,0.0,0.0,1.0337589118967867,0.03439747297968861
1761053634.9381456,3.3454318046569824,0.0,0.0,-0.0,0.0,0.0,-0.0,0.0,0.0,0.0,0.0,0.0,0.0,0.0,0.16695615882449372,0.13530637994351136,-0.9595859131746484,manual,85.0,0.0,0.0,0.0,0.0,0.9833551241469539,0.10380992314502749
1761053635.0479062,3.4551923274993896,0.0,0.0,-0.0,0.0,0.0,-0.0,0.0,0.0,0.0,0.0,0.0,0.0,0.0,0.1612518571212378,0.1301265716350441,-0.9564849281765289,manual,85.0,0.0,0.0,0.0,0.0,0.9786718060204851,0.045856346927868864
1761053635.1513023,3.5585885047912598,0.0,0.0,-0.0,0.0,0.0,-0.0,0.0,0.0,0.0,0.0,0.0,0.0,0.0,0.5067748402434198,0.7479497271600181,-1.06940104829716,manual,85.0,0.0,0.0,0.0,0.0,1.399952904622707,0.02213731253278502
1761053635.2606683,3.667954444885254,0.0,0.0,-0.0,0.0,0.0,-0.0,0.0,0.0,0.0,0.0,0.0,0.0,0.0,0.2010913868070121,0.8652848233425489,-0.9885290945684374,manual,85.0,0.0,0.0,0.0,0.0,1.3290392553131032,0.05140734671013524
1761053635.368149,3.775435209274292,0.0,0.0,-0.0,0.0,0.0,-0.0,0.0,0.0,0.0,0.0,0.0,0.0,0.0,0.19923556977249932,0.8624375871670824,-1.1080028872621133,manual,85.0,0.0,0.0,0.0,0.0,1.4181550698715322,0.06435837175369682
1761053635.4766872,3.8839733600616455,0.0,0.0,-0.0,0.0,0.0,-0.0,0.0,0.0,0.0,0.0,0.0,0.0,0.0,0.1973344123137501,0.8594964109055332,-1.2206596921598658,manual,85.0,0.0,0.0,0.0,0.0,1.5058834731500725,0.02221850176551857
1761053635.5833116,3.990597724914551,0.0,0.0,-0.0,0.0,0.0,-0.0,0.0,0.0,0.0,0.0,0.0,0.0,0.0,0.7339520182397976,0.8468680715680439,-1.043051055660361,manual,85.0,0.0,0.0,0.0,0.0,1.5309561066320103,0.04963384917021973
1761053635.6879404,4.095226526260376,0.0,0.0,-0.0,0.0,0.0,-0.0,0.0,0.0,0.0,0.0,0.0,0.0,0.0,0.7292507640666498,0.8448644697884861,-1.2423036519262727,manual,85.0,0.0,0.0,0.0,0.0,1.6700062912432772,0.029211123477212175
1761053635.7960663,4.203352451324463,0.0,0.0,-0.0,0.0,0.0,-0.0,0.0,0.0,0.0,0.0,0.0,0.0,0.0,0.3909427122283329,0.50649373179189,-1.3629288771265726,manual,85.0,0.0,0.0,0.0,0.0,1.5056384787505996,0.026201585884633304
1761053635.9047983,4.312084436416626,0.0,0.0,-0.0,0.0,0.0,-0.0,0.0,0.0,0.0,0.0,0.0,0.0,0.0,0.7242549615050129,0.612693767463898,-0.9986223789240363,manual,85.0,0.0,0.0,0.0,0.0,1.3773835913214716,0.03501831774495034
1761053636.0146337,4.421919822692871,0.0,0.0,-0.0,0.0,0.0,-0.0,0.0,0.0,0.0,0.0,0.0,0.0,0.0,0.6686616370245835,0.5360960451462617,-0.8653642835579922,manual,85.0,0.0,0.0,0.0,0.0,1.2179337821522547,0.021952259354802276
1761053636.12263,4.529916048049927,0.0,0.0,-0.0,0.0,0.0,-0.0,0.0,0.0,0.0,0.0,0.0,0.0,0.0,0.8197799972363947,0.2492200623715585,-0.8045262444613891,manual,85.0,0.0,0.0,0.0,0.0,1.1753349996424567,0.04446622772634433
1761053636.2289205,4.63620662689209,0.0,0.0,-0.0,0.0,0.0,-0.0,0.0,0.0,0.0,0.0,0.0,0.0,0.0,0.441112909488378,0.04132811843194949,-0.7996587172130183,manual,85.0,0.0,0.0,0.0,0.0,0.9141896281982186,0.07070840608135495
1761053636.3374372,4.744723320007324,0.0,0.0,-0.0,0.0,0.0,-0.0,0.0,0.0,0.0,0.0,0.0,0.0,0.0,0.44169459123597044,0.039837935399392094,-0.8334899575464435,manual,85.0,0.0,0.0,0.0,0.0,0.9441327673345361,0.02926884000977634
1761053636.4456255,4.852911710739136,0.0,0.0,-0.0,0.0,0.0,-0.0,0.0,0.0,0.0,0.0,0.0,0.0,0.0,0.4423469116474002,0.038329644349232084,-1.0521287563866104,manual,85.0,0.0,0.0,0.0,0.0,1.1419784901194798,0.03416591423606942
1761053636.5535307,4.960816860198975,0.0,0.0,-0.0,0.0,0.0,-0.0,0.0,0.0,0.0,0.0,0.0,0.0,0.0,-0.21331898131254723,0.11042447258448936,-1.0664183999457297,manual,85.0,0.0,0.0,0.0,0.0,1.093136201795822,0.027832565838532903
1761053636.6638343,5.071120500564575,0.0,0.0,-0.0,0.0,0.0,-0.0,0.0,0.0,0.0,0.0,0.0,0.0,0.0,-0.21278178490900823,0.10723532002882397,-1.091551934650222,manual,85.0,0.0,0.0,0.0,0.0,1.1172560708671,0.09926026651873848
1761053636.7737381,5.1810243129730225,0.0,0.0,-0.0,0.0,0.0,-0.0,0.0,0.0,0.0,0.0,0.0,0.0,0.0,-0.21232643028519696,0.10411983865080146,-1.2767079037545614,manual,85.0,0.0,0.0,0.0,0.0,1.298424632124518,0.09198901099104585
1761053636.8805823,5.287868499755859,0.0,0.0,-0.0,0.0,0.0,-0.0,0.0,0.0,0.0,0.0,0.0,0.0,0.0,-0.06644313764527908,0.2703400759967986,-1.37880311291289,manual,85.0,0.0,0.0,0.0,0.0,1.406625917366938,0.0712598624747711
1761053636.9888558,5.39614200592041,0.0,0.0,-0.0,0.0,0.0,-0.0,0.0,0.0,0.0,0.0,0.0,0.0,0.0,0.31411306917179016,-0.3282907282353931,-1.406530877521739,manual,85.0,0.0,0.0,0.0,0.0,1.4780970644351878,0.03198677568412944
1761053637.0974202,5.504706382751465,0.0,0.0,-0.0,0.0,0.0,-0.0,0.0,0.0,0.0,0.0,0.0,0.0,0.0,0.6127988152910745,-0.9342043617405612,-1.3387090419309855,manual,85.0,0.0,0.0,0.0,0.0,1.743674876938075,0.047747448774489575
1761053637.2035732,5.610859394073486,0.0,0.0,-0.0,0.0,0.0,-0.0,0.0,0.0,0.0,0.0,0.0,0.0,0.0,0.47003031923857286,-0.5571438761725348,-1.3494136528080445,manual,85.0,0.0,0.0,0.0,0.0,1.5337062972240876,0.033874172636352576
1761053637.313729,5.721015214920044,0.0,0.0,-0.0,0.0,0.0,-0.0,0.0,0.0,0.0,0.0,0.0,0.0,0.0,0.6235363223189266,-0.30361085413046535,-1.176440725561955,manual,85.0,0.0,0.0,0.0,0.0,1.365646321987352,0.09352404179197807
1761053637.4216151,5.828901290893555,0.0,0.0,-0.0,0.0,0.0,-0.0,0.0,0.0,0.0,0.0,0.0,0.0,0.0,0.7512334376831834,-0.7330224862674615,-0.9792815449940746,manual,85.0,0.0,0.0,0.0,0.0,1.4355019984775381,0.08569951886615568
1761053637.529231,5.936517238616943,0.0,0.0,-0.0,0.0,0.0,-0.0,0.0,0.0,0.0,0.0,0.0,0.0,0.0,1.045878673579689,-0.5180530918182691,-0.9321493138938318,manual,85.0,0.0,0.0,0.0,0.0,1.4937012918197596,0.03981349588644705
1761053637.6381085,6.045394659042358,0.0,0.0,-0.0,0.0,0.0,-0.0,0.0,0.0,0.0,0.0,0.0,0.0,0.0,0.7069893390195408,-0.3549997213563635,-0.8399538803897147,manual,85.0,0.0,0.0,0.0,0.0,1.153854951383458,0.02676971079654839
1761053637.747877,6.155163049697876,0.0,0.0,-0.0,0.0,0.0,-0.0,0.0,0.0,0.0,0.0,0.0,0.0,0.0,0.5283004900019264,-0.048872805124688265,-0.7969581935532222,manual,85.0,0.0,0.0,0.0,0.0,0.9574091711951825,0.03962533441994479
1761053637.8561015,6.263387680053711,0.0,0.0,-0.0,0.0,0.0,-0.0,0.0,0.0,0.0,0.0,0.0,0.0,0.0,0.31560398855114513,0.038565522044519844,-0.8350106130386528,manual,85.0,0.0,0.0,0.0,0.0,0.8934964470926252,0.030357751609978407
1761053637.9636137,6.37089991569519,0.0,0.0,-0.0,0.0,0.0,-0.0,0.0,0.0,0.0,0.0,0.0,0.0,0.0,-0.05303052739638366,-0.3167446132335107,-0.9402871257754821,manual,85.0,0.0,0.0,0.0,0.0,0.9936192760547182,0.02774900073181425
1761053638.0723617,6.479647874832153,0.0,0.0,-0.0,0.0,0.0,-0.0,0.0,0.0,0.0,0.0,0.0,0.0,0.0,-0.054278013396147295,-0.31815257584751694,-0.8915710041205406,manual,85.0,0.0,0.0,0.0,0.0,0.9481909194066095,0.032825448175889754
1761053638.1808536,6.588139772415161,0.0,0.0,-0.0,0.0,0.0,-0.0,0.0,0.0,0.0,0.0,0.0,0.0,0.0,-0.02672678672242685,0.20036733384036678,-0.8789216409182219,manual,85.0,0.0,0.0,0.0,0.0,0.9018673075753344,0.029809037520144965
1761053638.2849782,6.6922643184661865,0.0,0.0,-0.0,0.0,0.0,-0.0,0.0,0.0,0.0,0.0,0.0,0.0,0.0,-0.013617509746456922,0.6819036535825034,-0.9343261648145943,manual,85.0,0.0,0.0,0.0,0.0,1.1567814882673435,0.08383551346839485
1761053638.3934808,6.800766944885254,0.0,0.0,-0.0,0.0,0.0,-0.0,0.0,0.0,0.0,0.0,0.0,0.0,0.0,-0.01467336373017753,0.6808044557792879,-1.0834032976408772,manual,85.0,0.0,0.0,0.0,0.0,1.2796377299654842,0.027558279243329497
1761053638.5019107,6.909196853637695,0.0,0.0,-0.0,0.0,0.0,-0.0,0.0,0.0,0.0,0.0,0.0,0.0,0.0,0.02671107994119024,0.35229880423109655,-1.0731720385807006,manual,85.0,0.0,0.0,0.0,0.0,1.1298345691497238,0.022497082414303204
1761053638.611862,7.019148111343384,0.0,0.0,-0.0,0.0,0.0,-0.0,0.0,0.0,0.0,0.0,0.0,0.0,0.0,-0.027917188665448744,0.3765147910494761,-1.1367625546709998,manual,85.0,0.0,0.0,0.0,0.0,1.1978196287438903,0.022663347616568345
1761053638.721739,7.129025220870972,0.0,0.0,-0.0,0.0,0.0,-0.0,0.0,0.0,0.0,0.0,0.0,0.0,0.0,-0.1770557429230435,0.4212678773647391,-0.9552553221136456,manual,85.0,0.0,0.0,0.0,0.0,1.0589278025568452,0.056373868169676676
1761053638.821042,7.228328227996826,0.0,0.0,-0.0,0.0,0.0,-0.0,0.0,0.0,0.0,0.0,0.0,0.0,0.0,-0.17504252852451055,0.42093119483613906,-1.1280058418293328,manual,85.0,0.0,0.0,0.0,0.0,1.2166429783545933,0.07800798313063052
1761053638.930495,7.337781190872192,0.0,0.0,-0.0,0.0,0.0,-0.0,0.0,0.0,0.0,0.0,0.0,0.0,0.0,-0.17289184914640604,0.42034828351984105,-1.1256428323447416,manual,85.0,0.0,0.0,0.0,0.0,1.213942361468794,0.02080912839834144
1761053639.0377545,7.445040702819824,0.0,0.0,-0.0,0.0,0.0,-0.0,0.0,0.0,0.0,0.0,0.0,0.0,0.0,-0.17070032406713453,0.4197119648632383,-1.1730434138506785,manual,85.0,0.0,0.0,0.0,0.0,1.2575084830188776,0.014731255348996913
1761053639.1460674,7.553353548049927,0.0,0.0,-0.0,0.0,0.0,-0.0,0.0,0.0,0.0,0.0,0.0,0.0,0.0,-0.6225701280056332,0.3831807012855524,-1.1697367403912193,manual,85.0,0.0,0.0,0.0,0.0,1.3793857531320646,0.01361601891121359
1761053639.2486923,7.655978441238403,0.0,0.0,-0.0,0.0,0.0,-0.0,0.0,0.0,0.0,0.0,0.0,0.0,0.0,-0.8280330099107795,0.4810979502827816,-1.1910132173649675,manual,85.0,0.0,0.0,0.0,0.0,1.5282690820684197,0.01714150651109886
1761053639.358234,7.765520095825195,0.0,0.0,-0.0,0.0,0.0,-0.0,0.0,0.0,0.0,0.0,0.0,0.0,0.0,-0.8287535661586951,0.4822777644737576,-1.2158346532381257,manual,85.0,0.0,0.0,0.0,0.0,1.54844380574215,0.09769214328735873
1761053639.465891,7.8731770515441895,0.0,0.0,-0.0,0.0,0.0,-0.0,0.0,0.0,0.0,0.0,0.0,0.0,0.0,-0.4904064658580062,0.38933793804184313,-1.186486713888994,manual,85.0,0.0,0.0,0.0,0.0,1.3415786424914187,0.027225542566565373
1761053639.5734093,7.980695486068726,0.0,0.0,-0.0,0.0,0.0,-0.0,0.0,0.0,0.0,0.0,0.0,0.0,0.0,-0.620191655235177,0.40068164548533197,-1.2112173421180426,manual,85.0,0.0,0.0,0.0,0.0,1.41853125453748,0.06310479279306178
1761053639.6815448,8.088830947875977,0.0,0.0,-0.0,0.0,0.0,-0.0,0.0,0.0,0.0,0.0,0.0,0.0,0.0,-0.5129646923968993,0.34544868430984527,-1.0365054284937707,manual,85.0,0.0,0.0,0.0,0.0,1.206984288395795,0.031215431683317533
1761053639.7913382,8.1986243724823,0.0,0.0,-0.0,0.0,0.0,-0.0,0.0,0.0,0.0,0.0,0.0,0.0,0.0,-0.5459940040915997,0.24635101847443194,-1.0066816223269934,manual,85.0,0.0,0.0,0.0,0.0,1.171412039181037,0.029696619483851126
1761053639.9001956,8.30748176574707,0.0,0.0,-0.0,0.0,0.0,-0.0,0.0,0.0,0.0,0.0,0.0,0.0,0.0,-0.29643754251120336,0.06528904958281738,-0.8519414497858129,manual,85.0,0.0,0.0,0.0,0.0,0.9044015206028028,0.03760213616640615
1761053640.0092642,8.416550397872925,0.0,0.0,-0.0,0.0,0.0,-0.0,0.0,0.0,0.0,0.0,0.0,0.0,0.0,-0.29276073599822877,0.06637778172786706,-1.0294125919480392,manual,85.0,0.0,0.0,0.0,0.0,1.0722896730410665,0.03313296562373227
1761053640.1188953,8.52618145942688,0.0,0.0,-0.0,0.0,0.0,-0.0,0.0,0.0,0.0,0.0,0.0,0.0,0.0,-0.2889328408991811,0.06742202214414617,-1.0717845709475147,manual,85.0,0.0,0.0,0.0,0.0,1.1120926589728146,0.0148850385312841
1761053640.2265058,8.63379192352295,0.0,0.0,-0.0,0.0,0.0,-0.0,0.0,0.0,0.0,0.0,0.0,0.0,0.0,-0.08627227028928275,-0.26706821395863867,-1.0935193375164498,manual,85.0,0.0,0.0,0.0,0.0,1.1289609723326752,0.06768886655412597
1761053640.3374023,8.744688510894775,0.0,0.0,-0.0,0.0,0.0,-0.0,0.0,0.0,0.0,0.0,0.0,0.0,0.0,-0.30221215842532784,-0.5039054047445687,-0.9701762661111168,manual,85.0,0.0,0.0,0.0,0.0,1.134237555786349,0.035133532803605164
1761053640.4457748,8.853060960769653,0.0,0.0,-0.0,0.0,0.0,-0.0,0.0,0.0,0.0,0.0,0.0,0.0,0.0,-0.5517228637447299,-0.13550333776459095,-0.9088145288153266,manual,85.0,0.0,0.0,0.0,0.0,1.0717756858176317,0.04118759448674179
1761053640.555531,8.962817192077637,0.0,0.0,-0.0,0.0,0.0,-0.0,0.0,0.0,0.0,0.0,0.0,0.0,0.0,-0.5518683910601684,-0.13393251061243214,-1.0475489357560515,manual,85.0,0.0,0.0,0.0,0.0,1.1915768591467042,0.029773768514653298
1761053640.6635506,9.070836782455444,0.0,0.0,-0.0,0.0,0.0,-0.0,0.0,0.0,0.0,0.0,0.0,0.0,0.0,-1.3953800802929903,-0.20955695210546332,-0.9289977224781302,manual,85.0,0.0,0.0,0.0,0.0,1.6893893728278737,0.04049684781926512
1761053640.7716413,9.178927421569824,0.0,0.0,-0.0,0.0,0.0,-0.0,0.0,0.0,0.0,0.0,0.0,0.0,0.0,-1.4741719136984388,-0.3764576788264476,-1.0236652871841578,manual,85.0,0.0,0.0,0.0,0.0,1.8337922006788387,0.056920923293855695
1761053640.8725784,9.27986454963684,0.0,0.0,-0.0,0.0,0.0,-0.0,0.0,0.0,0.0,0.0,0.0,0.0,0.0,-1.4164582209222003,-0.37121623716505964,-0.8482207706204917,manual,85.0,0.0,0.0,0.0,0.0,1.6922274853178256,0.024530763843952762
1761053640.9826553,9.389941453933716,0.0,0.0,-0.0,0.0,0.0,-0.0,0.0,0.0,0.0,0.0,0.0,0.0,0.0,-1.4162824526563786,-0.373599016215346,-0.967494597157213,manual,85.0,0.0,0.0,0.0,0.0,1.75541391305522,0.029729114438698846
1761053641.091309,9.498595237731934,0.0,0.0,-0.0,0.0,0.0,-0.0,0.0,0.0,0.0,0.0,0.0,0.0,0.0,-0.6869796932206457,-0.025950307753893502,-0.9133191587489259,manual,85.0,0.0,0.0,0.0,0.0,1.143138838071693,0.027913117523600293
1761053641.1997762,9.607062339782715,0.0,0.0,-0.0,0.0,0.0,-0.0,0.0,0.0,0.0,0.0,0.0,0.0,0.0,-0.7744642671831103,-0.09392507705978448,-0.93240344489566,manual,85.0,0.0,0.0,0.0,0.0,1.2157273564814821,0.03453992005262444
1761053641.3084896,9.715775728225708,0.0,0.0,-0.0,0.0,0.0,-0.0,0.0,0.0,0.0,0.0,0.0,0.0,0.0,-0.7559716785672171,0.15304704423685192,-1.1407183889694887,manual,85.0,0.0,0.0,0.0,0.0,1.3770094478537607,0.0363773635146974
1761053641.4188652,9.826151371002197,0.0,0.0,-0.0,0.0,0.0,-0.0,0.0,0.0,0.0,0.0,0.0,0.0,0.0,-0.7563488745573764,0.15305633658098675,-1.1342095582285292,manual,85.0,0.0,0.0,0.0,0.0,1.371831324977221,0.041651759972847834
1761053641.526192,9.933478116989136,0.0,0.0,-0.0,0.0,0.0,-0.0,0.0,0.0,0.0,0.0,0.0,0.0,0.0,-0.7567818234311694,0.15311270612952438,-1.157299746844355,manual,85.0,0.0,0.0,0.0,0.0,1.3912242569406703,0.061707225516817274
1761053641.6332881,10.040574312210083,0.0,0.0,-0.0,0.0,0.0,-0.0,0.0,0.0,0.0,0.0,0.0,0.0,0.0,-1.1056297505416404,0.0008160173866636753,-1.1642518738419472,manual,85.0,0.0,0.0,0.0,0.0,1.6055840796768104,0.06618345777443042
1761053641.7417142,10.149000406265259,0.0,0.0,-0.0,0.0,0.0,-0.0,0.0,0.0,0.0,0.0,0.0,0.0,0.0,-1.017260293699391,0.3431344627507223,-1.183994508958076,manual,85.0,0.0,0.0,0.0,0.0,1.5982499059619786,0.044264775170279186
1761053641.841736,10.249022245407104,0.0,0.0,-0.0,0.0,0.0,-0.0,0.0,0.0,0.0,0.0,0.0,0.0,0.0,-0.34850129327999796,0.19807607806807295,-1.069369430920317,manual,85.0,0.0,0.0,0.0,0.0,1.1420325143828012,0.057506756412431845
1761053641.9488816,10.356167793273926,0.0,0.0,-0.0,0.0,0.0,-0.0,0.0,0.0,0.0,0.0,0.0,0.0,0.0,-0.3074195885966364,-0.37736311088473906,-0.9384202489751962,manual,85.0,0.0,0.0,0.0,0.0,1.057138725331828,0.04495499161890567
1761053642.0570507,10.46433687210083,0.0,0.0,-0.0,0.0,0.0,-0.0,0.0,0.0,0.0,0.0,0.0,0.0,0.0,-0.42547685897196064,-0.41437669643517927,-0.905263756377146,manual,85.0,0.0,0.0,0.0,0.0,1.0827008232560087,0.05835028648421787
1761053642.1648011,10.572087287902832,0.0,0.0,-0.0,0.0,0.0,-0.0,0.0,0.0,0.0,0.0,0.0,0.0,0.0,-0.42128411566192936,-0.4188264362045996,-0.9091719081944515,manual,85.0,0.0,0.0,0.0,0.0,1.0860430232835343,0.044129375733793406
1761053642.2731748,10.680460929870605,0.0,0.0,-0.0,0.0,0.0,-0.0,0.0,0.0,0.0,0.0,0.0,0.0,0.0,-0.4171521325030324,-0.4233527378472236,-1.0360251866270054,manual,85.0,0.0,0.0,0.0,0.0,1.1944001128684176,0.05829502593174471
1761053642.3783147,10.785600900650024,0.0,0.0,-0.0,0.0,0.0,-0.0,0.0,0.0,0.0,0.0,0.0,0.0,0.0,-0.3573243988650515,-0.1952008235482528,-0.9194198807115852,manual,85.0,0.0,0.0,0.0,0.0,1.0055431390974194,0.049076356712063285
1761053642.4869645,10.894250631332397,0.0,0.0,-0.0,0.0,0.0,-0.0,0.0,0.0,0.0,0.0,0.0,0.0,0.0,-0.04406415570205229,-0.22346950923231848,-0.9334691591342307,manual,85.0,0.0,0.0,0.0,0.0,0.960856358895041,0.05124516203241211
1761053642.5949285,11.002214670181274,0.0,0.0,-0.0,0.0,0.0,-0.0,0.0,0.0,0.0,0.0,0.0,0.0,0.0,0.5778578137244849,-0.272719396067088,-1.0814342457824075,manual,85.0,0.0,0.0,0.0,0.0,1.2561033197251743,0.06017660486319432
1761053642.703471,11.110757112503052,0.0,0.0,-0.0,0.0,0.0,-0.0,0.0,0.0,0.0,0.0,0.0,0.0,0.0,0.6529801709923699,0.37821318360666295,-1.167333129629143,manual,85.0,0.0,0.0,0.0,0.0,1.3899981839890587,0.05450314097255608
1761053642.8094587,11.216744899749756,0.0,0.0,-0.0,0.0,0.0,-0.0,0.0,0.0,0.0,0.0,0.0,0.0,0.0,0.007867194531428028,0.37334665220958724,-1.1549526388577012,manual,85.0,0.0,0.0,0.0,0.0,1.2138225625972971,0.0445329318943062
1761053642.9195087,11.326794862747192,0.0,0.0,-0.0,0.0,0.0,-0.0,0.0,0.0,0.0,0.0,0.0,0.0,0.0,0.007213823438641598,0.3713178682680749,-1.2241732873161202,manual,85.0,0.0,0.0,0.0,0.0,1.2792690240610485,0.04574668188056521
1761053643.0274315,11.434717655181885,0.0,0.0,-0.0,0.0,0.0,-0.0,0.0,0.0,0.0,0.0,0.0,0.0,0.0,0.028784625075300087,0.17740852612751692,-1.3869340504345695,manual,85.0,0.0,0.0,0.0,0.0,1.398530800532582,0.07755863629786157
1761053643.134903,11.542189121246338,0.0,0.0,-0.0,0.0,0.0,-0.0,0.0,0.0,0.0,0.0,0.0,0.0,0.0,-0.4631597040148154,0.12283556324242574,-1.141677479514101,manual,85.0,0.0,0.0,0.0,0.0,1.2381570797963584,0.05148246129280807
1761053643.2434204,11.65070652961731,0.0,0.0,-0.0,0.0,0.0,-0.0,0.0,0.0,0.0,0.0,0.0,0.0,0.0,-0.46188318251243426,0.11916622503989045,-1.4787971339064614,manual,85.0,0.0,0.0,0.0,0.0,1.5538267685710776,0.07824023836571788
1761053643.3520494,11.7593355178833,0.0,0.0,-0.0,0.0,0.0,-0.0,0.0,0.0,0.0,0.0,0.0,0.0,0.0,-1.1199021501121547,-0.4115551975843208,-1.2781187627720576,manual,85.0,0.0,0.0,0.0,0.0,1.7484696389226986,0.05168004493524777
1761053643.460928,11.868214130401611,0.0,0.0,-0.0,0.0,0.0,-0.0,0.0,0.0,0.0,0.0,0.0,0.0,0.0,-1.1061195897716602,-0.585024593486841,-1.0508150401908203,manual,85.0,0.0,0.0,0.0,0.0,1.6340032345599271,0.04355319397569055
1761053643.5677836,11.975069761276245,0.0,0.0,-0.0,0.0,0.0,-0.0,0.0,0.0,0.0,0.0,0.0,0.0,0.0,-1.1017146813228136,-0.5868234377195441,-1.0986059283878902,manual,85.0,0.0,0.0,0.0,0.0,1.662850556119891,0.04105150762838991
1761053643.67519,12.082476139068604,0.0,0.0,-0.0,0.0,0.0,-0.0,0.0,0.0,0.0,0.0,0.0,0.0,0.0,-1.0972441341586294,-0.5887228218316612,-1.1684753696030692,manual,85.0,0.0,0.0,0.0,0.0,1.7075930253605465,0.04119397784911484
1761053643.7844503,12.191736459732056,0.0,0.0,-0.0,0.0,0.0,-0.0,0.0,0.0,0.0,0.0,0.0,0.0,0.0,-1.0928669879319264,-0.5906449760577223,-1.37276651106159,manual,85.0,0.0,0.0,0.0,0.0,1.8514069339142702,0.039814374167891096
1761053643.8875308,12.294816970825195,0.0,0.0,-0.0,0.0,0.0,-0.0,0.0,0.0,0.0,0.0,0.0,0.0,0.0,-0.8386522476650722,-0.4061073290697259,-1.3025512833597785,manual,85.0,0.0,0.0,0.0,0.0,1.6015307056126118,0.05279642589529471
1761053643.9956183,12.402904510498047,0.0,0.0,-0.0,0.0,0.0,-0.0,0.0,0.0,0.0,0.0,0.0,0.0,0.0,-0.8365828057019331,-0.4116547082441438,-1.3670166086223392,manual,85.0,0.0,0.0,0.0,0.0,1.6547098832922378,0.04983379088206728
1761053644.1044526,12.511738777160645,0.0,0.0,-0.0,0.0,0.0,-0.0,0.0,0.0,0.0,0.0,0.0,0.0,0.0,-0.3320135376723505,-0.6644981551755396,-1.4621844114154496,manual,85.0,0.0,0.0,0.0,0.0,1.6400530602440122,0.051853923707458685
1761053644.2124026,12.619688749313354,0.0,0.0,-0.0,0.0,0.0,-0.0,0.0,0.0,0.0,0.0,0.0,0.0,0.0,0.09968217913353208,-0.27625336062800554,-1.380982522915272,manual,85.0,0.0,0.0,0.0,0.0,1.411865852229774,0.04508498808382322
1761053644.320987,12.728273153305054,0.0,0.0,-0.0,0.0,0.0,-0.0,0.0,0.0,0.0,0.0,0.0,0.0,0.0,0.46841792433489476,0.11486945111289203,-1.1740455594561636,manual,85.0,0.0,0.0,0.0,0.0,1.2692491159405723,0.06871315934451723
1761053644.430402,12.837688207626343,0.0,0.0,-0.0,0.0,0.0,-0.0,0.0,0.0,0.0,0.0,0.0,0.0,0.0,0.24865838301107096,-0.11248249808008111,-1.0926277698618267,manual,85.0,0.0,0.0,0.0,0.0,1.1261965846552924,0.04301034722954118
1761053644.5392036,12.946489810943604,0.0,0.0,-0.0,0.0,0.0,-0.0,0.0,0.0,0.0,0.0,0.0,0.0,0.0,-0.3104338394975285,0.08845225650123943,-0.8687166056905968,manual,85.0,0.0,0.0,0.0,0.0,0.9267478143421382,0.05986649992099802
1761053644.6478093,13.055095434188843,0.0,0.0,-0.0,0.0,0.0,-0.0,0.0,0.0,0.0,0.0,0.0,0.0,0.0,-0.17218939117420642,0.450415769007093,-0.8906824020238794,manual,85.0,0.0,0.0,0.0,0.0,1.0128369526622842,0.03808836278159267
1761053644.7548795,13.162165641784668,0.0,0.0,-0.0,0.0,0.0,-0.0,0.0,0.0,0.0,0.0,0.0,0.0,0.0,-0.16852699543572308,0.453175560374343,-0.934169771601381,manual,85.0,0.0,0.0,0.0,0.0,1.0518757525891393,0.07027027428688819
1761053644.8633797,13.270665884017944,0.0,0.0,-0.0,0.0,0.0,-0.0,0.0,0.0,0.0,0.0,0.0,0.0,0.0,0.2967154938159038,0.25685329374918114,-1.0135168056012829,manual,85.0,0.0,0.0,0.0,0.0,1.0868440614993704,0.08677789378700726
1761053644.9738615,13.381147623062134,0.0,0.0,-0.0,0.0,0.0,-0.0,0.0,0.0,0.0,0.0,0.0,0.0,0.0,0.30170344621109335,0.2598389334520931,-1.0570750699255247,manual,85.0,0.0,0.0,0.0,0.0,1.1295791004844347,0.03448685585662127
1761053645.0823734,13.489659547805786,0.0,0.0,-0.0,0.0,0.0,-0.0,0.0,0.0,0.0,0.0,0.0,0.0,0.0,0.30660023210317794,0.26275149482639004,-1.131949717527975,manual,85.0,0.0,0.0,0.0,0.0,1.2018120540961832,0.05452657917516728
1761053645.19037,13.59765625,0.0,0.0,-0.0,0.0,0.0,-0.0,0.0,0.0,0.0,0.0,0.0,0.0,0.0,0.21390909167510472,0.16169708631223695,-1.4126785360327097,manual,85.0,0.0,0.0,0.0,0.0,1.437902532646304,0.037463354565416815
1761053645.2981846,13.70547080039978,0.0,0.0,-0.0,0.0,0.0,-0.0,0.0,0.0,0.0,0.0,0.0,0.0,0.0,0.21729816181956435,0.1621439348864944,-1.469088306454497,manual,85.0,0.0,0.0,0.0,0.0,1.4938974526091071,0.04540591147345831
1761053645.4012012,13.80848741531372,0.0,0.0,-0.0,0.0,0.0,-0.0,0.0,0.0,0.0,0.0,0.0,0.0,0.0,0.10144360728722791,0.3454670180607929,-1.285708082869749,manual,85.0,0.0,0.0,0.0,0.0,1.3351717269264904,0.052200095878366284
1761053645.5103676,13.917653799057007,0.0,0.0,-0.0,0.0,0.0,-0.0,0.0,0.0,0.0,0.0,0.0,0.0,0.0,-0.2259403539693805,0.6950725395964186,-1.2571702713013992,manual,85.0,0.0,0.0,0.0,0.0,1.454184297087841,0.08942544440195471
1761053645.6183732,14.025659322738647,0.0,0.0,-0.0,0.0,0.0,-0.0,0.0,0.0,0.0,0.0,0.0,0.0,0.0,-0.2241432564944723,0.6923072568733998,-1.2839811780955372,manual,85.0,0.0,0.0,0.0,0.0,1.475851348562965,0.06326402156395841
1761053645.7270212,14.134307384490967,0.0,0.0,-0.0,0.0,0.0,-0.0,0.0,0.0,0.0,0.0,0.0,0.0,0.0,-0.2224584404232943,0.6896005281616187,-1.2126262650138646,manual,85.0,0.0,0.0,0.0,0.0,1.4126213593025638,0.04740015970206121
1761053645.8346095,14.24189567565918,0.0,0.0,-0.0,0.0,0.0,-0.0,0.0,0.0,0.0,0.0,0.0,0.0,0.0,0.32773474857839774,0.5457431980413785,-1.175991652206594,manual,85.0,0.0,0.0,0.0,0.0,1.337236729114846,0.056747707076285805
1761053645.9367673,14.344053506851196,0.0,0.0,-0.0,0.0,0.0,-0.0,0.0,0.0,0.0,0.0,0.0,0.0,0.0,0.28510702617177874,0.5428261049255724,-1.163401382545369,manual,85.0,0.0,0.0,0.0,0.0,1.3150851582576926,0.05310989026204882
1761053646.0455377,14.452823877334595,0.0,0.0,-0.0,0.0,0.0,-0.0,0.0,0.0,0.0,0.0,0.0,0.0,0.0,-0.02783118373567533,-0.057679876663191895,-1.159882914901861,manual,85.0,0.0,0.0,0.0,0.0,1.1616496542595138,0.04701843499129378
1761053646.1551206,14.562406778335571,0.0,0.0,-0.0,0.0,0.0,-0.0,0.0,0.0,0.0,0.0,0.0,0.0,0.0,-0.046361844239086805,0.2879674292347893,-1.070294081074518,manual,85.0,0.0,0.0,0.0,0.0,1.1093259579061916,0.06105436598672067
1761053646.2634134,14.67069959640503,0.0,0.0,-0.0,0.0,0.0,-0.0,0.0,0.0,0.0,0.0,0.0,0.0,0.0,-0.045528481785876006,0.2856699994470228,-0.8935760530232519,manual,85.0,0.0,0.0,0.0,0.0,0.9392328538623436,0.04573353682321314
1761053646.3721569,14.77944302558899,0.0,0.0,-0.0,0.0,0.0,-0.0,0.0,0.0,0.0,0.0,0.0,0.0,0.0,0.21548219629616858,0.008810715177520599,-1.0684580171329447,manual,85.0,0.0,0.0,0.0,0.0,1.0900058440202163,0.050125543808445354
1761053646.482197,14.889483213424683,0.0,0.0,-0.0,0.0,0.0,-0.0,0.0,0.0,0.0,0.0,0.0,0.0,0.0,0.14050361081455617,-0.7295952215317573,-1.0275846269786677,manual,85.0,0.0,0.0,0.0,0.0,1.268061756199906,0.051934932473327956
1761053646.5916433,14.998929500579834,0.0,0.0,-0.0,0.0,0.0,-0.0,0.0,0.0,0.0,0.0,0.0,0.0,0.0,-0.2605464864977855,-0.32005085697667596,-0.9077950865063075,manual,85.0,0.0,0.0,0.0,0.0,0.9972005524280658,0.05521422973207911
1761053646.6995256,15.106811761856079,0.0,0.0,-0.0,0.0,0.0,-0.0,0.0,0.0,0.0,0.0,0.0,0.0,0.0,-0.2560226381271483,-0.3168335253584336,-0.8919611584155601,manual,85.0,0.0,0.0,0.0,0.0,0.9805742104229878,0.05931199387205214
1761053646.8073413,15.214627504348755,0.0,0.0,-0.0,0.0,0.0,-0.0,0.0,0.0,0.0,0.0,0.0,0.0,0.0,-0.09603189461589372,-0.4940584091807476,-1.014708517710673,manual,85.0,0.0,0.0,0.0,0.0,1.1326734800375262,0.05607248079462816
1761053646.9155014,15.322787523269653,0.0,0.0,-0.0,0.0,0.0,-0.0,0.0,0.0,0.0,0.0,0.0,0.0,0.0,-0.5213953505854249,-0.3351203652480518,-0.9989376483939578,manual,85.0,0.0,0.0,0.0,0.0,1.175599930331291,0.061975238668427496
1761053647.0224624,15.42974853515625,0.0,0.0,-0.0,0.0,0.0,-0.0,0.0,0.0,0.0,0.0,0.0,0.0,0.0,-0.5184608304241937,-0.3355707556063787,-1.2010749986337599,manual,85.0,0.0,0.0,0.0,0.0,1.3505519305252451,0.09681041888777904
1761053647.1303165,15.537602663040161,0.0,0.0,-0.0,0.0,0.0,-0.0,0.0,0.0,0.0,0.0,0.0,0.0,0.0,-0.25001810492455423,-0.13944994195510357,-0.9860514231217912,manual,85.0,0.0,0.0,0.0,0.0,1.0267681082609923,0.04956418279911482
1761053647.2392843,15.646570444107056,0.0,0.0,-0.0,0.0,0.0,-0.0,0.0,0.0,0.0,0.0,0.0,0.0,0.0,0.09616075459742368,-0.36002771437549325,-1.078396133558393,manual,85.0,0.0,0.0,0.0,0.0,1.1409667246317392,0.06688426024322387
1761053647.347303,15.754589080810547,0.0,0.0,-0.0,0.0,0.0,-0.0,0.0,0.0,0.0,0.0,0.0,0.0,0.0,0.35736475166950815,-0.21861286214598327,-1.0898343909620927,manual,85.0,0.0,0.0,0.0,0.0,1.167578754926272,0.0401356881629418
1761053647.4497333,15.857019424438477,0.0,0.0,-0.0,0.0,0.0,-0.0,0.0,0.0,0.0,0.0,0.0,0.0,0.0,0.06081423860261276,-0.26978258682737993,-1.0311845818866785,manual,85.0,0.0,0.0,0.0,0.0,1.0676247738287512,0.050253857864902135
1761053647.558112,15.965398073196411,0.0,0.0,-0.0,0.0,0.0,-0.0,0.0,0.0,0.0,0.0,0.0,0.0,0.0,-0.08200276066791036,0.45259831778971893,-1.1181230610849984,manual,85.0,0.0,0.0,0.0,0.0,1.2090363393022268,0.04290426231412777
1761053647.664595,16.07188105583191,0.0,0.0,-0.0,0.0,0.0,-0.0,0.0,0.0,0.0,0.0,0.0,0.0,0.0,-0.08185366095737016,0.45729444122712026,-1.1569648421196108,manual,85.0,0.0,0.0,0.0,0.0,1.2467501248005568,0.06130458003128269
1761053647.7722733,16.179559469223022,0.0,0.0,-0.0,0.0,0.0,-0.0,0.0,0.0,0.0,0.0,0.0,0.0,0.0,0.4387202753389896,0.4918347155819393,-1.372930477465437,manual,85.0,0.0,0.0,0.0,0.0,1.522929730289142,0.040737100118676206
1761053647.8813968,16.28868293762207,0.0,0.0,-0.0,0.0,0.0,-0.0,0.0,0.0,0.0,0.0,0.0,0.0,0.0,0.5755148443986648,0.6630686203512692,-1.2215008341474523,manual,85.0,0.0,0.0,0.0,0.0,1.5043076876891497,0.040430900316186805
1761053647.990922,16.398208141326904,0.0,0.0,-0.0,0.0,0.0,-0.0,0.0,0.0,0.0,0.0,0.0,0.0,0.0,0.0006404890593585345,0.4808743960045983,-1.3748317945538546,manual,85.0,0.0,0.0,0.0,0.0,1.4565037103540777,0.08111385406082486
1761053648.0991576,16.506443738937378,0.0,0.0,-0.0,0.0,0.0,-0.0,0.0,0.0,0.0,0.0,0.0,0.0,0.0,-0.17958147108396347,0.6007402609968258,-1.2102496169382868,manual,85.0,0.0,0.0,0.0,0.0,1.3630269627701739,0.04346288312322071
1761053648.2068028,16.614089012145996,0.0,0.0,-0.0,0.0,0.0,-0.0,0.0,0.0,0.0,0.0,0.0,0.0,0.0,-0.18437119283042008,0.6028877558773499,-1.2579212152060046,manual,85.0,0.0,0.0,0.0,0.0,1.4070650896806056,0.056808172336015005
1761053648.3152754,16.722561597824097,0.0,0.0,-0.0,0.0,0.0,-0.0,0.0,0.0,0.0,0.0,0.0,0.0,0.0,-0.18907876008222105,0.6050350918527053,-1.115006094860106,manual,85.0,0.0,0.0,0.0,0.0,1.2825976888575097,0.08028593940197502
1761053648.4236457,16.830931901931763,0.0,0.0,-0.0,0.0,0.0,-0.0,0.0,0.0,0.0,0.0,0.0,0.0,0.0,-0.2906562273587913,0.04922992749082637,-1.1643147470156112,manual,85.0,0.0,0.0,0.0,0.0,1.2010551437720185,0.034833442953948114
1761053648.5285027,16.935788869857788,0.0,0.0,-0.0,0.0,0.0,-0.0,0.0,0.0,0.0,0.0,0.0,0.0,0.0,-0.49578434303880264,0.08838827364999723,-1.209969858974135,manual,85.0,0.0,0.0,0.0,0.0,1.3105882882687194,0.058109591934244004
1761053648.639335,17.046621084213257,0.0,0.0,-0.0,0.0,0.0,-0.0,0.0,0.0,0.0,0.0,0.0,0.0,0.0,-0.49427607373309296,0.08839687604326305,-1.152616028147593,manual,85.0,0.0,0.0,0.0,0.0,1.257237667707241,0.03809158984887273
1761053648.748218,17.15550422668457,0.0,0.0,-0.0,0.0,0.0,-0.0,0.0,0.0,0.0,0.0,0.0,0.0,0.0,-0.7263649519950026,0.20986637568421135,-1.27541151940776,manual,85.0,0.0,0.0,0.0,0.0,1.4826747731608372,0.058246033149696855
1761053648.8558037,17.263089895248413,0.0,0.0,-0.0,0.0,0.0,-0.0,0.0,0.0,0.0,0.0,0.0,0.0,0.0,-0.796452929025025,0.09266859597195713,-1.2919064295533282,manual,85.0,0.0,0.0,0.0,0.0,1.5205087831226705,0.059272080252254285
1761053648.9642565,17.37154269218445,0.0,0.0,-0.0,0.0,0.0,-0.0,0.0,0.0,0.0,0.0,0.0,0.0,0.0,-1.1102024615477373,-0.14614512990369882,-1.1869621585890913,manual,85.0,0.0,0.0,0.0,0.0,1.631804850631257,0.048521837867004196
1761053649.074495,17.481781244277954,0.0,0.0,-0.0,0.0,0.0,-0.0,0.0,0.0,0.0,0.0,0.0,0.0,0.0,-0.5832268150696057,-0.09669792976993315,-1.199710297613771,manual,85.0,0.0,0.0,0.0,0.0,1.3374635717052445,0.044320114533848626
1761053649.183234,17.59052014350891,0.0,0.0,-0.0,0.0,0.0,-0.0,0.0,0.0,0.0,0.0,0.0,0.0,0.0,-0.5886738568001375,0.08101896079616501,-1.2564565580853368,manual,85.0,0.0,0.0,0.0,0.0,1.3898863493264804,0.04397431103591746
1761053649.2916522,17.698938369750977,0.0,0.0,-0.0,0.0,0.0,-0.0,0.0,0.0,0.0,0.0,0.0,0.0,0.0,-0.3630226884834738,0.19498717509277694,-1.354755421440291,manual,85.0,0.0,0.0,0.0,0.0,1.416039449565686,0.0345226583510208
1761053649.3995616,17.80684781074524,0.0,0.0,-0.0,0.0,0.0,-0.0,0.0,0.0,0.0,0.0,0.0,0.0,0.0,-0.3632930755704045,0.19483642053051264,-1.2345316514621487,manual,85.0,0.0,0.0,0.0,0.0,1.3015419655102969,0.03041332519278146
1761053649.5077379,17.915024042129517,0.0,0.0,-0.0,0.0,0.0,-0.0,0.0,0.0,0.0,0.0,0.0,0.0,0.0,-0.8724808760858475,0.1018643718765701,-1.37877417497005,manual,85.0,0.0,0.0,0.0,0.0,1.6348141958515279,0.033094125733142216
1761053649.6099486,18.017234802246094,0.0,0.0,-0.0,0.0,0.0,-0.0,0.0,0.0,0.0,0.0,0.0,0.0,0.0,-0.8707482639562195,0.10179933772819572,-1.3480679145145236,manual,85.0,0.0,0.0,0.0,0.0,1.6080586887574118,0.03728771958711373
1761053649.7192464,18.126532554626465,0.0,0.0,-0.0,0.0,0.0,-0.0,0.0,0.0,0.0,0.0,0.0,0.0,0.0,-1.015464180302293,-0.20864943419337806,-1.4474879152856273,manual,85.0,0.0,0.0,0.0,0.0,1.7804278566581,0.03158419474771139
1761053649.829379,18.23666524887085,0.0,0.0,-0.0,0.0,0.0,-0.0,0.0,0.0,0.0,0.0,0.0,0.0,0.0,-1.2759196655243386,-0.5368170725449677,-1.3932819959624092,manual,85.0,0.0,0.0,0.0,0.0,1.9640209475768033,0.08229388846284796
1761053649.936954,18.344240188598633,0.0,0.0,-0.0,0.0,0.0,-0.0,0.0,0.0,0.0,0.0,0.0,0.0,0.0,-1.0900112433041582,-0.49121993291710503,-1.288739827065303,manual,85.0,0.0,0.0,0.0,0.0,1.7579169135339898,0.03301620123344744
1761053650.047613,18.454899072647095,0.0,0.0,-0.0,0.0,0.0,-0.0,0.0,0.0,0.0,0.0,0.0,0.0,0.0,-0.630223747553654,-0.44295991722535916,-1.2703342269870987,manual,85.0,0.0,0.0,0.0,0.0,1.4856461585800902,0.02995777149835616
1761053650.1556144,18.56290054321289,0.0,0.0,-0.0,0.0,0.0,-0.0,0.0,0.0,0.0,0.0,0.0,0.0,0.0,-0.6115693025458282,0.0481747117790862,-1.109559612204447,manual,85.0,0.0,0.0,0.0,0.0,1.267856595876155,0.06698588817344124
1761053650.2641847,18.671470880508423,0.0,0.0,-0.0,0.0,0.0,-0.0,0.0,0.0,0.0,0.0,0.0,0.0,0.0,-0.6077239530173468,0.048644364419158675,-0.9750378816634123,manual,85.0,0.0,0.0,0.0,0.0,1.1499537155639998,0.03481439183763348
1761053650.3737404,18.781026601791382,0.0,0.0,-0.0,0.0,0.0,-0.0,0.0,0.0,0.0,0.0,0.0,0.0,0.0,-0.5023035428581704,0.15366149359389872,-1.003004608801612,manual,85.0,0.0,0.0,0.0,0.0,1.1322274281515408,0.0402927272976996
1761053650.4827309,18.89001703262329,0.0,0.0,-0.0,0.0,0.0,-0.0,0.0,0.0,0.0,0.0,0.0,0.0,0.0,-0.5000250440089614,0.15344734933597753,-1.2166915043807196,manual,85.0,0.0,0.0,0.0,0.0,1.3243524268436329,0.0397935546454371
1761053650.5929613,19.000247478485107,0.0,0.0,-0.0,0.0,0.0,-0.0,0.0,0.0,0.0,0.0,0.0,0.0,0.0,-0.4975907255766469,0.15311248366390387,-1.4442919662916658,manual,85.0,0.0,0.0,0.0,0.0,1.535258690491042,0.03296041628127006
1761053650.7026758,19.109961986541748,0.0,0.0,-0.0,0.0,0.0,-0.0,0.0,0.0,0.0,0.0,0.0,0.0,0.0,-0.5164969420130239,-0.07647727726327737,-1.4467340048370052,manual,85.0,0.0,0.0,0.0,0.0,1.5380692916114438,0.037624775774248664
1761053650.8103662,19.217652320861816,0.0,0.0,-0.0,0.0,0.0,-0.0,0.0,0.0,0.0,0.0,0.0,0.0,0.0,-0.3618050829720509,-0.04010656346762341,-1.1940297226849674,manual,85.0,0.0,0.0,0.0,0.0,1.2482861984147446,0.0391639556036571
1761053650.921062,19.32834815979004,0.0,0.0,-0.0,0.0,0.0,-0.0,0.0,0.0,0.0,0.0,0.0,0.0,0.0,-0.33463166392481686,0.053423552752697535,-0.9105307543187664,manual,85.0,0.0,0.0,0.0,0.0,0.9715444822807207,0.06510543132806376
1761053651.029051,19.43633723258972,0.0,0.0,-0.0,0.0,0.0,-0.0,0.0,0.0,0.0,0.0,0.0,0.0,0.0,-0.3325849102041074,0.05027099793813694,-0.8326893386575397,manual,85.0,0.0,0.0,0.0,0.0,0.8980598145129873,0.07501088063261346
1761053651.1293602,19.536646366119385,0.0,0.0,-0.0,0.0,0.0,-0.0,0.0,0.0,0.0,0.0,0.0,0.0,0.0,-0.3307788132222479,0.047220799296643905,-1.1287162992063335,manual,85.0,0.0,0.0,0.0,0.0,1.1771341942433642,0.042713758274370316
1761053651.2386003,19.645886421203613,0.0,0.0,-0.0,0.0,0.0,-0.0,0.0,0.0,0.0,0.0,0.0,0.0,0.0,-0.3288682658290266,0.04370831822985199,-1.1228681381111971,manual,85.0,0.0,0.0,0.0,0.0,1.1708533678207447,0.06623902231033212
1761053651.3470056,19.754291772842407,0.0,0.0,-0.0,0.0,0.0,-0.0,0.0,0.0,0.0,0.0,0.0,0.0,0.0,-0.3897990876815301,0.3569800860343973,-1.160628434146129,manual,85.0,0.0,0.0,0.0,0.0,1.2753181848977824,0.05048064271211242
1761053651.4565523,19.86383843421936,0.0,0.0,-0.0,0.0,0.0,-0.0,0.0,0.0,0.0,0.0,0.0,0.0,0.0,-0.3898315039871786,0.3553373071238655,-1.200671027891361,manual,85.0,0.0,0.0,0.0,0.0,1.3114282750317088,0.046698990447482595
1761053651.5652096,19.972495794296265,0.0,0.0,-0.0,0.0,0.0,-0.0,0.0,0.0,0.0,0.0,0.0,0.0,0.0,-0.38996956864972687,0.3538408226733474,-1.3329162679377502,manual,85.0,0.0,0.0,0.0,0.0,1.4331592268816837,0.05132898201969675
1761053651.6751342,20.082420349121094,0.0,0.0,-0.0,0.0,0.0,-0.0,0.0,0.0,0.0,0.0,0.0,0.0,0.0,-0.39013874066874477,0.3523939047618949,-1.574240172795138,manual,85.0,0.0,0.0,0.0,0.0,1.6597053421393797,0.10532381243929387
1761053651.7838533,20.191139459609985,0.0,0.0,-0.0,0.0,0.0,-0.0,0.0,0.0,0.0,0.0,0.0,0.0,0.0,-0.3903119843003717,0.3507909155689271,-1.5864790363277828,manual,85.0,0.0,0.0,0.0,0.0,1.6710216767719412,0.0436141130607422
1761053651.8926837,20.299969911575317,0.0,0.0,-0.0,0.0,0.0,-0.0,0.0,0.0,0.0,0.0,0.0,0.0,0.0,-0.2864116902643531,0.36129612842864484,-1.6975971764930327,manual,85.0,0.0,0.0,0.0,0.0,1.759091447985217,0.04275321256884277
1761053652.0006483,20.407934427261353,0.0,0.0,-0.0,0.0,0.0,-0.0,0.0,0.0,0.0,0.0,0.0,0.0,0.0,-0.4195087081218162,0.3210239683471739,-1.5310845705598874,manual,85.0,0.0,0.0,0.0,0.0,1.6196493159477323,0.04323647676472995
