timestamp,simulation_time,position_x,position_y,position_z,velocity_x,velocity_y,velocity_z,attitude_roll,attitude_pitch,attitude_yaw,control_throttle,control_roll,control_pitch,control_yaw,estimated_position_x,estimated_position_y,estimated_position_z,flight_mode,battery_level,setpoint_altitude,setpoint_position_x,setpoint_position_y,setpoint_position_z,position_error,attitude_error
1760985929.8939154,0.10136675834655762,0.00012426704371460315,-6.564082897897458e-05,-10.035495341066209,0.004486609726712943,-0.003128653705680367,-0.7004085945350231,-0.005508630327817006,-0.006511826297539419,0.000447248084988295,0.65,0.010064383062595618,-0.0007316840436713023,-0.07167146720506981,1.1023789708616862e-05,8.438919886522227e-05,10.244394195190472,stabilize,85.0,10.0,0.0,0.0,-10.0,20.244394195369363,0.04405594261311869
1760985930.004724,0.2121753692626953,0.0012949926188489359,-0.0005849673766411883,-10.15398934114911,0.013456868972189461,-0.004896847555670623,-1.4581063961427136,-0.004387897407004924,0.0029031593661263027,-0.0022805372661958844,0.65,-0.004775684340446886,-0.007835318003562526,-0.15,-0.3258200880491015,-0.26256237472048255,9.930326442638746,stabilize,85.0,10.0,0.0,0.0,-10.0,19.934718704826018,0.13764407153331135
1760985930.1141894,0.3216407299041748,0.0027339721981184846,-0.00203547639590363,-10.357032583622265,0.015432154944941108,-0.020009745116010086,-2.2172201676035037,-0.003646379879916291,-0.00038833894534344047,-0.0008022828496737301,0.65,-0.018883329594987983,0.007816847575793727,-0.07308110262762181,0.16314836629323237,0.2218579497586531,9.74444568047578,stabilize,85.0,10,0.0,0.0,-10.0,19.74636608514473,0.02223873064496796
1760985930.2650843,0.4725356101989746,0.009001478974443308,9.281607112646573e-05,-10.765134765846334,0.1657829964933862,0.1914439161499556,-3.1946401143692205,0.36237989738779947,-0.26748271315042044,0.015150042707536514,0.65,0.09017387797025998,-0.06448545829293861,0.04718704091548196,-0.3691291362956942,0.588731579209367,8.483533569257432,stabilize,85.0,10,0.0,0.0,-10.0,18.49659088582237,0.04705707123230565
1760985930.3731828,0.5806341171264648,0.054972799228815684,0.06876581545757018,-11.136817065978994,0.6380541940009742,1.0772734156986157,-3.6523866995832623,0.38395460916392266,-0.14868612877293896,0.03152633121823454,0.65,-0.11488547132634502,-0.17549581940887826,0.030030484069691325,-0.36240714995843654,0.6076307486353629,10.545341970483094,stabilize,85.0,10,0.0,0.0,-10.0,20.557520053574613,0.110716900772515
1760985930.479361,0.6868124008178711,0.13302803210925496,0.20779730926487924,-11.560048138789046,0.901206142102066,1.5345350080821576,-4.3037777972461555,0.3527668047217191,-0.3593402737491089,0.04430566341753477,0.65,0.08164657670939451,0.2,0.01858207476776357,-0.352340189814698,0.6659039295975808,11.124651848557935,stabilize,85.0,10,0.0,0.0,-10.0,21.138081449734134,0.0968310881618968
1760985930.5905063,0.7979576587677002,0.2638888362453787,0.4235717133045565,-12.061797562228568,1.3831976916390833,2.336568368458598,-4.79562859771401,0.29267201407099114,-0.12144254575904156,0.05083576244303077,0.65,0.1407064715661313,-0.2,-0.12014948597626687,-0.0038247892890448977,0.6303633561178168,11.16705738737037,stabilize,85.0,10,0.0,0.0,-10.0,21.17644188786161,0.161356855420589
1760985930.6974187,0.9048700332641602,0.4250411029256551,0.7011620483368609,-12.614377666677198,1.6937646901561987,2.8798417482831247,-5.394571648231092,0.4767494350071611,-0.41188615593492894,0.053664127936206195,0.65,-0.2,0.2,-0.08275094931066393,0.6883341997936419,0.6614197667954893,10.06981548720216,stabilize,85.0,10,0.0,0.0,-10.0,20.092505412935765,0.18366070021873082
1760985930.806278,1.0137293338775635,0.63832951000068,1.058152049499102,-13.225154156063361,2.136140666276861,3.5698465315775847,-5.891082603712696,0.2008548374828212,-0.11533548035726057,0.05982268168253209,0.65,0.2,-0.2,0.05074534612996683,1.1278601994051685,0.3855752892535664,12.366672623689645,stabilize,85.0,10,0.0,0.0,-10.0,22.398410237969863,0.20515828166695615
1760985930.9170012,1.1244525909423828,0.8878516082781636,1.4762526474387283,-13.90490307943462,2.5019911546707996,4.175147417273495,-6.427021485991796,0.5125398513610846,-0.41851098044176926,0.0710077503987465,0.65,-0.2,0.2,-0.15,-0.06951861926333436,1.858142712781657,10.721891545256971,stabilize,85.0,10,0.0,0.0,-10.0,20.805151198510437,0.2528171182485557
1760985931.0239458,1.2313971519470215,1.1790194034425925,1.9631026399059517,-14.61944053750292,2.8262835899372734,4.760940436092109,-6.941390569208281,0.1871085371796408,-0.10551634158451162,0.07932967163168458,0.65,0.2,-0.2,0.15,1.4989965303835027,2.1247981360105643,12.219590603213701,stabilize,85.0,10,0.0,0.0,-10.0,22.371230728132023,0.2410091600984408
1760985931.1322925,1.3397438526153564,1.503428994643688,2.509647269351099,-15.404497441206004,3.209857711791617,5.402856575314192,-7.409264905827581,0.5043077121210038,-0.39133690116012965,0.09199729858951358,0.65,-0.2,0.2,0.15,1.2871780441579554,1.3638677156427699,12.149450202073346,stabilize,85.0,10,0.0,0.0,-10.0,22.228700068093545,0.22576267668229769
1760985931.2415836,1.4490349292755127,1.8705726950489143,3.1341559974011153,-16.240623702917148,3.4372819000152353,5.911815156091111,-7.9461531885801335,0.219838645535711,-0.14211062360236087,0.10667631574812744,0.65,0.2,-0.2,-0.15,1.448128043791968,2.049273152768299,14.403819303567492,stabilize,85.0,10,0.0,0.0,-10.0,24.53248849764424,0.23300409314728407
1760985931.350265,1.5577163696289062,2.263323317858284,3.8099770755413926,-17.128500416834044,3.833418730979093,6.621793503335423,-8.334945780429713,0.48563420027048526,-0.34290857173598494,0.11003060479514784,0.65,-0.2,0.2,0.0380115148847386,1.3444374736307707,2.527919345443608,14.894412056589097,stabilize,85.0,10,0.0,0.0,-10.0,25.058524297747848,0.18524185728470793
1760985931.4612477,1.668699026107788,2.6972492193240005,4.57045233920297,-18.077126747568855,3.982626960828454,7.058555622860568,-8.874622160167608,0.2647094448841828,-0.1883091917847727,0.11250313050251456,0.65,0.2,-0.2,0.10192312708355826,2.33031936898735,3.0637849550189706,15.29361030975972,stabilize,85.0,10,0.0,0.0,-10.0,25.584837093756555,0.15445212842288916
1760985931.5689805,1.7764317989349365,3.1493907729651567,5.371095109876009,-19.05674464619732,4.394159252800432,7.797818278831528,-9.18869024356278,0.45128851092077377,-0.31968054041771404,0.11411247936118012,0.65,-0.2,0.2,-0.10271947877465559,2.684354411313855,3.743831217488172,17.80748628038487,stabilize,85.0,10,0.0,0.0,-10.0,28.186491871539673,0.1777695892767657
1760985931.678375,1.8858263492584229,3.6381517109767416,6.2462948384880725,-20.08903184287691,4.512250946483458,8.133291444036429,-9.711181104210466,0.261550508063476,-0.1947341968451843,0.10314963389740815,0.65,0.2,-0.2,0.0967499739375692,3.8458832682352924,5.0256417593595435,18.12751473895851,stabilize,85.0,10,0.0,0.0,-10.0,28.830625705950936,0.1537884966783893
1760985931.7864118,1.9938631057739258,4.1465879314396465,7.159514056729355,-21.155055674871956,4.9188302975514695,8.828079649587053,-9.989409267733771,0.4382086749835406,-0.3038822425939933,0.09461264105419889,0.65,-0.2,0.2,-0.03476892937554724,3.817014314275611,6.825936496913178,18.321913575377902,stabilize,85.0,10,0.0,0.0,-10.0,29.381861682106724,0.1403932199664398
1760985931.8983734,2.1058247089385986,4.699225832610037,8.158662420370218,-22.28978177345268,5.02223119575072,9.128681387431602,-10.48442289324415,0.29604547190756814,-0.21894284141254267,0.08269152511798404,0.65,0.2,-0.2,0.008036374935043986,3.929989339869283,7.996674860581608,19.133474199568834,stabilize,85.0,10,0.0,0.0,-10.0,30.46556981207289,0.1324745395989139
1760985932.0069368,2.214388132095337,5.272100960444815,9.194976782734576,-23.4519326786636,5.449906430817566,9.834127483808075,-10.699082971394912,0.4545677613102293,-0.3072479138039999,0.06351105942427421,0.65,-0.2,0.2,0.15,4.132950242805312,8.133257169583457,21.04922620698763,stabilize,85.0,10,0.0,0.0,-10.0,32.36179225489177,0.1384701866937672
1760985932.116197,2.323648452758789,5.873817211704025,10.286642683653458,-24.644251966507873,5.542445742445797,10.091514801753565,-11.149123160112133,0.29121294122485625,-0.214463091118089,0.04710939300501253,0.65,0.2,-0.2,0.11348223629304482,4.8189521915873375,10.241172461286446,21.980208765241553,stabilize,85.0,10,0.0,0.0,-10.0,33.923998382782784,0.13546429482105207
1760985932.2252667,2.43271803855896,6.501071624419909,11.420033437096606,-25.871626505501037,5.974685720777824,10.741282075948329,-11.32523308666505,0.45861383144203793,-0.3043341203067875,0.03844074898227672,0.65,-0.2,0.2,-0.15,4.42498173740389,11.56975003995907,23.85207173835856,stabilize,85.0,10,0.0,0.0,-10.0,36.04722375360501,0.15920424823017434
1760985932.3316693,2.539120674133301,7.141974475959147,12.57719663112654,-27.09696065234706,6.045917116664377,10.947917341004967,-11.731770623738033,0.26992871265444013,-0.19820479331915355,0.037836285425716196,0.65,0.2,-0.2,-0.15,4.957084020024323,12.595290406732829,25.757655508228588,stabilize,85.0,10,0.0,0.0,-10.0,38.23380637415881,0.20957687385221327
1760985932.4398003,2.647251605987549,7.8166245287056215,13.789149401446126,-28.375901404023725,6.460049769336469,11.535669351276892,-11.878989603922788,0.49178431242597553,-0.3445582277531874,0.031225241860787265,0.65,-0.2,0.2,-0.09595998473630443,6.014456162834407,13.088655176234612,25.579626368390123,stabilize,85.0,10,0.0,0.0,-10.0,38.384845834929074,0.20142912354769776
1760985932.5503132,2.7577645778656006,8.533833075836156,15.074093426222984,-29.70126027621996,6.533646528261779,11.743789724665216,-12.2528333116763,0.26616721022327294,-0.18280141314467802,0.02080716257883925,0.65,0.2,-0.2,0.15,7.616202209743619,13.360393987482025,27.67918129282051,stabilize,85.0,10,0.0,0.0,-10.0,40.696773416300275,0.1898632112638597
1760985932.656604,2.8640553951263428,9.25098991241464,16.352849816319235,-31.018705656771466,6.935334515867071,12.271542013558422,-12.37098057632563,0.49070143593482346,-0.3661946395856345,0.016278014829522666,0.65,-0.2,0.2,0.0274148407135803,8.202214813223291,14.474997287589906,29.68516098339413,stabilize,85.0,10,0.0,0.0,-10.0,43.03154513372605,0.19034286940983888
1760985932.7645183,2.9719696044921875,10.0068186644577,17.69000857195272,-32.36968333850366,7.0185461658380675,12.423435730863611,-12.706243653887835,0.23678526633211563,-0.17720590964218644,0.019753919371449467,0.65,0.2,-0.2,-0.10816102399679049,10.081010913681638,16.30071865210925,27.416599114343597,stabilize,85.0,10,0.0,0.0,-10.0,42.03976806430417,0.19232073406659997
1760985932.8731618,3.080613136291504,10.784292620027319,19.054249545341104,-33.75241979685248,7.401182634625439,12.89116784461821,-12.81356799900709,0.4906990355727977,-0.3670865210287839,0.026603898290955476,0.65,-0.2,0.2,0.10538550151955686,10.74394838416608,17.527473084776915,31.743195845234567,stabilize,85.0,10,0.0,0.0,-10.0,46.5310556402153,0.19204333368423976
1760985932.9800181,3.187469482421875,11.584590711973828,20.450052616940805,-35.142286250478605,7.451454161899168,13.024183857941258,-13.11767076352432,0.23819830704943323,-0.16810108363246545,0.04304753325816955,0.65,0.2,-0.2,-0.15,10.950365381742799,18.625662961481456,31.029423863650635,stabilize,85.0,10,0.0,0.0,-10.0,46.37067441100547,0.21958548198998945
1760985933.088147,3.295598268508911,12.405846200315324,21.878226104561943,-36.56824206654763,7.780871891852113,13.481304429430894,-13.198532189862691,0.5083999930691157,-0.3771614489705194,0.05504756823083928,0.65,-0.2,0.2,-0.05735865038661474,12.221025428789414,20.400732698758098,34.31016893716913,stabilize,85.0,10,0.0,0.0,-10.0,50.2885118930533,0.20469488090670734
1760985933.1962922,3.4037435054779053,13.251996600620227,23.348543412252127,-38.00784115259738,7.807714481962905,13.609588679979531,-13.471250771458275,0.226602558569087,-0.15555377108839843,0.05792149873811364,0.65,0.2,-0.2,0.15,12.95000931389536,21.72144322332684,36.659794639044506,stabilize,85.0,10,0.0,0.0,-10.0,53.07221752190118,0.22193617938970622
1760985933.3051674,3.5126187801361084,14.116098012540334,24.84794572986986,-39.48131104661454,8.119992680421637,14.030875170858227,-13.530228095732841,0.5130584567406598,-0.40731474911524224,0.060297850181311514,0.65,-0.2,0.2,-0.08598191035537801,14.362878061749129,23.60046483357482,35.43582420437498,stabilize,85.0,10,0.0,0.0,-10.0,53.17601270975799,0.2329080881313404
1760985933.412335,3.619786262512207,14.988319036568736,26.356066546598893,-40.9340195372765,8.16887208215091,14.146207070691933,-13.760918781689464,0.22780533312918894,-0.1604032580837383,0.057962868243660474,0.65,0.2,-0.2,-0.15,15.123801050707833,24.969678694882877,38.91925587067377,stabilize,85.0,10,0.0,0.0,-10.0,56.96760313799001,0.24860985312812864
1760985933.5124805,3.7199318408966064,15.82078539039074,27.79196178205942,-42.32510193151569,8.42450035382599,14.471787619896636,-13.823061796165959,0.5036173254251662,-0.40266690978320124,0.05312892940831978,0.65,-0.2,0.2,-0.15,15.82070731181988,26.23159664532221,40.430792040942684,stabilize,85.0,10,0.0,0.0,-10.0,59.00556099458726,0.24045451096261247
1760985933.6215575,3.8290088176727295,16.746129207277164,29.381508297828127,-43.84151981289422,8.478758128924063,14.57503493730611,-14.032114969866287,0.24370498818466915,-0.181179974946301,0.04634671993341462,0.65,0.2,-0.2,0.08377891964718524,16.643882628649735,29.275251983736556,38.971927263952495,stabilize,85.0,10,0.0,0.0,-10.0,59.433230331300294,0.18797409144696017
1760985933.7313185,3.938769817352295,17.690191494657984,30.996338882467583,-45.38618713076925,8.758598449710206,14.923655226195086,-14.067718131269304,0.45711805222243096,-0.3340676578579162,0.04379231685812162,0.65,-0.2,0.2,-0.014534029156500632,17.43851508064964,30.706595391358356,43.466481190322995,stabilize,85.0,10,0.0,0.0,-10.0,64.0754353837865,0.13667657851517748
1760985933.8387754,4.046226739883423,18.632971222680112,32.60450012061963,-46.908082656299314,8.76956691885332,14.95684501810099,-14.281496377466409,0.3067513921293694,-0.255811706007526,0.04653623978378931,0.65,0.2,-0.17829198318387562,0.0027344004139603847,18.296649663982844,32.17800776245837,42.80526057001466,stabilize,85.0,10,0.0,0.0,-10.0,64.48710814073229,0.10553603933955367
1760985933.9472842,4.154735565185547,19.600017321089375,34.24565301246236,-48.4580252915107,9.053635953071002,15.322567386450725,-14.270627804978115,0.40639824446595785,-0.2779725649386046,0.043874938977640596,0.65,-0.2,0.07904651156133322,-0.059886624678034725,19.116685239473203,33.63330576567629,46.62941325184848,stabilize,85.0,10,0.0,0.0,-10.0,68.58233997554473,0.09518486018893386
1760985934.057367,4.264818429946899,20.59574717589658,35.9326031879662,-50.04048586957126,9.05590047800853,15.31642013491415,-14.476981276009099,0.3727678202415424,-0.33006639617046174,0.044875544286476936,0.65,0.07118881493779226,0.0508112167776034,0.06260293852776971,20.29201885107264,35.059762164512385,42.212406545084846,stabilize,85.0,10,0.0,0.0,-10.0,66.08394925633365,0.027845943824216846
1760985934.1644626,4.371913909912109,21.58114219357004,37.59127063896169,-51.589377346683975,9.306872837268946,15.633985714219051,-14.466459656373015,0.3138012963023304,-0.20314735385282454,0.04968799701323535,0.65,0.060484616873480335,-0.1736201704213891,-0.05218966738973231,21.16722968656738,36.57814881755367,49.06344516280386,stabilize,85.0,10,0.0,0.0,-10.0,72.62577461220322,0.07188093769672114
1760985934.2743537,4.481805086135864,22.596661591333255,39.29829878296297,-53.183451849350355,9.318287654070447,15.630015801162847,-14.64304913563037,0.45227853457214523,-0.3893556736852626,0.05959091103575589,0.65,-0.2,0.2,-0.06862315655370338,22.60732917734945,39.160180354495964,44.75804828473751,stabilize,85.0,10,0.0,0.0,-10.0,71.01446972190479,0.12264642342035405
1760985934.383544,4.5909953117370605,23.63236820261394,41.03217360170239,-54.78733485657307,9.490365827429757,15.898283437127771,-14.653461095487977,0.2355091848285192,-0.13553735389084126,0.06956821288281545,0.65,0.2,-0.2,0.09205507172459168,23.53400250319362,40.76869054297914,52.165668236631625,stabilize,85.0,10,0.0,0.0,-10.0,77.9775974861785,0.1668759428782105
1760985934.4918115,4.699262857437134,24.65650819438029,42.74956493197012,-56.38421140892845,9.510813993394548,15.928023759826129,-14.78633077424733,0.4980824289033099,-0.41615510455656857,0.08192414173887395,0.65,-0.2,0.2,0.10704028490348627,24.597246687670335,43.17621667942564,50.46189612070627,stabilize,85.0,10,0.0,0.0,-10.0,78.26142800814395,0.18532681333109233
1760985934.6025648,4.81001615524292,25.718537729728997,44.53087816184418,-58.02050212379768,9.577006196868862,16.121829094005125,-14.832149967522835,0.2127945327741572,-0.11350157929323762,0.09083063738102634,0.65,0.2,-0.2,-0.10375584105100683,25.076393448273958,44.20414883224714,49.215578401557345,stabilize,85.0,10,0.0,0.0,-10.0,78.03407593985514,0.2316685404127382
1760985934.7124085,4.919859886169434,26.7699889710634,46.301877377876316,-59.65721551681749,9.655240457511757,16.24809704299034,-14.893738111398028,0.5229133272202247,-0.4266468619963318,0.09242707068559161,0.65,-0.2,0.2,-0.15,26.033726879739742,46.12408675947227,56.066364447607256,stabilize,85.0,10,0.0,0.0,-10.0,84.67556215324628,0.28645412668039155
1760985934.8206904,5.028141736984253,27.81998013228221,48.07299803506433,-61.27051610557023,9.654512174147703,16.337144184280316,-14.973636711312286,0.19980639589791854,-0.12354915384905295,0.08696266119771856,0.65,0.2,-0.2,0.0542200652363511,27.154798428114276,48.30090350158416,55.03176506663046,stabilize,85.0,10,0.0,0.0,-10.0,85.43705767652747,0.22699534530290932
1760985934.9285142,5.135965585708618,28.86380962803397,49.83691916520675,-62.88958805285506,9.77833284378576,16.498058367118873,-14.988637986229945,0.5112767987130971,-0.4021253781065365,0.08115320602359694,0.65,-0.2,0.2,-0.10542294933266082,27.902180748283257,49.51378209088437,55.28047047716607,stabilize,85.0,10,0.0,0.0,-10.0,86.55452693633997,0.24440732322340397
1760985935.0361454,5.243596792221069,29.91713734636628,51.619162953621725,-64.5055439664458,9.722128626286914,16.5084811542366,-15.096818586737077,0.22204516860966395,-0.13631220326725518,0.07187396719375092,0.65,0.2,-0.2,-0.14989297257845527,29.109825810182485,50.85399224026614,56.46029716908406,stabilize,85.0,10,0.0,0.0,-10.0,88.60294343460141,0.23666733413734953
1760985935.1454916,5.352942943572998,30.985457479587843,53.43001612288364,-66.15838325257168,9.879797707312528,16.70483540351223,-15.076428775886109,0.47158919752156675,-0.3745907009182047,0.06155246897438132,0.65,-0.2,0.2,-0.15,30.0928726597005,53.38245711520165,58.72013522353793,stabilize,85.0,10,0.0,0.0,-10.0,92.07456053498508,0.2253152911522861
1760985935.254127,5.461578369140625,32.05356315078856,55.23674252611569,-67.79329744667969,9.832868741738977,16.645541739043065,-15.20295060151811,0.2824825467691379,-0.21388472143739404,0.05836873118110215,0.65,0.2,-0.2,0.15,30.594057359863935,54.667950638833624,59.582278560491034,stabilize,85.0,10,0.0,0.0,-10.0,93.62838598661394,0.15045028647839992
1760985935.361405,5.568856239318848,33.12274694566714,57.04128896454775,-69.4301601613143,10.02299011029715,16.87245197679693,-15.147912519026434,0.3867208332967003,-0.29812907907265884,0.06370853210027838,0.65,-0.2,0.16296321915310166,-0.1032892785399545,31.560545299081703,56.33713851862032,67.14789421657615,stabilize,85.0,10,0.0,0.0,-10.0,100.60685254043895,0.10285656726888336
1760985935.469602,5.677053451538086,34.20358104013685,58.85983020867911,-71.07680950643311,9.960734589588728,16.721491720575514,-15.297175384798207,0.3159794439646863,-0.3009070636372751,0.06456345247676165,0.65,0.16906567065436692,-0.03639522063735455,0.11289083400711612,32.51088848289705,57.9845497187189,69.61194191519655,stabilize,85.0,10,0.0,0.0,-10.0,103.71705342680433,0.060438319136383964
1760985935.5792327,5.786684036254883,35.298972452798054,60.69013390527147,-72.73601616234109,10.162392936322298,16.945827939677898,-15.227034851544941,0.33151460248526965,-0.22663445860757683,0.06239931734485747,0.65,-0.06226823454233217,-0.0641983346497587,-0.043237647827634215,35.874111715494095,60.18307440589425,64.94704480907438,stabilize,85.0,10,0.0,0.0,-10.0,102.59636378514864,0.07066637612127649
1760985935.6863215,5.893772840499878,36.39030985862707,62.51108189182079,-74.38896286099113,10.088645277699554,16.79784588870712,-15.368067869160832,0.3812912719537938,-0.3505930964155166,0.05939489298277869,0.65,-0.02275364352945701,0.15091294009245837,0.009272963475240419,35.88634917931125,61.626144924644656,69.05959989261252,stabilize,85.0,10,0.0,0.0,-10.0,106.4708041242891,0.07195879728841989
1760985935.7945309,6.00198221206665,37.49427441644432,64.34188737784814,-76.04701223421466,10.26710275712302,16.997248671681184,-15.305735817207179,0.27249154371946377,-0.18191577125141892,0.05177357907813645,0.65,0.13484768201934844,-0.2,-0.05395450893439207,36.22163669950866,63.7846846542315,71.42128510833756,stabilize,85.0,10,0.0,0.0,-10.0,109.58977429634636,0.11385883891515969
1760985935.9024365,6.1098878383636475,38.596475922812814,66.16560241096911,-77.70701461571484,10.229847799690798,16.863979927781543,-15.424594799794235,0.43183274991848963,-0.3941767953737696,0.040037388452416174,0.65,-0.2,0.2,-0.15,37.32617330447171,66.44098620514225,70.10618093223317,stabilize,85.0,10,0.0,0.0,-10.0,110.56513051145481,0.20063007840379155
1760985936.0091221,6.216573476791382,39.69926195808574,67.9754678346463,-79.34833661109197,10.367274200459898,16.981620808766788,-15.398308766351393,0.21494666332253068,-0.13684247568408642,0.03329259762358575,0.65,0.2,-0.2,0.15,38.342370005942705,68.13765350121304,76.71023685905513,stabilize,85.0,10,0.0,0.0,-10.0,116.75419623498519,0.18948367702978883
1760985936.1181917,6.325643062591553,40.8261925393592,69.81963749469246,-81.03462987740456,10.38729962351816,16.945504671468566,-15.45859502200595,0.4962226666536612,-0.4235247723610968,0.04186819996609068,0.65,-0.2,0.2,-0.15,39.60209346658212,69.1317346931335,76.50683846697407,stabilize,85.0,10,0.0,0.0,-10.0,117.60508343676666,0.2165861015339564
1760985936.2263987,6.433850049972534,41.95768724904314,71.66208420539625,-82.70445471919425,10.435066514229366,16.992187265674215,-15.473540035301758,0.1938202556427939,-0.12232582346623,0.04320485806560309,0.65,0.2,-0.2,0.15,40.490717063944494,70.45040520049008,78.04429145972026,stabilize,85.0,10,0.0,0.0,-10.0,119.81049628438159,0.23275569597891999
1760985936.336186,6.543637275695801,43.10305219078347,73.52378573752902,-84.40737157984131,10.515587676035013,17.03903019920652,-15.479448319742312,0.4924090764370382,-0.4050686243001028,0.04053218991421905,0.65,-0.2,0.2,0.0740896458237689,42.0550671500369,72.9986305837679,72.66620377587034,stabilize,85.0,10,0.0,0.0,-10.0,118.03020794192157,0.21356868130710288
1760985936.4444165,6.651867866516113,44.23768259486715,75.36161474645088,-86.07585760732306,10.471232403286342,16.970591687201942,-15.554262375949966,0.1994714154156523,-0.14574674723744246,0.037136581912310694,0.65,0.2,-0.2,0.14412632468581846,43.09394539104842,74.72235205692647,83.0345646425061,stabilize,85.0,10,0.0,0.0,-10.0,126.86980824651141,0.21852191328223894
1760985936.5538626,6.7613139152526855,45.38889083437266,77.21997362293507,-87.77840816673334,10.630475410468215,17.091177369813632,-15.502472164562844,0.4659971636097864,-0.38309898030798556,0.04189164630713293,0.65,-0.2,0.2,0.08983892437685949,44.202548603412225,77.38887359336434,70.50176666853575,stabilize,85.0,10,0.0,0.0,-10.0,120.09761652856446,0.19211055744600636
1760985936.6633205,6.870771884918213,46.556231983498655,79.09669160541968,-89.48676848835994,10.546673900397737,16.960657673198124,-15.606528386022267,0.24876120672116536,-0.2038786868618796,0.05866597637059979,0.65,0.2,-0.2,-0.10005624445835648,45.29117155788708,79.17923488369473,85.50062828245271,stabilize,85.0,10,0.0,0.0,-10.0,132.06442162897798,0.1576323151413393
1760985936.7720158,6.979467153549194,47.704685220310594,80.93881007175624,-91.17236998137636,10.707669115892873,17.15460844201594,-15.520114762980732,0.42937453605545395,-0.32727765078002946,0.06992237831859723,0.65,-0.2,0.2,-0.08020907130299969,46.327117216349535,80.89279487794892,89.2032066264523,stabilize,85.0,10,0.0,0.0,-10.0,136.12906470593964,0.15416570858229028
1760985936.8796906,7.087141990661621,48.857707875313,82.78867121650214,-92.85656381717905,10.592243928860368,16.992713853763288,-15.640572822642403,0.27044282805222475,-0.24877227887375505,0.07046684358150618,0.65,0.2,-0.2,0.10136713344005892,47.105640296660695,81.98455907394391,88.85922589855328,stabilize,85.0,10,0.0,0.0,-10.0,136.79749931767236,0.12208499578950324
1760985936.9891894,7.196640729904175,50.02770018117072,84.65856274023578,-94.56430015880123,10.78685588887458,17.20233940828133,-15.531034432103729,0.3976642453819659,-0.3104289674754056,0.0657301728687091,0.65,-0.2,0.17947970049046463,-0.15,47.75863088282586,82.47719084018803,87.62938645662385,stabilize,85.0,10,0.0,0.0,-10.0,136.43632556100158,0.21056683113351002
1760985937.0923436,7.299794912338257,51.123954645452294,86.40824165849226,-96.15603095949089,10.65984236103346,17.012509003425603,-15.654352699353476,0.2539006023746864,-0.22231612447416524,0.05268333777191371,0.65,0.2,-0.2,-0.11528616346249053,48.756695497123715,84.10252106014885,93.39601166833712,stabilize,85.0,10,0.0,0.0,-10.0,141.91964146442496,0.18723024787133308
1760985937.1990843,7.406535625457764,52.28236127045095,88.24864054597903,-97.83847660779391,10.871848417866778,17.200042749350732,-15.542988189823093,0.41712304204151596,-0.35384708028551815,0.03668666601938089,0.65,-0.2,0.2,-0.021951894663031216,50.578968572427456,86.28420639064073,94.60967194885878,stabilize,85.0,10,0.0,0.0,-10.0,144.7286419460956,0.15289732045790663
1760985937.306805,7.514256238937378,53.45003137790404,90.0931178022699,-99.51779174872485,10.776929323635558,16.993400470554736,-15.662874622027262,0.2566508189839106,-0.232347939515538,0.022016683875322237,0.65,0.2,-0.2,-0.08355547834157193,51.61687522743838,87.9619687451016,97.8495863510698,stabilize,85.0,10,0.0,0.0,-10.0,148.43565282591658,0.14831490074963424
1760985937.4155157,7.622967004776001,54.63221625608426,91.94676132346052,-101.21637206518278,10.9890025880639,17.15129334382871,-15.564930109948557,0.3904981509861308,-0.30592888891129477,0.009801080222404532,0.65,-0.2,0.17827506345045563,0.0953553949099506,54.242293269794764,91.01374391327471,86.97875252833012,stabilize,85.0,10,0.0,0.0,-10.0,143.63358382435726,0.1054027416042708
1760985937.5224676,7.729918956756592,55.802366435123965,93.77156022793778,-102.88695559102658,10.888050903668145,16.944662500976428,-15.687550276872,0.29888775661371236,-0.2787684299882002,0.01166883516886424,0.65,0.2,-0.12128626857933628,0.15,55.846021226692976,93.65966781795564,83.02547190730273,stabilize,85.0,10,0.0,0.0,-10.0,143.33404998882298,0.11517423599639381
1760985937.6322505,7.839701890945435,57.00973701666281,95.63933699767553,-104.60166718995384,11.122421391286048,17.126965715044925,-15.568409890029459,0.35597233314335425,-0.28939523351911334,0.021499249421883988,0.65,-0.18447266232734638,0.1184852830758527,-0.03995118417811576,56.77998582694987,95.3170034393489,91.49692073401788,stabilize,85.0,10,0.0,0.0,-10.0,150.36928826609835,0.07362410047304198
1760985937.7414124,7.948863744735718,58.21808731503291,97.49807936204652,-106.30945084419069,11.001514840139928,16.889679563810095,-15.699853465064708,0.3109161830006625,-0.29074820996103495,0.03279744706026062,0.65,0.1669906387429464,-0.0803117568241095,-0.02929713777562057,58.4628828460182,97.58500330673101,97.32226769561102,stabilize,85.0,10,0.0,0.0,-10.0,156.39312863540502,0.0666860418300316
1760985937.8478677,8.05531907081604,59.40022600363964,99.30620032984615,-107.97464342033716,11.199608853967563,17.099548734997665,-15.578063595257717,0.3816867805932251,-0.28201093553397877,0.03652814510328868,0.65,-0.2,0.10933961757167611,-0.13096972438211296,59.5524340169818,99.28347620580233,105.22193953940523,stabilize,85.0,10,0.0,0.0,-10.0,163.33951266021776,0.12388239564081549
1760985937.9550643,8.162515640258789,60.593163332091116,101.12906249351241,-109.65084041894804,11.061819487935145,16.885831991259533,-15.705169924939995,0.29503872471281706,-0.28226019488249926,0.041468868015036596,0.65,0.2,-0.11710990071464027,0.14902171529691383,60.62446206228661,100.96307269263573,108.01601836464407,stabilize,85.0,10,0.0,0.0,-10.0,166.72326783782785,0.09902334526928722
1760985938.0644832,8.271934509277344,61.80375556944629,102.9700034057901,-111.34695562922418,11.267470816078202,17.103345164382677,-15.574030378959549,0.38381586341763513,-0.2998938119173116,0.05560927373008859,0.65,-0.2,0.15047528242705147,-0.09632675930151643,61.84879737026224,103.09048266915786,103.01542386696661,stabilize,85.0,10,0.0,0.0,-10.0,165.00123449519347,0.10208328126932359
1760985938.172188,8.379639387130737,63.02046668552549,104.81899434344957,-113.0464114844507,11.110615320547268,16.88632982109083,-15.704610720776138,0.2897503096025402,-0.2634313730671106,0.06876877646018027,0.65,0.2,-0.17159286297200774,-0.15,63.32960488570949,105.19030215626485,100.59536953308633,stabilize,85.0,10,0.0,0.0,-10.0,165.24822021693998,0.1598575791504123
1760985938.2794585,8.486909866333008,64.22129626256512,106.64131991985273,-114.7247435294941,11.284055699028254,17.130245072724865,-15.567715765941799,0.4224620063821315,-0.3237966798069545,0.07512849960093054,0.65,-0.2,0.2,-0.15,64.12993795548304,107.25368923282684,101.95380120492902,stabilize,85.0,10,0.0,0.0,-10.0,167.7785933915846,0.18385155464766867
1760985938.3862484,8.59369969367981,65.41910835706238,108.4634153586404,-116.39231969403978,11.13364869154783,16.942171268493347,-15.686975118064447,0.25443044013281285,-0.24176112498727712,0.07500303699902794,0.65,0.2,-0.2,-0.07694585633908001,65.08006729825485,108.25754063961138,103.49348776833612,stabilize,85.0,10,0.0,0.0,-10.0,169.81131302331994,0.1590470719363011
1760985938.4927828,8.700234174728394,66.61357116102218,110.27658458783124,-118.05860833205668,11.308047981821527,17.155693087851848,-15.562350161950755,0.4427441690751499,-0.3503555339079836,0.06824402611558225,0.65,-0.2,0.2,-0.15,66.41619391015136,110.03194153290114,111.14494772452795,stabilize,85.0,10,0.0,0.0,-10.0,176.61890422655557,0.19075471085255324
1760985938.6016085,8.809059858322144,67.83868839511119,112.13767031695487,-119.75658729759925,11.1893365590336,16.989827430884365,-15.67002109418572,0.2733920398138603,-0.2650952519520451,0.060300256264984184,0.65,0.2,-0.2,0.15,67.52851785132611,111.75296790251102,117.49198396128273,stabilize,85.0,10,0.0,0.0,-10.0,182.49118480792572,0.13752238832342834
1760985938.7100408,8.917492151260376,69.06262441147587,113.98937396709721,-121.44928662371142,11.39810276555727,17.21216284846367,-15.525631209106297,0.42316093619599504,-0.35136155181604234,0.06345633194248237,0.65,-0.2,0.2,0.0866897070423143,68.59889989039549,113.42127382283651,119.907715217332,stabilize,85.0,10,0.0,0.0,-10.0,185.5968989362559,0.13148725411730502
1760985938.8164804,9.023931741714478,70.27025862507818,115.81373690637086,-123.10651934115106,11.268353844177538,17.01293080603093,-15.640325299022667,0.25068401627783826,-0.24131302436473237,0.06950809829065205,0.65,0.2,-0.2,0.00503099563811024,69.6245259885019,115.03189997869745,121.62382705271048,stabilize,85.0,10,0.0,0.0,-10.0,188.16148511274687,0.15505846150120667
1760985938.9232109,9.130662202835083,71.48192157833408,117.63847861715173,-124.76991927283343,11.464698059013468,17.255081120928306,-15.482582138296657,0.49057992959462915,-0.4153006743204931,0.07481003523719418,0.65,-0.2,0.2,0.03999443370201011,70.79619101504892,118.7267319296002,116.11472657325999,stabilize,85.0,10,0.0,0.0,-10.0,187.11777519939298,0.2183414435432563
1760985939.0301268,9.23757815361023,72.69849266318813,119.47159119133744,-126.41977083390991,11.339774715109,17.08992976409438,-15.577102018853559,0.17139056423895407,-0.16488479449217813,0.07331901858030815,0.65,0.2,-0.2,0.10158521357436025,71.97266057259239,120.16018933667641,121.53392273120599,stabilize,85.0,10,0.0,0.0,-10.0,192.14501763090914,0.2466587968448811
1760985939.1302383,9.337689638137817,73.84390834379668,121.19143741480688,-127.98614510375913,11.494755720791947,17.216024702223642,-15.479274334019168,0.5482933488775553,-0.5048133391344989,0.07339826172898384,0.65,-0.2,0.2,0.03020093182143668,72.96085587118448,121.34171760397354,114.62539104248168,stabilize,85.0,10,0.0,0.0,-10.0,188.62286980382225,0.30936413189840073
1760985939.237888,9.445339441299438,75.07865211390646,123.04228568253637,-129.64104282061075,11.43680436948248,17.175566187787226,-15.49853591176017,0.11875321592573701,-0.06746174224478693,0.07818924474907794,0.65,0.2,-0.2,-0.022909930923229228,74.73491406189662,123.21225346188177,106.86063479449727,stabilize,85.0,10,0.0,0.0,-10.0,185.5342953406915,0.31939480226270106
1760985939.3443253,9.551776647567749,76.28889581094619,124.85916072934087,-131.29647679540108,11.422223439111727,17.11598444941406,-15.522168972328881,0.5345142954280004,-0.508436805550416,0.07720447316559576,0.65,-0.2,0.2,-0.15,75.86779929247872,124.93438483540407,126.5722588843021,stabilize,85.0,10,0.0,0.0,-10.0,200.04125919531077,0.3086238150009622
1760985939.4514117,9.658863067626953,77.5286272557989,126.71456977119122,-132.95723267854842,11.528472976415397,17.236027411885573,-15.439004611320312,0.1435791810652068,-0.11844526945330736,0.06842861775484596,0.65,0.2,-0.2,-0.15,77.46942147564309,126.53262610481626,127.3503819132145,stabilize,85.0,10,0.0,0.0,-10.0,202.18096879889052,0.26813964689082787
1760985939.5576653,9.765116691589355,78.74291612739943,128.52650235348625,-134.60646205298377,11.422315685060294,16.971091498425967,-15.555617470591116,0.4387552600261839,-0.4467416646278929,0.0595382796402448,0.65,-0.2,0.2,-0.03141612007530591,78.11169088687889,128.38298982347717,125.1064910867724,stabilize,85.0,10,0.0,0.0,-10.0,202.08263721310266,0.15453377790394912
1760985939.6665652,9.874016523361206,79.99589553443525,130.3835645466277,-136.27993286727948,11.65166356619045,17.25966959717792,-15.36214998400361,0.3259501653081128,-0.23419347759047804,0.047182068794907654,0.65,-0.11393316685170904,-0.06255989616513266,0.15,79.25622988468035,130.116764254746,133.71798355309727,stabilize,85.0,10,0.0,0.0,-10.0,209.44398084506219,0.05702210348859804
1760985939.7738714,9.981322765350342,81.23203565979914,132.21848683838388,-137.93723875696105,11.38078467276607,16.90760219598873,-15.536902365588725,0.2091283813732871,-0.19028705277726904,0.03869919567585421,0.65,0.2,-0.2,-0.15,80.93403248512867,131.52327497528324,130.801997005438,stabilize,85.0,10,0.0,0.0,-10.0,208.98299412930038,0.2790174161047327
1760985939.8804433,10.087894678115845,82.45502478270504,134.02697776615148,-139.58818623160738,11.631319324965274,17.12082530466058,-15.369479381469478,0.5184913552378354,-0.5042681356508726,0.03062715067918151,0.65,-0.2,0.2,0.12315967585014323,82.02589946463912,133.18451350523495,137.37112080803658,stabilize,85.0,10,0.0,0.0,-10.0,214.90604940025793,0.3062684572810048
1760985939.9871702,10.194621562957764,83.70507729011617,135.86026228877796,-141.23639192276175,11.556142425237619,16.915737851308023,-15.447893578952664,0.060357106275968554,-0.057017173051515595,0.02846219143390177,0.65,0.2,-0.2,0.0902927689209538,83.10963896726814,134.83629685846697,139.37084457436865,stabilize,85.0,10,0.0,0.0,-10.0,217.7146946088722,0.3744198608628409
1760985940.0963159,10.303767204284668,84.95613173426251,137.68541239653666,-142.91980182672702,11.61172186757886,16.873668817683214,-15.436820745242802,0.5963901874850954,-0.555182832704604,0.032582645942027214,0.65,-0.2,0.2,0.14564683719894475,83.44935899412029,137.27722211588124,136.7380081493976,stabilize,85.0,10,0.0,0.0,-10.0,217.57958145017935,0.355059070737112
1760985940.2054029,10.412854194641113,86.2354356279955,139.5446495517147,-144.59119801997804,11.724526206963729,17.063755834879558,-15.313861508575343,0.14859214160970538,-0.08725595203444128,0.04779826726045865,0.65,0.2,-0.2,-0.15,85.22084635336756,139.45297290819659,136.5953201039033,stabilize,85.0,10,0.0,0.0,-10.0,219.54478400199895,0.26810624866253246
1760985940.311769,10.519220352172852,87.47332952013076,141.34488645094387,-146.23827011258632,11.534076932141977,16.689713382111425,-15.479319128376723,0.3316964607612188,-0.4006788606571419,0.05568904701604845,0.65,0.08943660758904853,0.15497723988226308,0.00484008169375575,86.68411339345074,141.69702524578054,125.29542583128192,stabilize,85.0,10,0.0,0.0,-10.0,214.2359323950581,0.086020635397074
1760985940.4191372,10.626588582992554,88.72867787957647,143.15205137450943,-147.88888148807357,11.833029514189182,16.997302000398474,-15.259937606165296,0.4297269432917014,-0.3731624469060605,0.058592035766744134,0.65,-0.2,0.2,0.15,87.7645111622019,144.01970389657205,141.15120840596865,stabilize,85.0,10,0.0,0.0,-10.0,226.47510311860137,0.18668080086555774
1760985940.5245607,10.732012033462524,89.96796394989025,144.93287656958597,-149.50376506134603,11.610362346637197,16.675876073635937,-15.414566522338548,0.0775986343291801,-0.10115910280449461,0.06391127805752576,0.65,0.2,-0.2,0.15,88.64644317630604,145.55436769180665,131.95227593809304,stabilize,85.0,10,0.0,0.0,-10.0,221.7988153394337,0.35709080239802493
1760985940.6285152,10.83596658706665,91.1716089761059,146.6529423062997,-151.0998193950285,11.767036516119646,16.750167864493744,-15.336239553264182,0.5912680657487113,-0.5971539866435973,0.07016780451372313,0.65,-0.2,0.2,-0.09078525621479004,89.99583193280101,147.1053781188047,143.17652026976322,stabilize,85.0,10,0.0,0.0,-10.0,230.6562125734025,0.4137175245257058
1760985940.7373934,10.944844722747803,92.4703590017835,148.5011963362417,-152.76658628192874,11.843273350693153,16.859164270597578,-15.2568470817153,0.07346959222028027,-0.0492738199256386,0.0786143666510191,0.65,0.2,-0.2,0.0034820865284091104,91.17512504114089,148.82059549630736,150.144420485121,stabilize,85.0,10,0.0,0.0,-10.0,236.86854684119305,0.31573937952272063
1760985940.845948,11.053399324417114,93.73741416848843,150.3037171058504,-154.43411676744316,11.603115364690877,16.45577189932434,-15.430818103315042,0.37370861215859896,-0.4039595709749938,0.08490483810325446,0.65,-0.07760433386871787,0.2,-0.0734998787378252,92.64735528116125,149.9733560158285,147.67948085785156,stabilize,85.0,10,0.0,0.0,-10.0,236.51291431726457,0.09541360414359534
1760985940.9550028,11.16245412826538,95.01794714703301,152.1199667034443,-156.10304536263965,11.864261405183512,16.877512270481926,-15.165579225044729,0.47735810807874834,-0.3868648317381065,0.09127583358415316,0.65,-0.2,0.2,-0.15,93.70725441042644,151.2046280224413,151.631080021292,stabilize,85.0,10,0.0,0.0,-10.0,240.35077510462605,0.27985341669488256
1760985941.0632255,11.270676851272583,96.28422909343169,153.92816777985774,-157.7422025961928,11.56185298754619,16.548618418338013,-15.324355115799454,0.011011719497292908,-0.014726150134188015,0.0936040673736257,0.65,0.2,-0.2,-0.15,96.61389134572563,153.4998747130951,143.75959787686503,stabilize,85.0,10,0.0,0.0,-10.0,237.77819386385036,0.450832162790769
1760985941.1720502,11.379501581192017,97.53323198420784,155.70932874227972,-159.4092804284495,11.621341166141423,16.522381356660127,-15.315782743427684,0.6003183373204694,-0.5921216601694111,0.08720775223432803,0.65,-0.2,0.2,0.15,97.76775753986783,155.16591594673636,156.33367245516925,stabilize,85.0,10,0.0,0.0,-10.0,247.59217774071047,0.40560732997460863
1760985941.2796752,11.487126588821411,98.8074651827426,157.5266369643717,-161.05773764206543,11.736484555887765,16.808155452556555,-15.160467674529203,0.1641626063388552,-0.07280927297865224,0.08104706273004708,0.65,0.2,-0.2,0.08510285229245465,97.80649291370344,156.94764348011336,155.87405073696124,stabilize,85.0,10,0.0,0.0,-10.0,248.42075911229134,0.228520544263576
1760985941.3894472,11.596898555755615,100.06086634667896,159.32698522814977,-162.71880865222107,11.36463120190328,16.317888231084684,-15.378406936327723,0.2042658612158504,-0.23991615968743785,0.07698504505092853,0.65,0.2,-0.2,-0.14598134652497247,97.76918350595842,158.60646535866277,139.3601383496719,stabilize,85.0,10,0.0,0.0,-10.0,238.79546692687364,0.21075406170184244
1760985941.49693,11.704381227493286,101.30747375921979,161.11031783740245,-164.37892480155156,11.659908906645136,16.669406103284743,-15.140310114671196,0.5886127777222646,-0.5607572802863227,0.07527855432933135,0.65,-0.2,0.2,-0.15,99.9079880631181,159.69244812872108,150.12296039201095,stabilize,85.0,10,0.0,0.0,-10.0,247.22994663443572,0.4482318395946386
1760985941.6059844,11.813435792922974,102.58236386617693,162.93389835995296,-166.02763776869955,11.57502630441023,16.55974557516019,-15.19675032937578,-0.012463371133778427,-0.0028157612228565925,0.06711340265787528,0.65,0.2,-0.2,-0.08536750268020633,101.7135116206014,161.89684984725233,160.21149541951,stabilize,85.0,10,0.0,0.0,-10.0,255.98472925079702,0.4345319642938104
1760985941.7174551,11.924906492233276,103.84908835537928,164.73686518798277,-167.71675769146643,11.525950441612023,16.268303032250476,-15.30396330328428,0.49718766756217964,-0.5658690720344091,0.056228012539485075,0.65,-0.2,0.2,0.019145007823993497,102.8500950027152,163.5703854723332,165.7109286978753,stabilize,85.0,10,0.0,0.0,-10.0,261.1661224383917,0.2898824274351484
1760985941.8252664,12.03271770477295,105.11704191803544,166.52045347807595,-169.355307264156,11.852058880976273,16.645541546609014,-15.043782119823057,0.3220312895396925,-0.2687270448738081,0.048481957393774214,0.65,-0.2,0.010690997336056223,-0.04236997634229908,104.08894875634061,164.90010708779752,164.62185857477533,stabilize,85.0,10,0.0,0.0,-10.0,261.7620065305048,0.07964092435083898
1760985941.9319506,12.139401912689209,106.37375599968246,168.28554274641158,-170.98000714528507,11.526313730755732,16.169588163451124,-15.254533152553126,0.04065219116595558,-0.08821559288134304,0.04380849395485737,0.65,0.2,-0.2,-0.018288555622579257,104.86776421595451,166.00711972347545,156.45524929034292,stabilize,85.0,10,0.0,0.0,-10.0,257.4159314938521,0.3774466590058081
1760985942.0410511,12.248502492904663,107.63752200444142,170.04547224035687,-172.6455837360463,11.762727161027604,16.280933705056285,-15.151914994464542,0.6004592679753477,-0.6299097992475737,0.039204148044822196,0.65,-0.2,0.2,0.0140247938535479,106.01049017044092,167.63610922294555,169.31568721462594,stabilize,85.0,10,0.0,0.0,-10.0,267.3840025559458,0.4386066176539702
1760985942.1411562,12.348607540130615,108.82840986936183,171.68900228670552,-174.15304277234839,11.909811894441047,16.39394077430523,-15.077214470600303,0.06868158476707113,-0.08493179603508685,0.04177503145401383,0.65,0.2,-0.2,-0.10218403526732106,107.04915739190898,169.12447502014757,172.07396803127781,stabilize,85.0,10,0.0,0.0,-10.0,270.5800066224646,0.30093740155732646
1760985942.249999,12.45745038986206,110.10690775283275,173.44187540756394,-175.80661014435591,11.667602568173464,15.87791923572346,-15.288493513134716,0.24648934910904963,-0.364161728935069,0.04192303721687067,0.65,0.2,-0.061263820863623496,0.04133352772168619,108.61846548464197,173.01642021260238,170.9773012556117,stabilize,85.0,10,0.0,0.0,-10.0,272.9202012991831,0.1012613447483927
1760985942.3572893,12.564740657806396,111.37886538800387,175.16046137662929,-177.4354518947243,12.056829093399493,16.240991183546893,-15.015919843680754,0.5527037658085714,-0.5435607421367603,0.04309760475363409,0.65,-0.2,0.2,-0.02890319897904215,109.7164437438838,174.55085407257727,175.28162521678823,stabilize,85.0,10,0.0,0.0,-10.0,277.1912324158998,0.3682631750581834
1760985942.4651315,12.672582864761353,112.6805590388242,176.91295970939836,-179.05557257427745,11.942278175337508,16.067709837604024,-15.115359035515025,-0.008716211364780886,-0.01848959192135633,0.04163921508099278,0.65,0.2,-0.2,-0.15,111.24310417370393,177.61961649474065,142.56901413709852,stabilize,85.0,10,0.0,0.0,-10.0,259.23167334395396,0.4698905778697765
1760985942.5740917,12.781543016433716,113.96750163880282,178.63480104519644,-180.70418142326042,11.955039154834257,15.873425280111999,-15.192188672677375,0.528038778493869,-0.5919941858973808,0.03482601409200623,0.65,-0.2,0.2,0.15,113.44319125253072,179.5550160271558,154.02538192906025,stabilize,85.0,10,0.0,0.0,-10.0,268.3536609384052,0.3466908765687633
1760985942.6826787,12.890130043029785,115.28029023627633,180.37238569339016,-182.33028197298722,12.256690478540857,16.1861939829452,-14.985371039887054,0.21544284260206495,-0.20539147095468954,0.04040428740857368,0.65,0.1021789256135632,-0.2,-0.0960015529907253,114.820297592811,180.58084603808794,170.35318077905902,stabilize,85.0,10,0.0,0.0,-10.0,279.8578433995682,0.09295188306206992
1760985942.7901533,12.997604608535767,116.59312345067436,182.10224023462422,-183.96822419867772,11.942662238872153,15.67050030345021,-15.213616469612875,0.09450070441623327,-0.18154106316178947,0.04851682504830229,0.65,0.2,-0.2,-0.03538581637881952,116.02498241315682,182.2067675459345,180.88163616144288,stabilize,85.0,10,0.0,0.0,-10.0,288.26533212854616,0.2880780761130509
1760985942.899035,13.106486320495605,117.90529900345506,183.8129408760095,-185.62172726064318,12.229696088369762,15.912145030431475,-15.050654356561171,0.5971551251231707,-0.5911342052783476,0.05867999596005591,0.65,-0.2,0.2,-0.15,116.95969001342522,183.99509144796775,171.19896446318612,stabilize,85.0,10,0.0,0.0,-10.0,283.4904363246025,0.4507966114777874
1760985943.0072875,13.214738845825195,119.23571754819703,185.5478697135789,-187.24566097700531,12.198632071862642,15.939200245111307,-15.065140253126863,0.021221337989374364,-0.00788637404467235,0.06707952702261129,0.65,0.2,-0.2,-0.15,118.15983432846656,185.6066527903084,183.98921297057262,stabilize,85.0,10,0.0,0.0,-10.0,293.33153727053445,0.42197591808668033
1760985943.1153278,13.322779178619385,120.5368521728775,187.24407910329353,-188.88503521983029,12.029930928268673,15.602522313470836,-15.228667267608486,0.4249148099914607,-0.4970011146997407,0.07290403780502372,0.65,-0.2,0.2,-0.15,119.19749009790479,188.7550624738369,176.94185331535598,stabilize,85.0,10,0.0,0.0,-10.0,291.17653026321034,0.23388558892482247
1760985943.2244854,13.431936740875244,121.86990476318243,188.97283866725581,-190.53043603050733,12.369023086787381,16.070108138216575,-14.929404995307676,0.43766113229667114,-0.40642263246049315,0.0741132946527018,0.65,-0.2,0.2,0.1438536214664511,120.39043429163074,190.3569944247561,187.52392332536874,stabilize,85.0,10,0.0,0.0,-10.0,299.5752698091086,0.22212273975829586
1760985943.3337765,13.5412278175354,123.20562046543343,190.70857080369873,-192.16218361308765,12.100346784071224,15.69594252096726,-15.115338320602104,-0.015190427834181654,-0.049067454881843234,0.07815059951733928,0.65,0.2,-0.2,-0.11410942859019106,121.55107351111027,191.93759956812778,190.29091016801092,stabilize,85.0,10,0.0,0.0,-10.0,302.87151450014,0.44534562810056605
1760985943.4412324,13.648683786392212,124.51179644015416,192.39193925226198,-193.79976823893017,12.236462239859936,15.69796886318458,-15.093012565688516,0.5854314012950103,-0.6525181396551003,0.08107206428097727,0.65,-0.2,0.2,0.007860382275577175,122.9026263453934,194.4747849675637,176.7445182568705,stabilize,85.0,10,0.0,0.0,-10.0,296.308981723076,0.42829561311433223
1760985943.549035,13.756486415863037,125.84739319073171,194.1069250837211,-195.4122587137451,12.429380689913145,15.963285329327046,-14.943042962300506,0.11712695757287264,-0.12084122078668029,0.09416440507951304,0.65,0.2,-0.2,-0.039432582802890234,124.08965808468015,196.05203501530002,191.82614686029268,stabilize,85.0,10,0.0,0.0,-10.0,307.51981600164515,0.23119485387801492
1760985943.6579266,13.86537790298462,127.18059306890633,195.81681126421702,-197.05245845188196,12.097995371406379,15.477631098486412,-15.17542767491988,0.20475951701584807,-0.25403977045931564,0.10189084651385924,0.65,0.2,-0.2,0.07189827993178405,126.03417172427459,196.85497276552977,167.31223542884752,stabilize,85.0,10,0.0,0.0,-10.0,293.38732347788385,0.1784752977749063
1760985943.7602975,13.967748880386353,128.42917645743975,197.41469953253775,-198.59976938434335,12.335915583936576,15.848910632027764,-14.97199619880742,0.600861138175205,-0.5809434597921476,0.09805992286349473,0.65,-0.2,0.2,-0.15,127.4557928532603,198.39429945688104,186.92986017775738,stabilize,85.0,10,0.0,0.0,-10.0,307.2240990197072,0.4749880776047622
1760985943.868522,14.075973272323608,129.7679971996295,199.1415702879245,-200.21614377022198,12.262550730678555,15.85416900513331,-15.008047974230282,0.02011781525006091,-0.003866091566455527,0.08541598388760933,0.65,0.2,-0.2,-0.15,128.85427543924516,198.76335980302397,182.4334773636962,stabilize,85.0,10,0.0,0.0,-10.0,305.1900075517601,0.4535182324080804
1760985943.9775245,14.184975862503052,131.0881474312703,200.84661038251426,-201.8636690116412,12.107971872110465,15.594075694229026,-15.154618433358928,0.47450430206873767,-0.5179278688291462,0.06948111428084154,0.65,-0.2,0.2,-0.09024115305216618,129.60931602526043,200.57803222958432,184.11802036956652,stabilize,85.0,10,0.0,0.0,-10.0,307.7530302788706,0.24366557948021922
1760985944.0859575,14.293408870697021,132.42112266515463,202.56202605631395,-203.49078795668433,12.45368062604619,15.998629439820192,-14.896307673986916,0.32589513721408203,-0.36559712333868727,0.05883826671453872,0.65,-0.2,0.2,0.04189579082629551,132.02461563665216,202.0652405667139,176.71489040028075,stabilize,85.0,10,0.0,0.0,-10.0,305.16112281297984,0.11834603682049408
1760985944.1876814,14.395132780075073,133.66715953073378,204.15720972185278,-204.99953882339392,12.212549325671462,15.585020166881046,-15.087959945171239,0.011523585644399436,-0.06167991019696622,0.05264634961202401,0.65,0.2,-0.2,-0.05076649338076872,133.18213152515122,203.5693973233887,198.9241625300457,stabilize,85.0,10,0.0,0.0,-10.0,320.6669383847847,0.41666673272054633
1760985944.2937984,14.50124979019165,134.9687532204688,205.81158915837634,-206.61228022919926,12.341333214015108,15.65930825701406,-15.04400891304914,0.6272125920783043,-0.6376412575346326,0.05037666589546096,0.65,-0.2,0.2,-0.15,133.05774517429046,205.47272362524927,197.73358610499864,stabilize,85.0,10,0.0,0.0,-10.0,321.0555193434422,0.46075924188319667
1760985944.4018297,14.609281063079834,136.32482690209787,207.53624950827643,-208.22945722859498,12.53304786347635,15.962291535637872,-14.874723334550763,0.13854547143803056,-0.10899468031425741,0.04298628983788756,0.65,0.2,-0.2,0.09430420398123902,135.74448102656936,207.1909027695879,197.6188132386025,stabilize,85.0,10,0.0,0.0,-10.0,323.2030413381891,0.21638823563722942
1760985944.510848,14.718299388885498,137.66884189995082,209.2471302867318,-209.86429514708917,12.161203356579673,15.433329609011727,-15.114305382215651,0.14599275209907284,-0.21877122196992652,0.03385406401761384,0.65,0.2,-0.2,0.122749355210659,136.69555791354014,209.59080469589395,191.30451955017892,stabilize,85.0,10,0.0,0.0,-10.0,321.15026164973733,0.23724747228089432
1760985944.6202376,14.827688932418823,139.0145675859141,210.94500821967262,-211.51135957082346,12.510387375417789,15.741754724889326,-14.894847716709691,0.5902708703646925,-0.6201278925790165,0.028210546658647678,0.65,-0.2,0.2,0.00019526771501878273,137.92386526431642,211.16613853403783,207.61035270467963,stabilize,85.0,10,0.0,0.0,-10.0,333.1191922977132,0.4442229895349883
1760985944.7301257,14.93757700920105,140.39164235614558,212.674434552593,-213.1365706416772,12.494500075982074,15.665327427836655,-14.935922556923273,-0.026870058809082224,0.008957051240092145,0.031507125980255554,0.65,0.2,-0.2,0.042057046121025884,139.3687899534114,212.15721893299528,188.34947027216552,stabilize,85.0,10,0.0,0.0,-10.0,322.1441564202425,0.4526468838837059
1760985944.8389862,15.046437501907349,141.73314752846923,214.35258161580253,-214.774611481882,12.304034813643428,15.335971375980881,-15.10155708032469,0.4695422297732002,-0.49867745429621246,0.03649238725751777,0.65,-0.2,0.2,0.0780927393866166,141.30931607600195,214.83119714592888,200.25882359421544,stabilize,85.0,10,0.0,0.0,-10.0,332.1589062124389,0.1956420875451717
1760985944.9510746,15.158525943756104,143.1274547695959,216.09335810361,-216.4405092758859,12.659252134973974,15.853532011241489,-14.76978723041462,0.4561046284936791,-0.4058700404723864,0.043738839887176494,0.65,-0.2,0.2,-0.15,143.03870386995501,216.88190293215465,198.16556342007718,stabilize,85.0,10,0.0,0.0,-10.0,332.91249964257486,0.261669719547879
1760985945.0577776,15.265228986740112,144.4740740626415,217.78235084361964,-218.0316407304774,12.355182059433861,15.506287031641898,-14.95817987955427,-0.019211768348952083,0.00190048947792245,0.048340664687394126,0.65,0.2,-0.2,-0.15,144.27213310131356,218.46098791780616,214.447429255111,stabilize,85.0,10,0.0,0.0,-10.0,344.8424279737849,0.4789618068997041
1760985945.1666248,15.374076128005981,145.81891982720515,219.46467859345242,-219.6748789346155,12.407037438646228,15.487634162562536,-14.97039167568914,0.6222496607774137,-0.6381679703270039,0.05240808709078362,0.65,-0.2,0.2,0.006843898040513299,145.46512201689765,219.98786092821086,218.09877900599358,stabilize,85.0,10,0.0,0.0,-10.0,348.6887059587475,0.43685394871494343
1760985945.2669277,15.474379062652588,147.0790679170323,221.04366408010563,-221.15965017465345,12.653462819898198,15.908646485773867,-14.722127189976892,0.29673570792018245,-0.23230627170895046,0.05720048959291153,0.65,-0.1491646544110906,-0.08159401359615823,-0.08674533012357831,146.58461716419663,222.38825940435245,197.4215909130246,stabilize,85.0,10,0.0,0.0,-10.0,337.59043867823294,0.10216562734024404
1760985945.3742802,15.58173155784607,148.4117245426189,222.72164156018795,-222.74423667069297,12.2564093472616,15.425695771468861,-14.956175260065347,0.020543856841898807,-0.06353392457224724,0.06326896003988221,0.65,0.2,-0.2,-0.15,147.80515182533236,223.95492927741336,218.16485594351312,stabilize,85.0,10,0.0,0.0,-10.0,352.2234727292956,0.4209334898635784
1760985945.4823475,15.689798831939697,149.74567689482677,224.39292865769028,-224.3714176422786,12.44558077495067,15.554864737518168,-14.878849624292695,0.6094127713222404,-0.6685368485083785,0.06065496103717464,0.65,-0.2,0.2,-0.04675250246002215,149.56178296147527,225.1926933810742,202.87665068749627,stabilize,85.0,10,0.0,0.0,-10.0,344.088570694762,0.4845450284619079
1760985945.5907142,15.798165559768677,151.11180842332365,226.09889347860306,-225.97063560891053,12.64242709149891,15.743318511119561,-14.767505283581814,0.04778017357530927,-0.09502677011945426,0.053290335770270425,0.65,0.2,-0.2,0.14059206271804667,150.78352823423947,226.7484500410969,221.56551441017046,stabilize,85.0,10,0.0,0.0,-10.0,357.45366055875326,0.2761786450309815
1760985945.6995883,15.907039642333984,152.4676791091151,227.78028206764466,-227.5919866832791,12.33053770945835,15.205464320854915,-15.004788188397203,0.2190047451579158,-0.30879476783242843,0.05392122262493558,0.65,0.2,-0.18741264846706898,-0.15,151.96377909115967,228.2545163398334,225.4879563656345,stabilize,85.0,10,0.0,0.0,-10.0,361.452198746198,0.1569169467410374
1760985945.8019636,16.00941491127014,153.74516122193188,229.3507515133684,-229.1201287212885,12.660554375708795,15.570107309313624,-14.773730436802905,0.578848346293352,-0.6000452407324296,0.056493330303590876,0.65,-0.2,0.2,-0.043375227121641324,152.8025740889487,228.6961568480086,223.24288667459695,stabilize,85.0,10,0.0,0.0,-10.0,360.62834468404793,0.45036908314485147
1760985945.9112425,16.118693828582764,155.13363584295146,231.05895918625447,-230.7326134547459,12.57647209467078,15.465979797357836,-14.844200709853075,-0.061542323714099276,0.041918342221895714,0.06443539322119995,0.65,0.2,-0.2,-0.02328081906544639,154.5267810370105,230.90193900897737,217.54585996286784,stabilize,85.0,10,0.0,0.0,-10.0,359.1258134442674,0.4739400084000712
1760985946.0193267,16.226778030395508,156.47171889011912,232.70021789737208,-232.34963459947488,12.33390324288043,15.069763233245839,-15.032278629387058,0.416409837322838,-0.4765097671130049,0.06820644813052947,0.65,-0.2,0.2,-0.15,156.48931357215594,232.86750378695945,206.35856484442118,stabilize,85.0,10,0.0,0.0,-10.0,354.29819102528836,0.22295952817326323
1760985946.1289864,16.336437702178955,157.84482179696695,234.38082598870324,-233.9804715628387,12.700563076085468,15.594263350543946,-14.702094281631137,0.482388889661509,-0.48098982701354787,0.0662502721068237,0.65,-0.2,0.2,0.01266012446460955,157.73707228006174,234.43095790839965,228.9131320981762,stabilize,85.0,10,0.0,0.0,-10.0,370.0247865836772,0.32327913073096604
1760985946.2374995,16.444950819015503,159.21635190507135,236.06440198919069,-235.58244692128508,12.438840592601224,15.241622604339584,-14.878162908720814,-0.088144868272808,0.031836150292850675,0.07019291623747802,0.65,0.2,-0.2,0.15,158.9465280671463,235.9706905950567,233.78076077747338,stabilize,85.0,10,0.0,0.0,-10.0,374.66681855983967,0.5197028927192376
1760985946.3447633,16.55221462249756,160.540270058598,237.6782372164317,-237.18815302061006,12.417203047137889,15.078264209080599,-14.96128048983498,0.5569289882085106,-0.6158784363357541,0.08429537041913707,0.65,-0.2,0.2,-0.15,159.8182143508064,236.56885861141873,212.0689333038966,stabilize,85.0,10,0.0,0.0,-10.0,361.69226925899346,0.41608808967171684
1760985946.4534519,16.660903215408325,161.90202139812305,239.34110679153804,-238.7867762793132,12.700003336855252,15.601650993939012,-14.664450546424714,0.35317946615053386,-0.28859779818217884,0.09183328484668003,0.65,-0.2,0.14435458614914673,-0.15,161.09631857132194,239.11227483185448,209.62304309714364,stabilize,85.0,10,0.0,0.0,-10.0,362.43755999033397,0.1986784522563785
1760985946.5614192,16.76887059211731,163.26041847202836,241.01396569259967,-240.38909120836087,12.269423488698054,15.11126893982718,-14.895522579123595,-0.05401752432600694,0.018145555025294816,0.09000311048094674,0.65,0.2,-0.2,0.15,162.24345162289785,240.4962017118582,214.85005485992932,stabilize,85.0,10,0.0,0.0,-10.0,367.0407440637287,0.48401770785568565
1760985946.6704812,16.87793254852295,164.58760425000142,242.64254516988615,-242.01338498850419,12.344871213371855,15.12585585626057,-14.902512704327691,0.6004006358235275,-0.6542918446570334,0.0851031695033632,0.65,-0.2,0.2,-0.01617398209340043,163.4825951868163,242.01939881216288,236.97551873188868,stabilize,85.0,10,0.0,0.0,-10.0,382.48771899670544,0.47039243887897975
1760985946.7777367,16.985188007354736,165.9359788209373,244.2998462578523,-243.6027807625852,12.590798712403041,15.492750780487237,-14.709969810819809,0.15481475147884524,-0.1623385858671388,0.08096491522000725,0.65,0.2,-0.2,-0.08879551193679812,165.06908353726269,242.6181214741853,237.20945535310722,stabilize,85.0,10,0.0,0.0,-10.0,383.697628378746,0.15674641327829267
1760985946.8868566,17.094307899475098,167.28688779948584,245.96042973062524,-245.22167281702573,12.154312782161648,14.918460990518275,-14.96453892841856,0.06317570031157269,-0.09266361334070164,0.07444785812142447,0.65,0.2,-0.2,0.15,166.28727994205494,244.14097121088162,243.06187117492846,stabilize,85.0,10,0.0,0.0,-10.0,388.9686156194044,0.34764282684455605
1760985946.9949856,17.202436923980713,168.6067881755631,247.57928641049088,-246.8395445065968,12.366889557888102,15.211278437154421,-14.82304494648668,0.6572493775878815,-0.6663892833461643,0.06876538823291416,0.65,-0.2,0.2,0.008148199018273156,168.4222930423623,246.43228705169537,227.12292865928418,stabilize,85.0,10,0.0,0.0,-10.0,381.21152158759907,0.5302537008645017
1760985947.1037934,17.31124472618103,169.96031559550042,249.2494221610668,-248.4324875540099,12.491279721393642,15.42357516520864,-14.734951511607939,0.031145517114692444,-0.03578745377610139,0.06028771964769944,0.65,0.2,-0.2,-0.15,169.81992561463653,248.8922669316445,218.06316313935127,stabilize,85.0,10,0.0,0.0,-10.0,377.8875150825441,0.3460067778705609
