timestamp,simulation_time,position_x,position_y,position_z,velocity_x,velocity_y,velocity_z,attitude_roll,attitude_pitch,attitude_yaw,angular_velocity_x,angular_velocity_y,angular_velocity_z,acceleration_x,acceleration_y,acceleration_z,motor_speed_1,motor_speed_2,motor_speed_3,motor_speed_4,control_throttle,control_roll,control_pitch,control_yaw,estimated_position_x,estimated_position_y,estimated_position_z,estimated_velocity_x,estimated_velocity_y,estimated_velocity_z,estimated_attitude_roll,estimated_attitude_pitch,estimated_attitude_yaw,sensor_accel_x,sensor_accel_y,sensor_accel_z,sensor_gyro_x,sensor_gyro_y,sensor_gyro_z,sensor_gps_x,sensor_gps_y,sensor_gps_z,sensor_gps_vx,sensor_gps_vy,sensor_gps_vz,sensor_baro_altitude,sensor_mag_x,sensor_mag_y,sensor_mag_z,flight_mode,battery_level,gps_fix,waypoint_index,mission_complete,setpoint_altitude,setpoint_position_x,setpoint_position_y,setpoint_position_z,position_error,attitude_error
1760882702.735764,0.10749340057373047,-9.514767478589112e-14,5.21428324384975e-14,0.05660508358328621,-3.498887266138106e-12,1.7784220890114207e-12,1.0518597358783641,1.98327355652913e-06,4.666799827930059e-06,-7.933093676151856e-08,,,,,,,,,,,0.0,-0.15987204252334475,1.0,-0.00959263690877038,0.22379190281258632,-0.3540567774082285,-0.929010362090867,-0.007140944800234312,0.004311204569010927,0.8324379366343715,-0.004732248727234302,-0.0006203057425003266,0.006684561198691839,,,,,,,,,,,,,,,,,auto,85.0,True,0,False,-10.0,15.0,0.0,-10.0,17.34198762956745,0.00821354464586673
1760882702.8451772,0.21690654754638672,-1.518343512667472e-12,5.520121999581985e-13,0.2295983120025742,-2.7999376366495665e-11,7.794176054635499e-12,2.1062896390435184,3.0405550802126547e-06,1.8594879705240702e-05,-1.2162216666571548e-07,,,,,,,,,,,0.0,-0.1059599831686471,1.0,0.24018413013297768,0.22288222373516398,-0.35350171764510485,0.1843419396818339,-0.00857063576541496,0.004938558749169341,1.888683379776787,-0.005340655385163859,-0.0011622948192824057,-0.11535208645481915,,,,,,,,,,,,,,,,,auto,85.0,True,0,False,-10.0,15.0,0.0,-10.0,17.950180889961597,0.11548150232253684
1760882702.9568233,0.3285527229309082,-7.94792746759384e-12,1.7468763269686592e-12,0.5201992603413391,-9.602469951017723e-11,1.2918704684514351e-11,3.140123812757351,1.2272496893242476e-06,4.2343390477398595e-05,-4.908994067959712e-08,,,,,,,,,,,0.0,-0.024606489887260247,1.0,0.07944185269861342,0.3037343435234951,-0.26367744419122646,0.3952736508057122,-0.007719900541752051,-0.003950230996821198,2.9634910660508766,-0.007676067776700642,-0.002912366470191082,-0.027280055727289032,,,,,,,,,,,,,,,,,auto,85.0,True,0,False,-10.0,15.0,0.0,-10.0,18.003095964734555,0.028488687850674876
1760882703.0645857,0.43631505966186523,-2.4386781168446794e-11,3.190255511024961e-12,0.9129320799979097,-2.1966806106756924e-10,1.296709858021588e-11,4.10663661083106,-8.896218548423179e-07,7.47307524865687e-05,3.558483881200516e-08,,,,,,,,,,,0.0,-0.01281862375891857,1.0,0.12355278435594089,0.3028879885958526,-0.26406482375110124,0.6846258172603538,-0.008236120504660447,-0.0026006246530821345,3.9356299979834306,-0.014675751088488537,-0.0024653725935935107,-0.061203004930085424,,,,,,,,,,,,,,,,,auto,85.0,True,0,False,-10.0,15.0,0.0,-10.0,18.172398316176356,0.06298621709952563
1760882703.1714225,0.54315185546875,-5.8159933148998676e-11,4.371856952093485e-12,1.4027706799222843,-4.274180159660023e-10,8.612903293917586e-12,5.010160212343664,-1.8436972196455e-06,0.00011585941098708738,7.374766234168278e-08,,,,,,,,,,,0.0,0.24823095496642147,1.0,-0.09553608234317004,0.36272276137684617,0.5391930226214081,1.2417623256903616,0.025422738546244526,0.061154464362348705,4.884741187522272,-0.009218948646457574,9.522661329334235e-05,0.05341631894809963,,,,,,,,,,,,,,,,,auto,85.0,True,0,False,-10.0,15.0,0.0,-10.0,18.463960416532263,0.05420609940051957
1760882703.280142,0.6518714427947998,-1.2160420828443846e-10,5.187792401131917e-12,1.9943681996257818,-7.536570885418231e-10,8.441790196100994e-12,5.8616470063792105,3.1160911642051986e-06,0.0001674189378595038,-1.2464391558330373e-07,,,,,,,,,,,0.0,0.5034449133087808,1.0,0.18111636087221847,0.030389010431098762,1.2575523553657693,2.1571668493645375,0.010620528050422753,0.05965547219322271,5.762398985998404,-0.012141172230459277,-0.001976877499533907,-0.07926944976764808,,,,,,,,,,,,,,,,,auto,85.0,True,0,False,-10.0,15.0,0.0,-10.0,19.325304574800267,0.08021821348199872
1760882703.3892844,0.7610137462615967,-2.2649446340298834e-10,6.907885018874148e-12,2.677619171930413,-1.1809849991666653e-09,2.6829680446158496e-11,6.646804907667899,1.3684395290104885e-05,0.00022917473987422318,-5.47375381417342e-07,,,,,,,,,,,0.0,-0.07942777246169319,1.0,0.1293175116054711,-0.03909710274154772,0.09054080925149603,2.712841310216665,-0.003965510962079861,0.02820157444377716,6.547149012382109,-0.004541348025981319,-0.0011094830926260254,-0.07234158140165407,,,,,,,,,,,,,,,,,auto,85.0,True,0,False,-10.0,15.0,0.0,-10.0,19.692612154881346,0.07249247681185993
1760882703.4909067,0.8626360893249512,-3.696079218086267e-10,1.1324187099799769e-11,3.3874624690523993,-1.6514693261551433e-09,6.293861102548641e-11,7.312911909050327,2.3405761568010613e-05,0.00029509607796666184,-9.362283443498061e-07,,,,,,,,,,,0.0,-0.009132104147602793,1.0,-0.012611474953708124,-0.039364307839134374,0.09329945106744839,3.3973281586615616,-0.001643540849716399,0.026832495325528206,7.21949223497063,-0.0033688728641341785,-0.0035443618235046818,0.0006194702828389784,,,,,,,,,,,,,,,,,auto,85.0,True,0,False,-10.0,15.0,0.0,-10.0,20.141489154537236,0.004929051485015921
1760882703.5991657,0.9708950519561768,-5.811403252837618e-10,2.110677918841308e-11,4.214463217048986,-2.275588598492092e-09,1.20846362060972e-10,7.953514020895625,3.388960170056368e-05,0.0003739495240979758,-1.355578945147581e-06,,,,,,,,,,,0.0,0.02420251648666403,1.0,0.0640884907995962,-0.03939574820774651,0.09615890134461405,4.466646089574317,0.0017882656185756905,0.02515762734409198,7.867116662471688,-0.0043084780311981475,-0.012874006671789758,-0.0419463811303266,,,,,,,,,,,,,,,,,auto,85.0,True,0,False,-10.0,15.0,0.0,-10.0,20.86807418250455,0.04408856904755726
1760882703.7076333,1.0793626308441162,-8.692779643300894e-10,3.8316092791322684e-11,5.108813674678431,-3.068497915831457e-09,2.0016697133847428e-10,8.525767325945424,4.406466260473775e-05,0.0004619978061510306,-1.7625770040959651e-06,,,,,,,,,,,0.0,-0.30627795928607493,1.0,-0.15715698357743554,0.00505658788778905,-0.6033422481801667,5.127290683006215,-0.0670675325129373,-0.06818833207710022,8.429803810151205,0.004790054145924937,-0.010081588627060045,0.07567918600214418,,,,,,,,,,,,,,,,,auto,85.0,True,0,False,-10.0,15.0,0.0,-10.0,21.30838504460282,0.07649785776028827
1760882703.8164997,1.1882290840148926,-1.2557903276698697e-09,6.53908685418926e-11,6.065206251192919,-4.048390369918844e-09,2.9787753808521777e-10,9.033461263572114,5.116835846331186e-05,0.0005599319228698216,-2.0467190985047383e-06,,,,,,,,,,,0.0,-0.34264968818025826,1.0,-0.024646052914837985,-0.202298447264072,-0.9767163802228205,5.659075229917477,-0.05685859793403497,-0.03365476075847504,8.953769529081775,0.0026343445246887584,-0.007857632724436625,0.03510885585933196,,,,,,,,,,,,,,,,,auto,85.0,True,0,False,-10.0,15.0,0.0,-10.0,21.84652123390125,0.03607372898465368
1760882703.9276192,1.2993485927581787,-1.76832160062334e-09,1.0425247183686541e-10,7.085264411301934,-5.304356521068441e-09,4.0826504902734686e-10,9.483593828764043,5.2698576266259e-05,0.0006690807310286332,-2.107921277834287e-06,,,,,,,,,,,0.0,-0.30353746944721266,1.0,0.251056190602325,-0.2081372547553737,-0.9804406201279784,6.498400954381386,-0.04862443856054393,-0.03396085417194511,9.409882630325205,0.0035052161307354206,-0.007374077062329648,-0.12036754096529796,,,,,,,,,,,,,,,,,auto,85.0,True,0,False,-10.0,15.0,0.0,-10.0,22.459873922633847,0.12064413981075511
1760882704.0340586,1.4057879447937012,-2.411991877247808e-09,1.5341435680197068e-10,8.125266380785074,-6.653161831116428e-09,4.996566510071847e-10,9.86642615536245,4.7361396243629565e-05,0.0007858368550652978,-1.8944280741863305e-06,,,,,,,,,,,0.0,-0.29697658282939765,1.0,0.013750329509077877,-0.21300056525433622,-0.9841059869573565,8.245361683503173,-0.04216494447060072,-0.03319489351003318,9.79806703417437,0.005759161982255528,-0.00927581879908533,-0.013901489190293975,,,,,,,,,,,,,,,,,auto,85.0,True,0,False,-10.0,15.0,0.0,-10.0,23.77597682018217,0.01767654272868941
1760882704.1427681,1.5144975185394287,-3.220208568847949e-09,2.1170737502112273e-10,9.216549802161673,-8.237019542267784e-09,5.663663632105796e-10,10.202471557067641,3.5946525402294504e-05,0.0009139108407510299,-1.4378288184108863e-06,,,,,,,,,,,0.0,-0.2692913190224795,1.0,0.02839683761130613,-0.2171282733683962,-0.9876132460357331,9.276370367793033,-0.03278539548352869,-0.03183347308542417,10.14028132701976,0.0007942454348449596,-0.01485971093509629,-0.039820514075496,,,,,,,,,,,,,,,,,auto,85.0,True,0,False,-10.0,15.0,0.0,-10.0,24.57874747354353,0.042510177324049915
1760882704.2507577,1.6224870681762695,-4.209455122624503e-09,2.7497513962424884e-10,10.334252371546027,-1.0073665826423055e-08,5.987444290177281e-10,10.490574507055845,2.432955508006881e-05,0.00105146540837633,-9.73148299378072e-07,,,,,,,,,,,0.0,0.15946566381958371,1.0,-0.1135242732222817,0.004181930893780007,0.33828231588943897,10.182784091574561,0.03425894054348732,0.04654281769754335,10.419176715472851,0.00235195786609592,-0.012723562059791709,0.05917449641673342,,,,,,,,,,,,,,,,,auto,85.0,True,0,False,-10.0,15.0,0.0,-10.0,25.146247596293396,0.06057261562345857
1760882704.3598862,1.7316155433654785,-5.40036570901562e-09,3.404689908448385e-10,11.493073462126837,-1.1763623527773058e-08,5.976762697809363e-10,10.740726634658387,1.541882194902451e-05,0.0012002880414455125,-6.167194186323967e-07,,,,,,,,,,,0.0,-0.02495112955326839,1.0,0.09606357547874989,0.29329353693530824,-0.10830423623768468,11.28531924044391,0.03923418007228099,0.07555708721566295,10.71082502672532,-0.0017427652349506384,-0.008858823101689502,-0.05859842699365894,,,,,,,,,,,,,,,,,auto,85.0,True,0,False,-10.0,15.0,0.0,-10.0,25.872065243539172,0.05928989478437584
1760882704.4669104,1.838639736175537,-6.757411998517247e-09,4.0342052395520254e-10,12.65412743948757,-1.3625471521995582e-08,5.750192055410057e-10,10.950891084801182,5.063913254785394e-06,0.0013551964395606675,-2.0252587027963938e-07,,,,,,,,,,,0.0,-0.010581894322852121,1.0,-0.2030282810946711,0.297951927110254,-0.1004233228961045,12.251210255396478,0.0469462840688804,0.07171976920603651,10.924088448411323,-0.004427176765483515,-0.0026429613157430403,0.08729175222762095,,,,,,,,,,,,,,,,,auto,85.0,True,0,False,-10.0,15.0,0.0,-10.0,26.669770531656322,0.08744389713180514
1760882704.5759225,1.9476518630981445,-8.350266738698225e-09,4.638371592556758e-10,13.858140380752335,-1.5644140863663797e-08,5.29980523814542e-10,11.13374187124006,-5.488294059044987e-06,0.0015220469636430477,2.1955684492918207e-07,,,,,,,,,,,0.0,0.017146125783098085,1.0,0.02702289326347906,0.30316989146872075,-0.09282176079178435,13.643628764548088,0.049439652370901095,0.06632459971398104,11.111407588994126,-0.010523343453223255,-0.003984083136151966,-0.017914845742079813,,,,,,,,,,,,,,,,,auto,85.0,True,0,False,-10.0,15.0,0.0,-10.0,27.83929978059926,0.021155504575234844
1760882704.6834478,2.0551772117614746,-1.0152574298006157e-08,5.175645506466164e-10,15.063778161550244,-1.7961429580962623e-08,4.664664342832596e-10,11.28732760508941,-1.4256013960719564e-05,0.0016956438364912779,5.702574479745874e-07,,,,,,,,,,,0.0,0.2960264947031006,1.0,-0.011689676783541795,0.6066593674193264,0.6440014289512177,15.092006666610997,0.033037906916392135,0.09370376535679249,11.258018623770344,-0.013699362290594562,-0.006623177800882776,0.0014189014115873894,,,,,,,,,,,,,,,,,auto,85.0,True,0,False,-10.0,15.0,0.0,-10.0,28.934266725860528,0.015282417759205361
1760882704.7921093,2.1638386249542236,-1.2243998674136592e-08,5.642381387974369e-10,16.297638617968886,-2.0516280772166153e-08,3.923686245012197e-10,11.419243232243378,-1.8588690201584856e-05,0.0018805554988566655,7.435543374744055e-07,,,,,,,,,,,0.0,-0.027319061460711988,1.0,-0.14731823277824102,0.389086807596073,0.022580621460845378,16.246653263247882,0.019970638294524105,0.03856709893071546,11.432854961205,-0.011064216173437634,-0.002569755746402103,0.07795494733469771,,,,,,,,,,,,,,,,,auto,85.0,True,0,False,-10.0,15.0,0.0,-10.0,30.039409144015956,0.07877813362909926
1760882704.9002829,2.272012233734131,-1.4598644321821684e-08,6.027164087900065e-10,17.539087715110124,-2.305354512199743e-08,3.1900095646062565e-10,11.530588060654733,-2.1274885130110794e-05,0.002073730296989135,8.509910424289428e-07,,,,,,,,,,,0.0,0.024388433603237246,1.0,0.1671762083512393,0.39152765996339817,0.02621638374988423,17.38251910896812,0.025155779398546015,0.028185136796196966,11.546018374307055,-0.012494445343396445,-0.002997927696007452,-0.07298864988827788,,,,,,,,,,,,,,,,,auto,85.0,True,0,False,-10.0,15.0,0.0,-10.0,31.035632813934946,0.07411100962355874
1760882705.0088434,2.38057279586792,-1.724109164632955e-08,6.331871169862468e-10,18.79026555259031,-2.5936984617427866e-08,2.4482794448165913e-10,11.624782763651904,-2.2895539775500084e-05,0.0022756847800104213,9.158054067752667e-07,,,,,,,,,,,0.0,0.27090554815871415,1.0,0.11020886467795711,-0.2795627579216845,0.597041199625814,18.429032698589563,0.039350436641827045,-0.04237335299799548,11.546177155083129,-0.015747472488659497,-0.0015939398919389313,-0.04969118376090989,,,,,,,,,,,,,,,,,auto,85.0,True,0,False,-10.0,15.0,0.0,-10.0,32.28051109330199,0.05215110044592268
1760882705.1168084,2.4885377883911133,-2.021534610502547e-08,6.560013664406212e-10,20.05566059358224,-2.8906482537529288e-08,1.7767976440883476e-10,11.704734718601213,-2.1210961272102494e-05,0.0024876036993053906,8.484104448400029e-07,,,,,,,,,,,0.0,0.2372515754570447,1.0,0.16794728897499356,-0.27507561371993833,0.5916502179105151,19.78934267510202,0.04306996469190131,-0.05711597278654378,11.627223468200304,-0.017910413273115353,-0.0036228337172342206,-0.10342093502333491,,,,,,,,,,,,,,,,,auto,85.0,True,0,False,-10.0,15.0,0.0,-10.0,33.482576394296025,0.10502284336684746
1760882705.225884,2.5976133346557617,-2.351230776754747e-08,6.720440448354036e-10,21.32427997737365,-3.220670474499726e-08,1.210418926883251e-10,11.77200717697475,-1.722018571304633e-05,0.002707742132458417,6.887686023906574e-07,,,,,,,,,,,0.0,0.09382440810572353,1.0,-0.19225682147884066,-0.9556586929697127,0.2223850499583476,21.111276541263887,0.03237128977209362,-0.016032165747809194,11.764149263472879,-0.020165060776817376,-0.000505616179431366,0.08881879450462464,,,,,,,,,,,,,,,,,auto,85.0,True,0,False,-10.0,15.0,0.0,-10.0,34.96489707498053,0.09108053349156658
1760882705.3340871,2.7058165073394775,-2.7211491364306858e-08,6.827386267940427e-10,22.606547006829707,-3.5776879513520965e-08,7.902144579815315e-11,11.82906902147793,-1.2215555168266531e-05,0.002938525574787081,4.88574286221821e-07,,,,,,,,,,,0.0,0.2851522900292388,1.0,0.21949922413416179,-1.163679682395083,0.5240588002514226,22.126774762521,0.06966945529124229,-0.015396258498403443,11.775308674341948,-0.020765413714416647,-0.0007184499346054798,-0.11736947197340838,,,,,,,,,,,,,,,,,auto,85.0,True,0,False,-10.0,15.0,0.0,-10.0,35.96760813764168,0.11919442742157083
1760882705.4435616,2.815290927886963,-3.136586476383538e-08,6.897709924167192e-10,23.910888602440565,-4.017904890992363e-08,5.071776721976901e-11,11.877703561461255,-5.342365940351506e-06,0.003181768671142119,2.1363954240338044e-07,,,,,,,,,,,0.0,0.21335445001498218,1.0,-0.18330483927550634,-1.1558779992877757,0.5211516601364872,23.645125906084104,0.07255496114118692,-0.035582288476683994,11.823416024619476,-0.01625882907761359,0.0012070805621491672,0.09795146118090423,,,,,,,,,,,,,,,,,auto,85.0,True,0,False,-10.0,15.0,0.0,-10.0,37.326645847396804,0.09929901970277834
1760882705.5525494,2.924278736114502,-3.5961770805941117e-08,6.94886564869429e-10,25.207684182111276,-4.4314208618249066e-08,4.798049220522855e-11,11.918205848483606,7.055551774981322e-06,0.0034328302052005683,-2.8228043321900936e-07,,,,,,,,,,,0.0,0.2325616284998394,1.0,0.11494296618601818,-1.1224633629720404,0.573851137911109,25.15378629147294,0.06433564660424165,-0.007563463450425103,11.909453967021602,-0.01769370848637271,0.0036762197035525536,-0.03495183180367778,,,,,,,,,,,,,,,,,auto,85.0,True,0,False,-10.0,15.0,0.0,-10.0,38.678829101272036,0.03934733101167228
1760882705.6611836,3.0329129695892334,-4.100681757841898e-08,7.014025869204497e-10,26.504307115439147,-4.8644768049827694e-08,7.810638018894275e-11,11.952166622619833,2.381635992342407e-05,0.0036926871846801844,-9.527100606815341e-07,,,,,,,,,,,0.0,0.3591853329044463,1.0,0.12317027179613863,-0.5182742510719766,0.8544785898725236,26.437200825367345,0.021659083473241452,0.003938109960163671,11.924102257861675,-0.022251465777932484,0.004092565224224056,-0.05080566586552644,,,,,,,,,,,,,,,,,auto,85.0,True,0,False,-10.0,15.0,0.0,-10.0,39.613338326631656,0.05561557788444302
1760882705.769103,3.1408324241638184,-4.6501919473264246e-08,7.132428167554546e-10,27.79575429669089,-5.327554740460158e-08,1.4917041139165048e-10,11.980556961928754,4.524200993976191e-05,0.003960343040625064,-1.8097253430041269e-06,,,,,,,,,,,0.0,0.3221279452070128,1.0,-0.010981628266887644,-0.5159190759871641,0.8537674563090926,27.25617599129461,0.022196435415614814,-0.01673537564056408,11.952634744009206,-0.022453666349519882,0.0008362647883649098,0.002602816705509504,,,,,,,,,,,,,,,,,auto,85.0,True,0,False,-10.0,15.0,0.0,-10.0,40.3670077307738,0.022619485540884873
1760882705.8789709,3.2507002353668213,-5.258570558185255e-08,7.355726901637625e-10,29.107285930518753,-5.8078521809520554e-08,2.68270505939188e-10,12.004743461162926,7.151109400769858e-05,0.004241227469220783,-2.8604672757025807e-06,,,,,,,,,,,0.0,0.09545835978577626,1.0,0.046928070647304004,-1.2735730199010646,0.2643680161576009,28.881558089424423,0.037757873300387636,-0.0492419674450551,11.937843885585458,-0.02177778360106187,0.00027697706129705096,-0.0008757245517561629,,,,,,,,,,,,,,,,,auto,85.0,True,0,False,-10.0,15.0,0.0,-10.0,42.15061836727078,0.02179714358253651
1760882705.9879947,3.3597240447998047,-5.9173008500997395e-08,7.733915474431731e-10,30.41719589010412,-6.275180932863986e-08,4.330271858545488e-10,12.024989201837233,0.00010098125978689816,0.004530756307150582,-4.039239776181877e-06,,,,,,,,,,,0.0,0.11154078995678168,1.0,0.047425718887008715,-1.2692981470866778,0.2577056438666649,30.230174116161756,0.0410996876607698,-0.07285707868584382,11.957576027866217,-0.01948525349090894,0.003879198350394979,-0.005309540379432015,,,,,,,,,,,,,,,,,auto,85.0,True,0,False,-10.0,15.0,0.0,-10.0,43.3961217600648,0.020564885180508672
1760882706.0936604,3.4653897285461426,-6.60864952686322e-08,8.301283367556019e-10,31.694888739310027,-6.772203434326662e-08,6.493754652892887e-10,12.041581510206205,0.00013191381320700642,0.004821612906693711,-5.276494853881438e-06,,,,,,,,,,,0.0,0.2588677065834806,1.0,-0.10773484832268046,-0.38240469311140235,0.6002741452140444,31.566452698003264,0.02678898363076544,-0.08383034427432301,12.024274759091451,-0.020225807249766983,-0.0005309802827762803,0.06109638941942436,,,,,,,,,,,,,,,,,auto,85.0,True,0,False,-10.0,15.0,0.0,-10.0,44.32548581896662,0.0643594128240413
1760882706.1995945,3.571323871612549,-7.353314968511926e-08,9.126420892505741e-10,32.971263869108306,-7.296295747343966e-08,9.197883761260468e-10,12.055543856026109,0.00016664573468577255,0.00512082166174771,-6.665709253104811e-06,,,,,,,,,,,0.0,0.22879004915474904,1.0,-0.12890745214425436,-0.37933118792219284,0.5902889575193263,32.98952086735032,0.029482154438947056,-0.10526380690607055,12.039308891571679,-0.019355579769606987,0.004152394801990101,0.06311609534042747,,,,,,,,,,,,,,,,,auto,85.0,True,0,False,-10.0,15.0,0.0,-10.0,45.66148457119539,0.06614773119186435
1760882706.3074102,3.6791396141052246,-8.167610829768387e-08,1.0284933931246202e-09,34.271705082914046,-7.831795711648989e-08,1.2459437418453482e-09,12.067511771895589,0.0002048687342905372,0.005434417877426067,-8.194547554126214e-06,,,,,,,,,,,0.0,0.20527339851105864,1.0,-0.27184293010159283,-0.3761054758987022,0.5779131630742368,34.12107389587399,0.028990944889134493,-0.12349523356972818,12.051777312977354,-0.01610691623775006,0.004501336806288176,0.11550656380407148,,,,,,,,,,,,,,,,,auto,85.0,True,0,False,-10.0,15.0,0.0,-10.0,46.72716303131606,0.11671101518518968
1760882706.4161587,3.7878880500793457,-9.052093569784385e-08,1.185418937347594e-09,35.5845956303071,-8.405851357553618e-08,1.6374033118331307e-09,12.07765332693452,0.0002465910306839346,0.005760204300995162,-9.86333645935833e-06,,,,,,,,,,,0.0,-0.15755933624729235,1.0,-0.05381666889437662,0.31343590992092374,-0.32804648628976835,35.51420061086271,0.01756983060049684,-0.0789432265952239,12.082434919953393,-0.013039738490040701,0.0031936896145571634,0.029847270517922145,,,,,,,,,,,,,,,,,auto,85.0,True,0,False,-10.0,15.0,0.0,-10.0,47.82619822351577,0.03272757232996061
1760882706.5236957,3.8954250812530518,-9.987251139884942e-08,1.3848125604793006e-09,36.88385671536806,-9.037819324231235e-08,2.101364842544602e-09,12.086078797123227,0.0002861239683584103,0.006091426109322587,-1.1444530737318227e-05,,,,,,,,,,,0.0,-0.20764894600389,1.0,0.17136815356663027,0.9912437920508234,-0.6342182516977447,36.86572037001139,0.030362364081960632,-0.015505814890485614,12.086289192826806,-0.013609666764942017,-0.001148060555535403,-0.09832050057869145,,,,,,,,,,,,,,,,,auto,85.0,True,0,False,-10.0,15.0,0.0,-10.0,48.918741082377025,0.09926460550738318
1760882706.6334393,4.005168676376343,-1.1011211081327207e-07,1.6414665454609252e-09,38.21063418655585,-9.62283236323983e-08,2.5803312401644523e-09,12.093296750631405,0.00032274836531964675,0.006439062241071853,-1.2909360063773112e-05,,,,,,,,,,,0.0,-0.16153937410939698,1.0,-0.1928636036837975,0.9948540513730703,-0.6367537072784427,37.912893712316425,0.035144435427368344,-0.02963158667918699,12.094007634236904,-0.012107901689494995,0.0026958104353972116,0.09949016881498403,,,,,,,,,,,,,,,,,auto,85.0,True,0,False,-10,15.0,0.0,-10.0,49.92188850808636,0.10026047261039663
1760882706.7426302,4.114359617233276,-1.2089274029914094e-07,1.949155469323329e-09,39.52528342970839,-1.0226309094378048e-07,3.0904917994255296e-09,12.099290538175007,0.0003578173626056477,0.006792424328826779,-1.4311954819425816e-05,,,,,,,,,,,0.0,-0.1191503517054016,1.0,-0.07911610362279026,-0.2430201525105508,-0.5015467932480481,39.381325322883356,0.028790552108429502,-0.018818667295449516,12.118677747866892,-0.0068028067201675625,-0.0003473115086224699,0.04528064296886626,,,,,,,,,,,,,,,,,auto,85.0,True,0,False,-10,15.0,0.0,-10.0,51.68284534736939,0.04579012374115096
1760882706.8496604,4.2213897705078125,-1.322565800537261e-07,2.3117841826195222e-09,40.82671542356455,-1.091198743118952e-07,3.6576753323235626e-09,12.10427196676732,0.0003893193108221734,0.007151218656495156,-1.5571850397419567e-05,,,,,,,,,,,0.0,-0.12289961381881749,1.0,0.29868641909115656,-0.23940618300377645,-0.5039700757683062,40.548803900377536,0.03892299285196908,-0.02632944582988395,12.123825293233741,-0.005348034834090982,-0.004781253735055231,-0.16105560292442433,,,,,,,,,,,,,,,,,auto,85.0,True,0,False,-10,15.0,0.0,-10.0,52.798438067869654,0.16121528803812457
1760882706.9575176,4.329246997833252,-1.4440798169268583e-07,2.737871503481721e-09,42.132481652875455,-1.165607796262194e-07,4.262914848713876e-09,12.108470968621539,0.00041678712724280186,0.007520386115915951,-1.6670362946397232e-05,,,,,,,,,,,0.0,-0.34641356846464577,1.0,0.1022973972402896,1.1549842261061636,-1.0575852250994124,42.121221422094855,0.06885931534247941,-0.01426801494934633,12.119024940369272,-0.0018150832161346353,-0.004895285913978472,-0.0635910856798325,,,,,,,,,,,,,,,,,auto,85.0,True,0,False,-10,15.0,0.0,-10.0,53.939082962345196,0.06380505096934636
1760882707.0661614,4.4378907680511475,-1.575317694020618e-07,3.2368033200570744e-09,43.44819014632236,-1.2496749662488673e-07,4.915730680909994e-09,12.112022370990308,0.00043857654951565323,0.007902168888774961,-1.754172336323039e-05,,,,,,,,,,,0.0,-0.19526780633481775,1.0,0.18016170826975952,0.24833977041638564,-0.7603549102525606,43.56090084341557,0.07223343265952817,0.024121901443403256,12.102560977929949,0.0037485975624332235,0.0023771822384049037,-0.1040551602399549,,,,,,,,,,,,,,,,,auto,85.0,True,0,False,-10,15.0,0.0,-10.0,55.56041502973874,0.10414979285453407
1760882707.1742542,4.545983552932739,-1.7142141617689985e-07,3.798473223238184e-09,44.757577352222526,-1.3225001165693625e-07,5.484879229309105e-09,12.11498859499496,0.00045564258999402615,0.008291568587429443,-1.8224137768473696e-05,,,,,,,,,,,0.0,-0.19393406564444116,1.0,0.09352518337761272,-0.34616809274497556,-0.6929826705567959,44.69481352904873,0.0558023757078543,0.02913389282012051,12.131279428407016,0.0055837342013695355,0.0006759792088860046,-0.0637172091580586,,,,,,,,,,,,,,,,,auto,85.0,True,0,False,-10,15.0,0.0,-10.0,56.81115847340105,0.0639649730588091
1760882707.283746,4.655475378036499,-1.8624909068456374e-07,4.4270219991388836e-09,46.078092633398036,-1.3971578748943914e-07,6.037111625985566e-09,12.117498456564533,0.0004700124732069998,0.008693626900493795,-1.87986943002399e-05,,,,,,,,,,,0.0,0.07974109581414453,1.0,0.015719988367541852,-0.06856375200143507,0.014128799068275737,46.03596544368354,0.04567764989713928,0.03703073957098826,12.14678652965141,0.001178238642271261,-0.002414146469886658,-0.013837525604313075,,,,,,,,,,,,,,,,,auto,85.0,True,0,False,-10,15.0,0.0,-10.0,58.026642470306605,0.014095866923542777
1760882707.3916597,4.7633891105651855,-2.0177223097487084e-07,5.108602371927291e-09,47.39197296519036,-1.466606747701572e-07,6.532957595788828e-09,12.119593132707537,0.00048539010010268427,0.009102660772785655,-1.941355217290718e-05,,,,,,,,,,,0.0,-0.03125308318194013,1.0,-0.06281670167126528,0.37543011299028084,-0.122440802773187,47.35550137336644,0.026544239627172502,0.01734519454992684,12.13606419766202,0.003898298472022632,0.00017638741739165842,0.028280627306082468,,,,,,,,,,,,,,,,,auto,85.0,True,0,False,-10,15.0,0.0,-10.0,59.190764262006745,0.02854858532963631
1760882707.5010457,4.872775077819824,-2.1816169646862537e-07,5.8481104785362514e-09,48.711382024256444,-1.5546548707568723e-07,7.1025159344488626e-09,12.121357523769477,0.0004997527587893092,0.009522431791357396,-1.99878001967861e-05,,,,,,,,,,,0.0,-0.2834829911288112,1.0,0.2097140962844883,0.11688109059703286,-0.7607037563724559,48.53593571151133,0.03682653282918861,-0.0023969903386871346,12.164156697567062,0.0016374617967931464,-0.0014043555211757477,-0.11944802314593463,,,,,,,,,,,,,,,,,auto,85.0,True,0,False,-10,15.0,0.0,-10.0,60.403159423150825,0.11946750072315712
1760882707.608981,4.98071026802063,-2.3558089569619542e-07,6.652045491508055e-09,50.02618951075589,-1.6585210596213327e-07,7.72056075470983e-09,12.122832236560292,0.0005077878963785992,0.009950795301802467,-2.030894058468816e-05,,,,,,,,,,,0.0,-0.3415614237369333,1.0,0.1096876647098152,-0.6674227814092287,-1.0663144087985856,49.43101280590809,0.056218461893081176,-0.02101236094510161,12.13398654017252,0.0014535079271564297,0.0023802831519005164,-0.07150666300639574,,,,,,,,,,,,,,,,,auto,85.0,True,0,False,-10,15.0,0.0,-10.0,61.470728368597065,0.0715610319062531
1760882707.7180798,5.08980917930603,-2.5420319354226867e-07,7.523951075110052e-09,51.34884717820697,-1.7561889621819775e-07,8.259100769423117e-09,12.124076511296728,0.0005105226783022393,0.010391805712583161,-2.0418061758432996e-05,,,,,,,,,,,0.0,0.2926320499240975,1.0,0.1502622066140789,-1.7640387035915845,0.40845953207971075,51.23391679276054,0.06763210088055084,-0.012122999432702227,12.170760674592604,-0.0005030839840112602,0.0013060415882738354,-0.08301105670382211,,,,,,,,,,,,,,,,,auto,85.0,True,0,False,-10,15.0,0.0,-10.0,63.488521786442504,0.08302285452338073
1760882707.825975,5.197704315185547,-2.736388547883552e-07,8.439964317908879e-09,52.65703338736878,-1.8538754816531547e-07,8.74961589906801e-09,12.125109077760019,0.000515976108846256,0.010837617443291815,-2.0635929388018132e-05,,,,,,,,,,,0.0,0.43398072466926024,1.0,0.10392448195883379,-0.946386761938549,1.0574273023462544,52.28445478897188,0.057359062472911795,-0.03759049714888786,12.154419680236174,-0.00039211587517232324,-0.003390812187930125,-0.06262257630811169,,,,,,,,,,,,,,,,,auto,85.0,True,0,False,-10,15.0,0.0,-10.0,64.30208948098466,0.06271553575963972
1760882707.933148,5.304877281188965,-2.941264762008118e-07,9.407041412266663e-09,53.95656480576487,-1.9684197700932875e-07,9.288958529560262e-09,12.125970918084223,0.0005281131098984018,0.011290511518671689,-2.1121135436089867e-05,,,,,,,,,,,0.0,0.3376936939054296,1.0,-0.02843076518746228,-0.9394760738773119,1.0532130394576997,53.89315163420976,0.07066942614592216,-0.03978112401524408,12.156076657990713,-0.00024258071074778793,-0.0012152975057878011,0.016274177773529734,,,,,,,,,,,,,,,,,auto,85.0,True,0,False,-10,15.0,0.0,-10.0,65.85978272791607,0.016321294545263564
1760882708.0396283,5.411357641220093,-3.1568770135642147e-07,1.0423758997955126e-08,55.24778201188055,-2.0705074279435333e-07,9.756318122207351e-09,12.126691464560905,0.0005469367075134628,0.011750500568406133,-2.1873795722520907e-05,,,,,,,,,,,0.0,0.13323497541458482,1.0,0.14260409760560333,0.2236991931691016,0.7340066808598587,55.358606549769334,0.01080848644940941,-0.1284844296093731,12.099483407270622,0.0037499313429085685,0.0009237787783604846,-0.07752748611529921,,,,,,,,,,,,,,,,,auto,85.0,True,0,False,-10,15.0,0.0,-10.0,67.01212786853623,0.07762362047512206
1760882708.1475244,5.519253730773926,-3.384712419169336e-07,1.149653112960806e-08,56.55623869505561,-2.1568633062388923e-07,1.0148261219236715e-08,12.127305582508638,0.0005688548342734347,0.012225772140762894,-2.275021789454115e-05,,,,,,,,,,,0.0,0.18071140697875546,1.0,-0.11936289339748105,0.22556640634202652,0.7202428231681496,56.47801172915906,0.023066086928702937,-0.12587261647072132,12.100195444887381,0.0003122719620341618,0.00010544631668357469,0.0538922501573411,,,,,,,,,,,,,,,,,auto,85.0,True,0,False,-10,15.0,0.0,-10.0,68.10380812553687,0.05389325801735693
1760882708.2545397,5.626269102096558,-3.621210115882534e-07,1.2608617823944546e-08,57.85407498026648,-2.2665732336795082e-07,1.0653628128315651e-08,12.127817366749017,0.0005951434680324341,0.012706541720665397,-2.3801444664884596e-05,,,,,,,,,,,0.0,0.1487799009496084,1.0,-0.300455002712151,-1.048348441836415,0.5834548869440006,57.66168401155714,0.04323449489997371,-0.061206936650762,12.119301975769414,-0.0021346646221484847,0.003933305754099508,0.1783903243514779,,,,,,,,,,,,,,,,,auto,85.0,True,0,False,-10,15.0,0.0,-10.0,69.54130708144261,0.17844644997710032
1760882708.362452,5.7341814041137695,-3.8708604605331973e-07,1.3782141116695986e-08,59.16283976287931,-2.3588764530707584e-07,1.1092131981042397e-08,12.128251281655562,0.0006266682419608903,0.013200905378726422,-2.5062091550959276e-05,,,,,,,,,,,0.0,0.10767205555968411,1.0,0.003959252837334636,0.09279577846877557,0.4461583304494643,59.446289587044255,0.06259470032850473,-0.04336078516982678,12.155200270613024,-0.003948589036745926,0.004575805114543537,0.03215464854501181,,,,,,,,,,,,,,,,,auto,85.0,True,0,False,-10,15.0,0.0,-10.0,71.02964826300267,0.03271774397602352
1760882708.4713583,5.843087673187256,-4.132505350185964e-07,1.5013580985598657e-08,60.483702962526415,-2.447199259082455e-07,1.153095743006459e-08,12.128618841413305,0.0006599290331792846,0.01370897223429723,-2.639214967813788e-05,,,,,,,,,,,0.0,0.020750506233543423,1.0,-0.1769737974444741,-0.2550324906039261,0.18380356472110104,60.6188869158406,0.06313501081142825,-0.054683977423100306,12.137825328214253,-0.0015623217112223464,0.0015875458115780928,0.10758253340995194,,,,,,,,,,,,,,,,,auto,85.0,True,0,False,-10,15.0,0.0,-10.0,72.24802412019353,0.10760558835737409
1760882708.5794582,5.951187610626221,-4.4025625168258765e-07,1.6288189024981742e-08,61.79482292364017,-2.556107491696315e-07,1.208682225030495e-08,12.128924836213915,0.0006922088814498476,0.014222455514023546,-2.7682945791982536e-05,,,,,,,,,,,0.0,-0.13561302029062444,1.0,-0.0801578724297929,-0.09987685787748218,-0.3851557424219193,61.64306154963938,0.029922363489001624,-0.08260293058762981,12.106110592085159,0.0010501262434447637,0.0010803310105493265,0.05592490014465494,,,,,,,,,,,,,,,,,auto,85.0,True,0,False,-10,15.0,0.0,-10.0,73.2180503310106,0.05594519046718093
1760882708.6893055,6.061034917831421,-4.687242285553406e-07,1.7636949154275198e-08,63.12039186326447,-2.659414643477162e-07,1.2625016386518024e-08,12.129184397530555,0.0007213088805007652,0.014751122834961343,-2.8846517974155116e-05,,,,,,,,,,,0.0,-0.1800145171399494,1.0,-0.05055096768940827,-0.13233682009965328,-0.6004779135213384,62.81307698492491,-0.009514882261129717,0.0095946279552038,12.13262800938881,-0.0030428258115360067,0.0012060885404354968,0.03176141673772895,,,,,,,,,,,,,,,,,auto,85.0,True,0,False,-10,15.0,0.0,-10.0,74.37131417000894,0.031929626237624645
1760882708.7976973,6.169426679611206,-4.98230080330925e-07,1.9040285178913828e-08,64.44188323520635,-2.7555234896897874e-07,1.3128780832973207e-08,12.129401356848014,0.0007485149950977731,0.015287512249867219,-2.9934312510257125e-05,,,,,,,,,,,0.0,0.005291145468810786,1.0,-0.016588415760286093,0.47301561668606223,-0.13865458590896154,64.23644648767892,0.027761651078301797,0.02053575513871613,12.153044722770963,-0.004922596885521964,-0.0032606720735004115,0.02097047325914568,,,,,,,,,,,,,,,,,auto,85.0,True,0,False,-10,15.0,0.0,-10.0,75.64458002715897,0.02178588284143656
1760882708.905371,6.277100324630737,-5.284430804710742e-07,2.0482268342237307e-08,65.74791005954482,-2.8590750439826393e-07,1.3668654999769495e-08,12.129581282319828,0.0007767192875516051,0.015826574484137265,-3.1062015841345497e-05,,,,,,,,,,,0.0,0.23109751516155286,1.0,0.21606555993831061,0.3419328639205955,0.5802303560764717,65.05228492141102,0.06392375276111616,0.014404460658736636,12.171208332173299,-0.00033593945217476307,0.0021044684609927357,-0.10831972539707477,,,,,,,,,,,,,,,,,auto,85.0,True,0,False,-10,15.0,0.0,-10.0,76.47248571451424,0.10834068743051488
1760882709.0118835,6.383612871170044,-5.594755401017032e-07,2.1968414867694958e-08,67.03987084905332,-2.9722881108445786e-07,1.425939362955874e-08,12.129730911738497,0.0008075451963668346,0.016368784596254463,-3.2294563570028236e-05,,,,,,,,,,,0.0,0.3056521193843298,1.0,0.20655374738924512,-0.6451683339996812,0.850368740522362,66.447812363475,0.053282616711102196,-0.037696470941418224,12.176736539745754,-0.0011981673119649732,0.004821208279591345,-0.10437279798254112,,,,,,,,,,,,,,,,,auto,85.0,True,0,False,-10,15.0,0.0,-10.0,78.03692993932503,0.10449095947921523
1760882709.119215,6.4909443855285645,-5.920660167572767e-07,2.353505405297091e-08,68.34178023651582,-3.099296337109956e-07,1.4929273831532484e-08,12.129857691456397,0.0008431496584477739,0.01692450621378398,-3.371822047425203e-05,,,,,,,,,,,0.0,0.13889335789964022,1.0,-0.03683190215338796,-0.18749268710601305,0.5749524708412275,68.27759163146685,0.04976751417470049,-0.009258151194473178,12.172307300913605,0.0010960540810537028,0.0064610053096231385,0.02590032349499946,,,,,,,,,,,,,,,,,auto,85.0,True,0,False,-10,15.0,0.0,-10.0,79.73939964714629,0.026716524498991142
1760882709.227842,6.599571466445923,-6.263487504662933e-07,2.5190348789844503e-08,69.65941729840115,-3.2085586224212214e-07,1.553012162060119e-08,12.129965563893455,0.0008833593268702166,0.017496327865504088,-3.532604475292697e-05,,,,,,,,,,,0.0,0.06252650918022531,1.0,0.05499198412702282,0.5099003617552327,0.3944511621201721,69.30050819600046,0.05539780520685259,-0.035017308597817355,12.141849943330879,0.0018803011863520692,0.007533164063047642,-0.022520304925569723,,,,,,,,,,,,,,,,,auto,85.0,True,0,False,-10,15.0,0.0,-10.0,80.61444770876679,0.02382117182870795
1760882709.337844,6.709573268890381,-6.621104357836652e-07,2.6926354842377978e-08,70.98761234372958,-3.3208884624178386e-07,1.6169563476632075e-08,12.130056723595606,0.0009260943899168736,0.018081953704416,-3.703484167656571e-05,,,,,,,,,,,0.0,0.0017091994822848733,1.0,0.14502343444319826,1.0035314390297556,0.16016393398039955,70.63353559402243,0.024906693201301545,-0.040373583727893965,12.129650040481252,0.0015239845002786626,0.00965069795421308,-0.05542232956674634,,,,,,,,,,,,,,,,,auto,85.0,True,0,False,-10,15.0,0.0,-10.0,81.8394394351309,0.05627693234679363
1760882709.4450288,6.816758155822754,-6.982668581158898e-07,2.869260004078589e-08,72.28776655751454,-3.426931449381885e-07,1.6797422747679328e-08,12.130131647529193,0.0009687224101183749,0.01866406590232139,-3.87393301349995e-05,,,,,,,,,,,0.0,0.017462273148478837,1.0,0.24105749066683924,1.0065855002420716,0.15587150093118957,71.90612718692864,0.03138381898223873,-0.04010891118745362,12.128746313535832,0.0036358503633116598,0.014602858781369696,-0.10951888183964151,,,,,,,,,,,,,,,,,auto,85.0,True,0,False,-10,15.0,0.0,-10.0,83.09304192318494,0.11054794603183896
1760882709.552068,6.923797369003296,-7.357309563671247e-07,3.0535752076947335e-08,73.59230672770248,-3.5407518415725834e-07,1.7485326609484396e-08,12.130194820564176,0.0010118987105339043,0.019256950636009528,-4.0465707399643284e-05,,,,,,,,,,,0.0,0.044376536378935204,1.0,0.06270153120266904,1.010211037985206,0.151627355965896,73.53432841032955,0.034609727166508,-0.039488695018801374,12.129760347706974,-0.0005084695760869329,0.017049518889546828,-0.015497422134855554,,,,,,,,,,,,,,,,,auto,85.0,True,0,False,-10,15.0,0.0,-10.0,84.69782292964548,0.023045926505582955
1760882709.6616292,7.033358573913574,-7.752046985454783e-07,3.2493653339941504e-08,74.91503560807804,-3.6859070917156046e-07,1.8356852072469577e-08,12.13024845623034,0.0010540082698923348,0.019867591085139507,-4.214936377753344e-05,,,,,,,,,,,0.0,-0.1979320096314072,1.0,-0.04875253494063091,1.9574851381719758,-0.5795166288728543,75.16383970362533,0.051172067028368,0.01805020135891286,12.126163959954013,0.001018462243750956,0.018751342617015155,0.042259289811772134,,,,,,,,,,,,,,,,,auto,85.0,True,0,False,-10,15.0,0.0,-10.0,86.15870604012653,0.04624389355015409
1760882709.7694542,7.141183614730835,-8.175044204588656e-07,3.4614301907442683e-08,76.22925547236693,-4.574608710225695e-07,2.319887464636094e-08,12.130289567039922,0.0010896257295791272,0.02047998960791664,-4.377381609611814e-05,,,,,,,,,,,1.0,-0.9475076692406822,-1.0,-0.06415885861602935,1.8475214257479808,-1.0565527492936615,76.08014801273112,0.004260627419487282,0.009500407099583993,12.107150633610587,0.003566692831488898,0.018471575606148562,0.022969221415298877,,,,,,,,,,,,,,,,,return_to_launch,85.0,True,0,False,-10,0.0,0.0,-10.0,86.10645458398768,0.029690158900768475
1760882709.8781302,7.249859571456909,-8.767329110458327e-07,3.7644888815399113e-08,77.54139096944779,-6.33222955124622e-07,3.2558716592484124e-08,12.130319891820864,0.0010970305235487431,0.021062959871681504,-4.616339355440727e-05,,,,,,,,,,,1.0,-0.755816225634858,-1.0,0.12559955353453972,1.848159769521613,-1.0553412927283559,77.67317635248072,0.008785582970423313,0.01320645436896349,12.107013768504954,0.006584199908664356,0.015403878482876934,-0.08066327301994201,,,,,,,,,,,,,,,,,return_to_launch,85.0,True,0,False,-10,0.0,0.0,-10.0,87.6990039368236,0.08238443284408893
1760882709.987048,7.358777284622192,-9.539410979259453e-07,4.161557359983839e-08,78.86261939801281,-7.760835611795142e-07,3.9846784099590286e-08,12.130346643536853,0.0010789943157586421,0.021613075075025575,-4.9382759745480716e-05,,,,,,,,,,,1.0,-0.32408843442212915,-1.0,-0.00453374746022425,1.7318795259540485,-0.6216455123391512,78.60984661792897,0.03672251452446218,0.018509733966100974,12.131301642535911,0.008654152340448125,0.01574694437581718,-0.006975722988844142,,,,,,,,,,,,,,,,,return_to_launch,85.0,True,0,False,-10,0.0,0.0,-10.0,88.62894994012017,0.019274888355678033
1760882710.0936174,7.465346813201904,-1.0437048994752066e-06,4.620201041212429e-08,80.16146275275861,-9.012995284356041e-07,4.5774320813274085e-08,12.130369075830112,0.0010475990615324382,0.022118388546859394,-5.304773444508371e-05,,,,,,,,,,,1.0,-0.3691420040360798,-1.0,-0.26182396913866623,1.7361985915322664,-0.6193674946048489,79.87404367952432,0.044384741688787414,0.024411608043407862,12.129981905998786,0.010692257030508032,0.016647797057358586,0.13417286552853705,,,,,,,,,,,,,,,,,return_to_launch,85.0,True,0,False,-10,0.0,0.0,-10.0,89.89294593543843,0.1356238598160675
1760882710.19975,7.571479320526123,-1.1444113260679105e-06,5.127826442114625e-08,81.44889031467808,-9.840753794118452e-07,4.923803404022017e-08,12.130389318954473,0.0010066312619372256,0.022586407252847735,-5.707449054165903e-05,,,,,,,,,,,1.0,0.18871968531922326,-0.7305236133422168,0.09292940442270821,1.2427911491632184,0.0734737041130629,81.0629174748862,0.025042302525645748,0.033357641836307475,12.156012151820715,0.01179049130341859,0.01855855738570008,-0.042464189067137184,,,,,,,,,,,,,,,,,return_to_launch,85.0,True,0,False,-10,0.0,0.0,-10.0,91.07142728245545,0.04781885706020048
1760882710.3511353,7.722864627838135,-1.2996431658004724e-06,5.894101648123546e-08,83.27306176766017,-1.0813218445386627e-06,5.2608875690669184e-08,12.130413203745274,0.0009597500087596731,0.023205721481275882,-6.239460819291382e-05,,,,,,,,,,,1.0,0.10134901267582888,-0.7933906481961344,0.06751672893039926,1.2473858273299814,0.0797002022412923,83.15672918470581,0.03736890219065373,0.04859381839943143,12.155939883488369,0.014579012153816476,0.01512546444346418,-0.04035230339216322,,,,,,,,,,,,,,,,,return_to_launch,85.0,True,0,False,-10,0.0,0.0,-10.0,93.1651142644986,0.04549324849980286
1760882710.4591465,7.830875873565674,-1.4211663604221894e-06,6.478051698929117e-08,84.58928181396303,-1.1691032891303066e-06,5.539678652463261e-08,12.130426286771181,0.0009308459483993,0.02361886138116039,-6.60747284418169e-05,,,,,,,,,,,1.0,0.6852168263535583,-1.0,-0.17537906895904604,2.0916392907596904,0.7834938635303557,84.52772686132066,0.045469456699548876,0.010829519550831371,12.22567064042017,0.015143027256807395,0.02168137492102276,0.09294725266070433,,,,,,,,,,,,,,,,,return_to_launch,85.0,True,0,False,-10,0.0,0.0,-10.0,94.55411129678753,0.09663635480573124
1760882710.566364,7.938093423843384,-1.5538479981110084e-06,7.096678144078261e-08,85.89607183709522,-1.288234534007013e-06,5.919452034211471e-08,12.130435754372074,0.0009204954181890128,0.023997149425685094,-6.918081537379656e-05,,,,,,,,,,,1.0,0.6836828415535586,-0.842381655849918,-0.15537426913491767,1.276309257060963,0.9667124514810413,85.6426426840855,0.04315117480803625,0.02577125763196706,12.211316470505137,0.014268398115401858,0.021488734813994693,0.08463667593675385,,,,,,,,,,,,,,,,,return_to_launch,85.0,True,0,False,-10,0.0,0.0,-10.0,95.65604318535846,0.08848005324540034
1760882710.6755276,8.04725694656372,-1.6962758002549498e-06,7.744714263333494e-08,87.21408150437136,-1.3258501457990343e-06,5.980627770384303e-08,12.130446777851478,0.0009296309761323153,0.024354411241117625,-7.183746942682621e-05,,,,,,,,,,,1.0,0.4623964400705346,0.3731226899601405,0.07903260182415607,-0.08164904969773071,0.7835077744040299,86.69705914163276,0.031143134643832938,0.009614576415046273,12.185388694681587,0.01504339015391824,0.023667761348664176,-0.022189826288587997,,,,,,,,,,,,,,,,,return_to_launch,85.0,True,0,False,-10,0.0,0.0,-10.0,96.70026782610424,0.03576108087429737
1760882710.7831693,8.154898643493652,-1.8409374016116053e-06,8.392264604468085e-08,88.52601595738336,-1.3517542045394999e-06,6.00572340855335e-08,12.13045638343249,0.0009534814888047895,0.024709842649889364,-7.455311814829971e-05,,,,,,,,,,,1.0,0.43731691640321113,-0.4900137821402933,0.0429601974651911,0.5451502358957832,0.769571943945172,88.61851363370026,0.03996969052114228,0.030149320123503732,12.207577172252606,0.016780305959687037,0.026894913125160663,0.0003089478420797917,,,,,,,,,,,,,,,,,return_to_launch,85.0,True,0,False,-10,0.0,0.0,-10.0,98.62302297677216,0.03170190008311447
1760882710.8902957,8.262025117874146,-1.987122649865922e-06,9.037595605863955e-08,89.82550942265628,-1.375969451066765e-06,6.038427036341593e-08,12.130464430638577,0.0009779179599827654,0.02505120459906373,-7.736449486349568e-05,,,,,,,,,,,1.0,-0.2623287398402911,-0.440854056045612,-0.01795783766467311,0.5091243218275107,-0.15439314089358888,89.84473448448585,0.053544418746813024,0.014527492426171606,12.206098672571216,0.01337541994546017,0.024482649302824913,0.02907931016852746,,,,,,,,,,,,,,,,,return_to_launch,85.0,True,0,False,-10,0.0,0.0,-10.0,99.84615189928208,0.04029774504212303
1760882710.998994,8.370723485946655,-2.1375361236181284e-06,9.694275568700825e-08,91.14407151227593,-1.3912384759712667e-06,6.043930717002538e-08,12.13047163313166,0.0009935989546721144,0.02538204926763248,-8.035521996295264e-05,,,,,,,,,,,1.0,-0.13773195337179145,-0.44015114004508205,0.20257592104505123,0.5150869308689915,-0.15224290354427522,90.94504237348185,0.054944797392967835,0.024424982903000943,12.205052970116911,0.008512118099219928,0.024760012810428025,-0.10300851547898994,,,,,,,,,,,,,,,,,return_to_launch,85.0,True,0,False,-10,0.0,0.0,-10.0,100.9464713213497,0.10628390588463024
1760882711.105731,8.477460384368896,-2.286979186819954e-06,1.0340478773589896e-07,92.43884075193954,-1.4149425701631668e-06,6.088424801183169e-08,12.13047725359682,0.0010043204038444717,0.02569183666843315,-8.331311794289237e-05,,,,,,,,,,,1.0,0.010062204582375937,-0.3329410009230548,-0.01651585171052939,0.49558523485566036,-0.004742140170091447,92.23221042047722,0.021310257253277724,-0.01710500003179454,12.199069907894003,0.009466068973622762,0.019975179613878326,0.015109559293402939,,,,,,,,,,,,,,,,,return_to_launch,85.0,True,0,False,-10,0.0,0.0,-10.0,102.23341173349166,0.026775231921702246
1760882711.2145405,8.586269855499268,-2.441038870693407e-06,1.1000766778636049e-07,93.75875188163856,-1.4177299616107622e-06,6.052066213849593e-08,12.130482853938677,0.0010103686405803218,0.025992559044894024,-8.649479382514054e-05,,,,,,,,,,,1.0,-0.01593162111454068,-0.36392140008915125,0.2516667416221142,0.49836508401625007,-0.006197572282685778,93.46150618207572,0.031244085787804958,-0.009486504738637816,12.199860858182806,0.008421585132621286,0.01638288741236514,-0.12235128425124854,,,,,,,,,,,,,,,,,return_to_launch,85.0,True,0,False,-10,0.0,0.0,-10.0,103.46270665138508,0.12373018570277036
1760882711.322387,8.694116353988647,-2.5940764049904913e-06,1.1651562614814397e-07,95.06698224326466,-1.4201991165836412e-06,6.016866992412318e-08,12.130487566674157,0.0010199535028156655,0.026282094693625618,-8.960011964414272e-05,,,,,,,,,,,1.0,0.21075091641620328,-0.24249052712546673,-0.12102216171683042,0.26879071758502304,0.3176891979604456,95.00458040634138,0.0632862287935649,0.004088936874937692,12.150085312617914,0.014836058413003872,0.01446710881966673,0.06366658269706735,,,,,,,,,,,,,,,,,return_to_launch,85.0,True,0,False,-10,0.0,0.0,-10.0,105.00540500940022,0.06695401122529297
1760882711.430368,8.80209732055664,-2.7476985434322395e-06,1.2300097380743748e-07,96.37684423265479,-1.4392332962986196e-06,6.051265061162041e-08,12.130490950359434,0.00103671923318813,0.02656484112347869,-9.26861399841747e-05,,,,,,,,,,,1.0,-0.3029403848732623,-1.0,0.019011260703094706,1.2009349285454238,-0.213683296371149,96.30077834473562,0.04902273739465764,0.02669049485755803,12.178037831579148,0.012677414123184657,0.0112697943012091,-0.010266501388506408,,,,,,,,,,,,,,,,,return_to_launch,85.0,True,0,False,-10,0.0,0.0,-10.0,106.30777667673406,0.01982740888776168
1760882711.538575,8.910304307937622,-2.9056487580118583e-06,1.2961422293634524e-07,97.68321854387581,-1.4883941970527378e-06,6.207958064674384e-08,12.130492722514035,0.001041507789553889,0.02683142601945291,-9.60174832131297e-05,,,,,,,,,,,1.0,-0.5301683167003801,-0.3863731381993032,-0.06554828671955551,0.4884644407520949,-0.7022626046008199,97.54713313147907,0.03203661599630099,0.06252056810383448,12.183599607777829,0.011522591217037937,0.015594458375162188,0.043069943580981276,,,,,,,,,,,,,,,,,return_to_launch,85.0,True,0,False,-10,0.0,0.0,-10.0,107.55053516870933,0.047233222211051154
1760882711.645533,9.01726245880127,-3.068139102431764e-06,1.3636313691631172e-07,98.98690335455683,-1.536184836337314e-06,6.351824198477328e-08,12.130494158448172,0.0010240469124449519,0.02708555177380373,-9.967196587014831e-05,,,,,,,,,,,1.0,-0.6884699482745458,-0.22549568443449206,0.1564258273197148,0.3067811480177237,-0.9666113368605435,98.8476012173801,0.019321900794063505,0.048455686795809444,12.130036238543497,0.014090876284380055,0.015982138934330575,-0.06709955057462828,,,,,,,,,,,,,,,,,return_to_launch,85.0,True,0,False,-10,0.0,0.0,-10.0,108.85232539053602,0.07040121623022608
1760882711.7457764,9.1175057888031,-3.2241166934792225e-06,1.427807818969456e-07,100.2029045476082,-1.5738528928036548e-06,6.441217595803878e-08,12.13049546199015,0.0009872384991071268,0.02731710064206168,-0.00010316441669757296,,,,,,,,,,,1.0,-0.6129483903335193,-0.2689539550038349,-0.14830761747441878,0.3091563143036572,-0.9611271971404243,100.19563451746207,0.02848562794715539,0.06082698019848296,12.130582877903267,0.014725865954198303,0.019022823509525208,0.05617066757303144,,,,,,,,,,,,,,,,,return_to_launch,85.0,True,0,False,-10,0.0,0.0,-10.0,110.20025957238863,0.06110534213941992
1760882711.8538542,9.225583553314209,-3.396090531063862e-06,1.4976921535822115e-07,101.51394145383811,-1.6198882108350978e-06,6.523562223690562e-08,12.130496379474536,0.0009277728145916489,0.027557844020687637,-0.00010709752666834378,,,,,,,,,,,1.0,0.14775588386565086,-1.0,-0.2482073934441364,1.1347383220294116,-0.19137098397376676,101.45632179685941,0.010278345605611992,0.062499485945204526,12.107877735312638,0.011973719274532614,0.018796147030521064,0.11709019508334788,,,,,,,,,,,,,,,,,return_to_launch,85.0,True,0,False,-10,0.0,0.0,-10.0,111.46226232406225,0.1191921930376094
1760882711.9617462,9.333475589752197,-3.5732960485605836e-06,1.5682878069383037e-07,102.81659120333694,-1.6632813859043974e-06,6.56230136262292e-08,12.130497183114793,0.0008695266787399256,0.027777239106741382,-0.00011095536513999739,,,,,,,,,,,1.0,0.08615302102938513,-0.5610935762757812,0.07235681761382773,0.6688298537564641,0.045665891592472835,103.21131720089072,0.02532263662620424,0.015579451366431683,12.102790473262864,0.009502156098758742,0.02262035704207238,-0.050254370351754056,,,,,,,,,,,,,,,,,return_to_launch,85.0,True,0,False,-10,0.0,0.0,-10.0,113.21330205019031,0.05592381659621658
1760882712.0692546,9.440984010696411,-3.7530115085066732e-06,1.6384544995207084e-07,104.12073634436187,-1.6775230348496902e-06,6.479608247817024e-08,12.13049876678522,0.0008168726638093386,0.027980236022571794,-0.00011481242013365514,,,,,,,,,,,1.0,0.048371742955175226,-0.5365645041256006,0.00034981903861578886,0.6718733898121948,0.04767302851259139,104.15374082488624,0.0316696570175212,0.022568638719038227,12.103323892042855,0.008172482857142028,0.02336940302913951,0.01430730742709644,,,,,,,,,,,,,,,,,return_to_launch,85.0,True,0,False,-10,0.0,0.0,-10.0,114.15572798105615,0.02859401195708787
1760882712.1771703,9.54889965057373,-3.937223110692191e-06,1.7086010280238056e-07,105.43592666168814,-1.7198544993264607e-06,6.454380202510588e-08,12.130499146647363,0.0007687256329226619,0.028162729642885742,-0.00011855041650129996,,,,,,,,,,,1.0,0.15934319752461934,-0.711820446027781,-0.08477396653278554,0.9592965982984307,0.25046564523986725,105.17023096098946,0.008130341302105784,-0.010392164616478256,12.097135808312117,0.006791980267784925,0.021192743504663148,0.030918850345264804,,,,,,,,,,,,,,,,,return_to_launch,85.0,True,0,False,-10,0.0,0.0,-10.0,115.17449840398962,0.03809512672095085
1760882712.286528,9.658257484436035,-4.126624305764704e-06,1.7786804644883945e-07,106.76249182130476,-1.7306897914736925e-06,6.324937275796669e-08,12.13050048158552,0.0007291777411233024,0.028325896784842625,-0.0001221288583080664,,,,,,,,,,,1.0,-0.11459278474275561,-0.07746163589983984,-0.006104501342659063,0.2742911062787981,0.07403688319650921,106.66198139667,-0.03193326820967424,-0.030332936942514373,12.157578804458531,0.007173165018309154,0.02395698217883716,-0.008305076635344306,,,,,,,,,,,,,,,,,return_to_launch,85.0,True,0,False,-10,0.0,0.0,-10.0,116.66232734035455,0.02635081762329126
1760882712.392325,9.764054298400879,-4.3084919810466655e-06,1.8444346033849883e-07,108.04586024336203,-1.7086163188694752e-06,6.107867325485409e-08,12.130502646154165,0.0006934563970382896,0.028479006232198203,-0.00012555222994630274,,,,,,,,,,,1.0,-0.03728374715957498,-0.1842831185033057,-0.23383099222504944,0.2710195472343435,0.07116876134124549,107.94200826896743,-0.03060377536494628,-0.023256575561317994,12.157048123850508,0.007851990589478832,0.02632639104371734,0.10919112591405898,,,,,,,,,,,,,,,,,return_to_launch,85.0,True,0,False,-10,0.0,0.0,-10.0,117.94234112948901,0.1125941144109401
1760882712.501538,9.873267412185669,-4.494306004361988e-06,1.9100088999158132e-07,109.37067030322623,-1.6971382888933208e-06,5.906702913018214e-08,12.130504228438955,0.000653900262879906,0.02863233886947875,-0.00012922827766957912,,,,,,,,,,,1.0,-0.23568481716422357,-0.318360674294039,-0.07249235762283815,0.3182800244134936,-0.14730927616258585,109.21558673123494,0.00768310707968011,-0.040502533843670745,12.142791809871184,0.0066707884411400875,0.022248061315389454,0.060266049412370584,,,,,,,,,,,,,,,,,return_to_launch,85.0,True,0,False,-10,0.0,0.0,-10.0,119.21610261147352,0.06458693646933619
1760882712.6103082,9.982037544250488,-4.6785875718453155e-06,1.9732089232079295e-07,110.69010691656715,-1.691295078854532e-06,5.7126828802906174e-08,12.130505422358034,0.0006083661406414392,0.02877634707848495,-0.00013307073398145897,,,,,,,,,,,1.0,-0.1805918686907487,-0.3096137447281667,0.16067032863334446,0.31949588850488797,-0.15119928929924642,110.56207312358089,0.015279028665023045,-0.03078047081865118,12.143822735412014,0.009885965972968817,0.02364954826024961,-0.06057343238698373,,,,,,,,,,,,,,,,,return_to_launch,85.0,True,0,False,-10,0.0,0.0,-10.0,120.56259127400804,0.06577365861249519
1760882712.717777,10.089506387710571,-4.86005466807244e-06,2.0335351667274464e-07,111.99375836082747,-1.6869333529026508e-06,5.514619094219821e-08,12.130506401913227,0.0005572277717880983,0.028907845819088753,-0.00013693841520565908,,,,,,,,,,,1.0,0.4493766690951405,-0.07492445338031421,-0.11540378369298332,0.05912078015591371,0.4541843387678661,111.92691565650237,0.028440483608712347,-0.0265854053323923,12.121059534974268,0.010005223823057019,0.02909827929687743,0.070364036402469,,,,,,,,,,,,,,,,,return_to_launch,85.0,True,0,False,-10,0.0,0.0,-10.0,121.92777591749991,0.07679786442757724
1760882712.8265007,10.198230028152466,-5.043672351895766e-06,2.0924447133518389e-07,113.31263121035933,-1.6896065046314681e-06,5.318551452838456e-08,12.130507035333324,0.0005103937975303829,0.029037468651561055,-0.00014092390305456157,,,,,,,,,,,1.0,0.25518798914467355,0.28598048800132825,0.00040964414237453384,-0.41398052832692406,0.35584588481538965,113.16430316270298,0.02021473533411544,0.006320467836690186,12.134353870254571,0.009621148264182804,0.026969453344897157,0.002987265259648854,,,,,,,,,,,,,,,,,return_to_launch,85.0,True,0,False,-10,0.0,0.0,-10.0,123.16551294792622,0.028789610302598353
1760882712.935498,10.307227373123169,-5.2275227144720815e-06,2.1492388470625724e-07,114.63482431616484,-1.6826001282396314e-06,5.100187048056175e-08,12.130507901377449,0.0004719614146490398,0.029175791731168545,-0.0001449473439456151,,,,,,,,,,,1.0,0.20685851269963446,0.21871129576581028,-0.10222744205051541,-0.41164175173799433,0.35719448172958107,114.4204064050089,0.025050365011410454,0.019217135215732997,12.134964512035493,0.014320764277849481,0.01871288832203233,0.04956831403079233,,,,,,,,,,,,,,,,,return_to_launch,85.0,True,0,False,-10,0.0,0.0,-10.0,124.42160008140522,0.05488418929627937
1760882713.0422063,10.413935661315918,-5.406565217787194e-06,2.202498889687945e-07,115.92925009465887,-1.6729168862077657e-06,4.8822094399493344e-08,12.130508744507711,0.0004413077310021765,0.029318149272927183,-0.00014890673958910467,,,,,,,,,,,1.0,0.2028098886285419,0.17961763067949565,-0.10121549639992727,-0.40844563511192167,0.36012678465860054,115.97085436022896,0.035222094261258496,0.034854960697484824,12.135600957930262,0.016304534625411524,0.01597854680196334,0.0420868103612448,,,,,,,,,,,,,,,,,return_to_launch,85.0,True,0,False,-10,0.0,0.0,-10.0,125.97203129021888,0.047879551101040606
1760882713.1515102,10.523239612579346,-5.590603102724125e-06,2.2548030648591596e-07,117.24902836242362,-1.7255976024232605e-06,4.756111541097592e-08,12.130507456645065,0.00042079299622981443,0.029474339209339548,-0.0001531443106777309,,,,,,,,,,,1.0,0.548686971133304,0.6201090047293992,0.026357629581801205,-0.9381809837307066,0.6823295989675902,117.2973827124064,-0.001344990258176896,0.10798679282647537,12.199015894936645,0.012623343406183898,0.018552093473096682,-0.017993852329091786,,,,,,,,,,,,,,,,,return_to_launch,85.0,True,0,False,-10,0.0,0.0,-10.0,127.3026684821207,0.028762956952061186
1760882713.2579446,10.629673957824707,-5.778306454510083e-06,2.3050942006153324e-07,118.54626513118748,-1.7866104008381298e-06,4.654298178352666e-08,12.130506005584287,0.0004203187111485304,0.029649810359892847,-0.00015783073493970043,,,,,,,,,,,1.0,0.010330894744027125,1.0,-0.06566690209031666,-2.7256483158431135,0.2811632088531538,118.50438373131719,-0.04386504210466938,0.028903368892324532,12.191083861156045,0.006044924981492956,0.02049792761112168,0.057731875894164834,,,,,,,,,,,,,,,,,return_to_launch,85.0,True,0,False,-10,0.0,0.0,-10.0,128.5335942454629,0.06156034152473419
1760882713.3663309,10.738060235977173,-5.977314108135922e-06,2.3553526177753955e-07,119.86104538897973,-1.8847334202738142e-06,4.6218454708265025e-08,12.130503481661892,0.0004292053708030564,0.029857347577978182,-0.00016285291385883022,,,,,,,,,,,1.0,0.10722860693371708,1.0,0.04482272960091292,-2.729830742628784,0.28472282893940143,119.89983826029719,-0.03404758329251377,0.03704679218749626,12.189496776291575,0.010787971873947309,0.02253415830302153,-0.013070052733851999,,,,,,,,,,,,,,,,,return_to_launch,85.0,True,0,False,-10,0.0,0.0,-10.0,129.92883060746792,0.02819565402760476
1760882713.4747121,10.846441507339478,-6.186119138788315e-06,2.4052469282522075e-07,121.17576467664304,-1.9572771206964604e-06,4.572491337785662e-08,12.130501990698765,0.0004421756008612397,0.030098587003404106,-0.000167999567700031,,,,,,,,,,,1.0,0.6739864751841224,0.5516462064109187,0.007468174233716203,-1.1828177915346647,0.8314155292597702,120.83365587450558,-0.04399136083559646,0.07376011276147497,12.169719653299769,0.014287631304909655,0.024580918970484845,-0.001446277570470174,,,,,,,,,,,,,,,,,return_to_launch,85.0,True,0,False,-10,0.0,0.0,-10.0,130.8416440557012,0.028468398348860818
1760882713.583706,10.955435276031494,-6.400659068442963e-06,2.454512556081105e-07,122.49791381649057,-1.9753006912147085e-06,4.466192522328232e-08,12.13050233274109,0.0004730730119747652,0.030361112032090555,-0.00017355677421896864,,,,,,,,,,,1.0,0.49041277372292935,0.4173713770963676,0.05881708675938636,-0.9524677314471326,0.7080053921258721,122.3020511855027,-0.012371316720356072,0.08653617912297332,12.177226763574067,0.01344347449801496,0.023183852087572957,-0.024994109166963305,,,,,,,,,,,,,,,,,return_to_launch,85.0,True,0,False,-10,0.0,0.0,-10.0,132.3073739982247,0.03664592060853866
1760882713.691899,11.063628435134888,-6.614230696172749e-06,2.502169391741272e-07,123.80423722644348,-1.9921628277298274e-06,4.392283877099151e-08,12.130502643618247,0.0005207099269025221,0.030635063693692025,-0.0001793344692090507,,,,,,,,,,,1.0,0.4925144447855042,0.46283947595518193,-0.09888899155069944,-0.9533835524757297,0.7182289369964702,123.7832758642403,-0.004525176417447014,0.10312785556258906,12.178778320693018,0.013856009524251709,0.023188537778832622,0.05166547654898862,,,,,,,,,,,,,,,,,return_to_launch,85.0,True,0,False,-10,0.0,0.0,-10.0,133.78860076243973,0.05830110420301313
