timestamp,simulation_time,position_x,position_y,position_z,velocity_x,velocity_y,velocity_z,attitude_roll,attitude_pitch,attitude_yaw,control_throttle,control_roll,control_pitch,control_yaw,estimated_position_x,estimated_position_y,estimated_position_z,flight_mode,battery_level,setpoint_altitude,setpoint_position_x,setpoint_position_y,setpoint_position_z,position_error,attitude_error,waypoint_index,mission_complete
1761250596.8506904,0.10871648788452148,0.0,0.0,-0.0,0.0,0.0,-0.0,0.0,0.0,0.0,0.0,0.0,0.0,0.0,0.0,0.0,-0.0,manual,85.0,0.0,0.0,0.0,0.0,0.0,0.0,0,0
1761250596.9565344,0.21456050872802734,0.0,0.0,-0.0,0.0,0.0,-0.0,0.0,0.0,0.0,0.0,0.0,0.0,0.0,0.0,0.0,-0.0,manual,85.0,0.0,0.0,0.0,0.0,0.0,0.0,0,0
1761250597.0609512,0.31897735595703125,0.0,0.0,-0.0,0.0,0.0,-0.0,0.0,0.0,0.0,0.0,0.0,0.0,0.0,0.0,0.0,-0.0,manual,85.0,0.0,0.0,0.0,0.0,0.0,0.0,0,0
1761250597.1760006,0.43402671813964844,0.0,0.0,-0.0,0.0,0.0,-0.0,0.0,0.0,0.0,0.0,0.0,0.0,0.0,0.0,0.0,-0.0,manual,85.0,0.0,0.0,0.0,0.0,0.0,0.0,0,0
1761250597.2798965,0.5379226207733154,0.0,0.0,-0.0,0.0,0.0,-0.0,0.0,0.0,0.0,0.0,0.0,0.0,0.0,0.0,0.0,-0.0,manual,85.0,0.0,0.0,0.0,0.0,0.0,0.0,0,0
1761250597.384053,0.6420791149139404,0.0,0.0,-0.0,0.0,0.0,-0.0,0.0,0.0,0.0,0.0,0.0,0.0,0.0,0.0,0.0,-0.0,manual,85.0,0.0,0.0,0.0,0.0,0.0,0.0,0,0
1761250597.4892788,0.7473049163818359,0.0,0.0,-0.0,0.0,0.0,-0.0,0.0,0.0,0.0,0.0,0.0,0.0,0.0,0.0,0.0,-0.0,manual,85.0,0.0,0.0,0.0,0.0,0.0,0.0,0,0
1761250597.5908294,0.8488554954528809,0.0,0.0,-0.0,0.0,0.0,-0.0,0.0,0.0,0.0,0.0,0.0,0.0,0.0,0.0,0.0,-0.0,manual,85.0,0.0,0.0,0.0,0.0,0.0,0.0,0,0
1761250597.6939874,0.9520134925842285,0.0,0.0,-0.0,0.0,0.0,-0.0,0.0,0.0,0.0,0.0,0.0,0.0,0.0,0.0,0.0,-0.0,manual,85.0,0.0,0.0,0.0,0.0,0.0,0.0,0,0
1761250597.7999287,1.0579547882080078,0.0,0.0,-0.0,0.0,0.0,-0.0,0.0,0.0,0.0,0.0,0.0,0.0,0.0,0.0,0.0,-0.0,manual,85.0,0.0,0.0,0.0,0.0,0.0,0.0,0,0
1761250597.905087,1.1631131172180176,0.0,0.0,-0.0,0.0,0.0,-0.0,0.0,0.0,0.0,0.0,0.0,0.0,0.0,0.0,0.0,-0.0,manual,85.0,0.0,0.0,0.0,0.0,0.0,0.0,0,0
1761250598.0091078,1.2671339511871338,0.0,0.0,-0.0,0.0,0.0,-0.0,0.0,0.0,0.0,0.0,0.0,0.0,0.0,0.0,0.0,-0.0,manual,85.0,0.0,0.0,0.0,0.0,0.0,0.0,0,0
1761250598.1135507,1.3715767860412598,0.0,0.0,-0.0,0.0,0.0,-0.0,0.0,0.0,0.0,0.0,0.0,0.0,0.0,0.0,0.0,-0.0,manual,85.0,0.0,0.0,0.0,0.0,0.0,0.0,0,0
1761250598.21856,1.476586103439331,0.0,0.0,-0.0,0.0,0.0,-0.0,0.0,0.0,0.0,0.0,0.0,0.0,0.0,0.0,0.0,-0.0,manual,85.0,0.0,0.0,0.0,0.0,0.0,0.0,0,0
1761250598.3236778,1.5817039012908936,0.0,0.0,0.03963943155325856,0.0,0.0,0.9315855971857635,0.0,0.0,0.0,0.35,0.0,0.0,0.0,0.0,0.0,0.03963943155325856,stabilize,85.0,2.0,0.0,0.0,-2.0,1.9603605684467413,0.0,0,0
1761250598.4299266,1.6879527568817139,0.0,0.0,0.13129602892250747,0.0,0.0,0.8478924112725494,0.0,0.0,0.0,0.35,0.0,0.0,0.0,0.0,0.0,0.13129602892250747,stabilize,85.0,2.0,0.0,0.0,-2.0,1.8687039710774926,0.0,0,0
1761250598.5344887,1.7925148010253906,0.0,0.0,0.21978303419951306,0.0,0.0,0.821408418094223,0.0,0.0,0.0,0.35,0.0,0.0,0.0,0.0,0.0,0.21978303419951306,stabilize,85.0,2.0,0.0,0.0,-2.0,1.780216965800487,0.0,0,0
1761250598.6403298,1.8983559608459473,0.0,0.0,0.30495723316669693,0.0,0.0,0.7920074627647595,0.0,0.0,0.0,0.35,0.0,0.0,0.0,0.0,0.0,0.30495723316669693,stabilize,85.0,2.0,0.0,0.0,-2.0,1.695042766833303,0.0,0,0
1761250598.746248,2.0042741298675537,0.0,0.0,0.38608244189292346,0.0,0.0,0.7421237798666362,0.0,0.0,0.0,0.35,0.0,0.0,0.0,0.0,0.0,0.38608244189292346,stabilize,85.0,2.0,0.0,0.0,-2.0,1.6139175581070766,0.0,0,0
1761250598.8509495,2.108975648880005,0.0,0.0,0.4626846730857331,0.0,0.0,0.7158597136007557,0.0,0.0,0.0,0.35,0.0,0.0,0.0,0.0,0.0,0.4626846730857331,stabilize,85.0,2.0,0.0,0.0,-2.0,1.537315326914267,0.0,0,0
1761250598.955768,2.213794231414795,0.0,0.0,0.5348492892297361,0.0,0.0,0.6719711871380524,0.0,0.0,0.0,0.35,0.0,0.0,0.0,0.0,0.0,0.5348492892297361,stabilize,85.0,2.0,0.0,0.0,-2.0,1.465150710770264,0.0,0,0
1761250599.0647838,2.322809934616089,0.0,0.0,0.6052425573948873,0.0,0.0,0.6137658286529921,0.0,0.0,0.0,0.35,0.0,0.0,0.0,0.0,0.0,0.6052425573948873,stabilize,85.0,2.0,0.0,0.0,-2.0,1.3947574426051128,0.0,0,0
1761250599.1697366,2.427762746810913,0.0,0.0,0.669457044419127,0.0,0.0,0.5798319175013081,0.0,0.0,0.0,0.37921574859136764,0.0,0.0,0.0,0.0,0.0,0.669457044419127,stabilize,85.0,2.0,0.0,0.0,-2.0,1.330542955580873,0.0,0,0
1761250599.2747982,2.5328242778778076,0.0,0.0,0.7301048721745576,0.0,0.0,0.5446379105550997,0.0,0.0,0.0,0.35,0.0,0.0,0.0,0.0,0.0,0.7301048721745576,stabilize,85.0,2.0,0.0,0.0,-2.0,1.2698951278254424,0.0,0,0
1761250599.3784955,2.636521577835083,0.0,0.0,0.7868988585036799,0.0,0.0,0.51353694727073,0.0,0.0,0.0,0.35,0.0,0.0,0.0,0.0,0.0,0.7868988585036799,stabilize,85.0,2.0,0.0,0.0,-2.0,1.21310114149632,0.0,0,0
1761250599.4852817,2.7433078289031982,0.0,0.0,0.8422405457463877,0.0,0.0,0.5268579550145044,0.0,0.0,0.0,0.6020380721828066,0.0,0.0,0.0,0.0,0.0,0.8422405457463877,stabilize,85.0,2.0,0.0,0.0,-2.0,1.1577594542536123,0.0,0,0
1761250599.5898309,2.8478569984436035,0.0,0.0,0.8937427553234691,0.0,0.0,0.4822546281977635,0.0,0.0,0.0,0.35,0.0,0.0,0.0,0.0,0.0,0.8937427553234691,stabilize,85.0,2.0,0.0,0.0,-2.0,1.1062572446765309,0.0,0,0
1761250599.6955636,2.953589677810669,0.0,0.0,0.942381316912857,0.0,0.0,0.4399725493313416,0.0,0.0,0.0,0.35,0.0,0.0,0.0,0.0,0.0,0.942381316912857,stabilize,85.0,2.0,0.0,0.0,-2.0,1.057618683087143,0.0,0,0
1761250599.8005579,3.058583974838257,0.0,0.0,0.9879901361709079,0.0,0.0,0.4364136045844311,0.0,0.0,0.0,0.5470168615403883,0.0,0.0,0.0,0.0,0.0,0.9879901361709079,stabilize,85.0,2.0,0.0,0.0,-2.0,1.0120098638290922,0.0,0,0
1761250599.9043343,3.162360429763794,0.0,0.0,1.0309890601706142,0.0,0.0,0.402336346625629,0.0,0.0,0.0,0.35,0.0,0.0,0.0,0.0,0.0,1.0309890601706142,stabilize,85.0,2.0,0.0,0.0,-2.0,0.9690109398293858,0.0,0,0
1761250600.0095577,3.2675838470458984,0.0,0.0,1.0729314707709368,0.0,0.0,0.36898935963308965,0.0,0.0,0.0,0.35,0.0,0.0,0.0,0.0,0.0,1.0729314707709368,stabilize,85.0,2.0,0.0,0.0,-2.0,0.9270685292290632,0.0,0,0
1761250600.1147282,3.3727543354034424,0.0,0.0,1.1126991887339739,0.0,0.0,0.36788310487674714,0.0,0.0,0.0,0.35,0.0,0.0,0.0,0.0,0.0,1.1126991887339739,stabilize,85.0,2.0,0.0,0.0,-2.0,0.8873008112660261,0.0,0,0
1761250600.2242205,3.4822466373443604,0.0,0.0,1.1545964338208212,0.0,0.0,0.3673822272892412,0.0,0.0,0.0,0.35,0.0,0.0,0.0,0.0,0.0,1.1545964338208212,stabilize,85.0,2.0,0.0,0.0,-2.0,0.8454035661791788,0.0,0,0
1761250600.330703,3.5887291431427,0.0,0.0,1.1941722066028064,0.0,0.0,0.35421287628167936,0.0,0.0,0.0,0.35,0.0,0.0,0.0,0.0,0.0,1.1941722066028064,stabilize,85.0,2.0,0.0,0.0,-2.0,0.8058277933971936,0.0,0,0
1761250600.436092,3.694118022918701,0.0,0.0,1.232106712608782,0.0,0.0,0.3632581561717127,0.0,0.0,0.0,0.5380569894511,0.0,0.0,0.0,0.0,0.0,1.232106712608782,stabilize,85.0,2.0,0.0,0.0,-2.0,0.7678932873912181,0.0,0,0
1761250600.5413811,3.7994072437286377,0.0,0.0,1.2694759250286332,0.0,0.0,0.34403725847199207,0.0,0.0,0.0,0.35,0.0,0.0,0.0,0.0,0.0,1.2694759250286332,stabilize,85.0,2.0,0.0,0.0,-2.0,0.7305240749713668,0.0,0,0
1761250600.6472526,3.9052786827087402,0.0,0.0,1.3060348636693906,0.0,0.0,0.3193113631583412,0.0,0.0,0.0,0.35,0.0,0.0,0.0,0.0,0.0,1.3060348636693906,stabilize,85.0,2.0,0.0,0.0,-2.0,0.6939651363306094,0.0,0,0
1761250600.7534456,4.011471748352051,0.0,0.0,1.3414743489015566,0.0,0.0,0.3159279248686987,0.0,0.0,0.0,0.4319414386500109,0.0,0.0,0.0,0.0,0.0,1.3414743489015566,stabilize,85.0,2.0,0.0,0.0,-2.0,0.6585256510984434,0.0,0,0
1761250600.8598628,4.117888927459717,0.0,0.0,1.3746465526359497,0.0,0.0,0.3210457481495028,0.0,0.0,0.0,0.5476361696178488,0.0,0.0,0.0,0.0,0.0,1.3746465526359497,stabilize,85.0,2.0,0.0,0.0,-2.0,0.6253534473640503,0.0,0,0
1761250600.9638715,4.221897602081299,0.0,0.0,1.4062610454668076,0.0,0.0,0.32877268135744636,0.0,0.0,0.0,0.6511165264029237,0.0,0.0,0.0,0.0,0.0,1.4062610454668076,stabilize,85.0,2.0,0.0,0.0,-2.0,0.5937389545331924,0.0,0,0
1761250601.0690184,4.327044486999512,0.0,0.0,1.4368797362239245,0.0,0.0,0.2849465481781344,0.0,0.0,0.0,0.4751834519902278,0.0,0.0,0.0,0.0,0.0,1.4368797362239245,stabilize,85.0,2.0,0.0,0.0,-2.0,0.5631202637760755,0.0,0,0
1761250601.1739712,4.431997299194336,0.0,0.0,1.4663345118882756,0.0,0.0,0.25473088629910234,0.0,0.0,0.0,0.3638883981298809,0.0,0.0,0.0,0.0,0.0,1.4663345118882756,stabilize,85.0,2.0,0.0,0.0,-2.0,0.5336654881117244,0.0,0,0
1761250601.2781098,4.536135911941528,0.0,0.0,1.4953035322205204,0.0,0.0,0.2594425905065461,0.0,0.0,0.0,0.35,0.0,0.0,0.0,0.0,0.0,1.4953035322205204,stabilize,85.0,2.0,0.0,0.0,-2.0,0.5046964677794796,0.0,0,0
1761250601.3826854,4.640711545944214,0.0,0.0,1.5233926492333016,0.0,0.0,0.25208371364208026,0.0,0.0,0.0,0.41817414079330995,0.0,0.0,0.0,0.0,0.0,1.5233926492333016,stabilize,85.0,2.0,0.0,0.0,-2.0,0.47660735076669836,0.0,0,0
1761250601.4887097,4.7467358112335205,0.0,0.0,1.550448877235675,0.0,0.0,0.2770063621283536,0.0,0.0,0.0,0.6179384513612267,0.0,0.0,0.0,0.0,0.0,1.550448877235675,stabilize,85.0,2.0,0.0,0.0,-2.0,0.44955112276432496,0.0,0,0
1761250601.5956979,4.853724002838135,0.0,0.0,1.5772202534413378,0.0,0.0,0.23460368867937914,0.0,0.0,0.0,0.35,0.0,0.0,0.0,0.0,0.0,1.5772202534413378,stabilize,85.0,2.0,0.0,0.0,-2.0,0.42277974655866224,0.0,0,0
1761250601.7051005,4.9631266593933105,0.0,0.0,1.6036689537857909,0.0,0.0,0.24627196210200436,0.0,0.0,0.0,0.5374453875829781,0.0,0.0,0.0,0.0,0.0,1.6036689537857909,stabilize,85.0,2.0,0.0,0.0,-2.0,0.3963310462142091,0.0,0,0
1761250601.8096564,5.067682504653931,0.0,0.0,1.6275538878689035,0.0,0.0,0.2097339791954247,0.0,0.0,0.0,0.39191084328348913,0.0,0.0,0.0,0.0,0.0,1.6275538878689035,stabilize,85.0,2.0,0.0,0.0,-2.0,0.37244611213109646,0.0,0,0
1761250601.914675,5.172701120376587,0.0,0.0,1.6516664744167302,0.0,0.0,0.21829225255103807,0.0,0.0,0.0,0.35,0.0,0.0,0.0,0.0,0.0,1.6516664744167302,stabilize,85.0,2.0,0.0,0.0,-2.0,0.3483335255832698,0.0,0,0
1761250602.0203445,5.27837061882019,0.0,0.0,1.6747262322843688,0.0,0.0,0.20325695440550107,0.0,0.0,0.0,0.35,0.0,0.0,0.0,0.0,0.0,1.6747262322843688,stabilize,85.0,2.0,0.0,0.0,-2.0,0.3252737677156312,0.0,0,0
1761250602.1252584,5.383284568786621,0.0,0.0,1.6970495362026217,0.0,0.0,0.24823173438345006,0.0,0.0,0.0,0.6854795852998067,0.0,0.0,0.0,0.0,0.0,1.6970495362026217,stabilize,85.0,2.0,0.0,0.0,-2.0,0.30295046379737833,0.0,0,0
1761250602.230295,5.48832106590271,0.0,0.0,1.7194364835165423,0.0,0.0,0.20263392772293506,0.0,0.0,0.0,0.35,0.0,0.0,0.0,0.0,0.0,1.7194364835165423,stabilize,85.0,2.0,0.0,0.0,-2.0,0.2805635164834577,0.0,0,0
1761250602.3347287,5.59275484085083,0.0,0.0,1.7413324685245182,0.0,0.0,0.2240220691623242,0.0,0.0,0.0,0.5895390907674971,0.0,0.0,0.0,0.0,0.0,1.7413324685245182,stabilize,85.0,2.0,0.0,0.0,-2.0,0.2586675314754818,0.0,0,0
1761250602.4396858,5.697711944580078,0.0,0.0,1.7625255800090536,0.0,0.0,0.19491250363755253,0.0,0.0,0.0,0.4753612244905057,0.0,0.0,0.0,0.0,0.0,1.7625255800090536,stabilize,85.0,2.0,0.0,0.0,-2.0,0.23747441999094643,0.0,0,0
1761250602.5451915,5.803217649459839,0.0,0.0,1.783129551460596,0.0,0.0,0.18162663377565208,0.0,0.0,0.0,0.35,0.0,0.0,0.0,0.0,0.0,1.783129551460596,stabilize,85.0,2.0,0.0,0.0,-2.0,0.21687044853940396,0.0,0,0
1761250602.6518044,5.909830570220947,0.0,0.0,1.8029985222082057,0.0,0.0,0.19994063239951326,0.0,0.0,0.0,0.35,0.0,0.0,0.0,0.0,0.0,1.8029985222082057,stabilize,85.0,2.0,0.0,0.0,-2.0,0.19700147779179433,0.0,0,0
1761250602.7580469,6.016072988510132,0.0,0.0,1.8228237223717412,0.0,0.0,0.17275625484684598,0.0,0.0,0.0,0.4503167973354173,0.0,0.0,0.0,0.0,0.0,1.8228237223717412,stabilize,85.0,2.0,0.0,0.0,-2.0,0.17717627762825883,0.0,0,0
1761250602.8632605,6.121286630630493,0.0,0.0,1.841287589762503,0.0,0.0,0.15698377320462736,0.0,0.0,0.0,0.39731090342720554,0.0,0.0,0.0,0.0,0.0,1.841287589762503,stabilize,85.0,2.0,0.0,0.0,-2.0,0.15871241023749705,0.0,0,0
1761250602.9673104,6.22533655166626,0.0,0.0,1.8588648018981717,0.0,0.0,0.14796627213966376,0.0,0.0,0.0,0.35,0.0,0.0,0.0,0.0,0.0,1.8588648018981717,stabilize,85.0,2.0,0.0,0.0,-2.0,0.14113519810182829,0.0,0,0
1761250603.0735867,6.331612825393677,0.0,0.0,1.8757557545017534,0.0,0.0,0.15561587587955517,0.0,0.0,0.0,0.4897556964844045,0.0,0.0,0.0,0.0,0.0,1.8757557545017534,stabilize,85.0,2.0,0.0,0.0,-2.0,0.12424424549824664,0.0,0,0
1761250603.1829202,6.440946340560913,0.0,0.0,1.8922807570031388,0.0,0.0,0.13335907189738053,0.0,0.0,0.0,0.35,0.0,0.0,0.0,0.0,0.0,1.8922807570031388,stabilize,85.0,2.0,0.0,0.0,-2.0,0.1077192429968612,0.0,0,0
1761250603.2873251,6.545351266860962,0.0,0.0,1.9070769137802244,0.0,0.0,0.1264325438435561,0.0,0.0,0.0,0.35,0.0,0.0,0.0,0.0,0.0,1.9070769137802244,stabilize,85.0,2.0,0.0,0.0,-2.0,0.09292308621977563,0.0,0,0
1761250603.391354,6.649380207061768,0.0,0.0,1.9219647675178997,0.0,0.0,0.1618826028028539,0.0,0.0,0.0,0.35,0.0,0.0,0.0,0.0,0.0,1.9219647675178997,stabilize,85.0,2.0,0.0,0.0,-2.0,0.07803523248210031,0.0,0,0
1761250603.4966488,6.754674911499023,0.0,0.0,1.9369038645171623,0.0,0.0,0.12498526907826046,0.0,0.0,0.0,0.35,0.0,0.0,0.0,0.0,0.0,1.9369038645171623,stabilize,85.0,2.0,0.0,0.0,-2.0,0.06309613548283766,0.0,0,0
1761250603.6010413,6.859067440032959,0.0,0.0,1.9509071466996841,0.0,0.0,0.12391887586126209,0.0,0.0,0.0,0.35,0.0,0.0,0.0,0.0,0.0,1.9509071466996841,stabilize,85.0,2.0,0.0,0.0,-2.0,0.049092853300315875,0.0,0,0
1761250603.7057378,6.963763952255249,0.0,0.0,1.964373940541082,0.0,0.0,0.13415104969409797,0.0,0.0,0.0,0.35,0.0,0.0,0.0,0.0,0.0,1.964373940541082,stabilize,85.0,2.0,0.0,0.0,-2.0,0.03562605945891795,0.0,0,0
1761250603.810089,7.068115234375,0.0,0.0,1.977030459471825,0.0,0.0,0.15727673122604272,0.0,0.0,0.0,0.6737090624267216,0.0,0.0,0.0,0.0,0.0,1.977030459471825,stabilize,85.0,2.0,0.0,0.0,-2.0,0.022969540528174903,0.0,0,0
1761250603.9113276,7.169353723526001,0.0,0.0,1.9894078873677592,0.0,0.0,0.1028506680441767,0.0,0.0,0.0,0.35,0.0,0.0,0.0,0.0,0.0,1.9894078873677592,stabilize,85.0,2.0,0.0,0.0,-2.0,0.010592112632240802,0.0,0,0
1761250604.0180526,7.276078701019287,0.0,0.0,2.0015746051683676,0.0,0.0,0.1233225813807482,0.0,0.0,0.0,0.35,0.0,0.0,0.0,0.0,0.0,2.0015746051683676,stabilize,85.0,2.0,0.0,0.0,-2.0,0.0015746051683676043,0.0,0,0
1761250604.1238775,7.381903648376465,0.0,0.0,2.0129634923973536,0.0,0.0,0.10347292946729655,0.0,0.0,0.0,0.35,0.0,0.0,0.0,0.0,0.0,2.0129634923973536,stabilize,85.0,2.0,0.0,0.0,-2.0,0.012963492397353615,0.0,0,0
1761250604.228855,7.4868810176849365,0.0,0.0,2.025086170506042,0.0,0.0,0.13780606305253174,0.0,0.0,0.0,0.6308153635102376,0.0,0.0,0.0,0.0,0.0,2.025086170506042,stabilize,85.0,2.0,0.0,0.0,-2.0,0.025086170506042116,0.0,0,0
1761250604.33301,7.591036081314087,0.0,0.0,2.0364440065563905,0.0,0.0,0.10583429817896778,0.0,0.0,0.0,0.35,0.0,0.0,0.0,0.0,0.0,2.0364440065563905,stabilize,85.0,2.0,0.0,0.0,-2.0,0.03644400655639046,0.0,0,0
1761250604.4379148,7.695940971374512,0.0,0.0,2.04742668982137,0.0,0.0,0.09274712778212886,0.0,0.0,0.0,0.4393622778986852,0.0,0.0,0.0,0.0,0.0,2.04742668982137,stabilize,85.0,2.0,0.0,0.0,-2.0,0.047426689821369994,0.0,0,0
1761250604.5405004,7.7985265254974365,0.0,0.0,2.057214731523302,0.0,0.0,0.11301454540271838,0.0,0.0,0.0,0.5923348942230826,0.0,0.0,0.0,0.0,0.0,2.057214731523302,stabilize,85.0,2.0,0.0,0.0,-2.0,0.05721473152330203,0.0,0,0
1761250604.6460168,7.904042959213257,0.0,0.0,2.0673607359270654,0.0,0.0,0.07116724334515023,0.0,0.0,0.0,0.35,0.0,0.0,0.0,0.0,0.0,2.0673607359270654,stabilize,85.0,2.0,0.0,0.0,-2.0,0.06736073592706537,0.0,0,0
1761250604.747878,8.005904197692871,0.0,0.0,2.0789105031665134,0.0,0.0,0.14311329452888016,0.0,0.0,0.0,0.6481581172653034,0.0,0.0,0.0,0.0,0.0,2.0789105031665134,stabilize,85.0,2.0,0.0,0.0,-2.0,0.07891050316651338,0.0,0,0
1761250604.8554423,8.113468408584595,0.0,0.0,2.090814155051398,0.0,0.0,0.09089199392634496,0.0,0.0,0.0,0.4067108795377726,0.0,0.0,0.0,0.0,0.0,2.090814155051398,stabilize,85.0,2.0,0.0,0.0,-2.0,0.0908141550513979,0.0,0,0
1761250604.9557512,8.213777303695679,0.0,0.0,2.100835093274007,0.0,0.0,0.09741698956861752,0.0,0.0,0.0,0.44219268948113233,0.0,0.0,0.0,0.0,0.0,2.100835093274007,stabilize,85.0,2.0,0.0,0.0,-2.0,0.10083509327400719,0.0,0,0
1761250605.0616784,8.319704532623291,0.0,0.0,2.111253681647837,0.0,0.0,0.10045342140204114,0.0,0.0,0.0,0.5063563668184493,0.0,0.0,0.0,0.0,0.0,2.111253681647837,stabilize,85.0,2.0,0.0,0.0,-2.0,0.11125368164783689,0.0,0,0
1761250605.165877,8.423903226852417,0.0,0.0,2.1209008431469685,0.0,0.0,0.08621744537033545,0.0,0.0,0.0,0.35,0.0,0.0,0.0,0.0,0.0,2.1209008431469685,stabilize,85.0,2.0,0.0,0.0,-2.0,0.12090084314696847,0.0,0,0
1761250605.2726405,8.530666589736938,0.0,0.0,2.131181942124304,0.0,0.0,0.13189242941463375,0.0,0.0,0.0,0.6930426343451863,0.0,0.0,0.0,0.0,0.0,2.131181942124304,stabilize,85.0,2.0,0.0,0.0,-2.0,0.13118194212430412,0.0,0,0
1761250605.3808231,8.638849258422852,0.0,0.0,2.142351880659844,0.0,0.0,0.14963592535060988,0.0,0.0,0.0,0.35,0.0,0.0,0.0,0.0,0.0,2.142351880659844,stabilize,85.0,2.0,0.0,0.0,-2.0,0.14235188065984383,0.0,0,0
1761250605.485989,8.744015216827393,0.0,0.0,2.1534450244356527,0.0,0.0,0.08945222699429736,0.0,0.0,0.0,0.4497291859941692,0.0,0.0,0.0,0.0,0.0,2.1534450244356527,stabilize,85.0,2.0,0.0,0.0,-2.0,0.15344502443565267,0.0,0,0
1761250605.5917807,8.849806785583496,0.0,0.0,2.1629392342970033,0.0,0.0,0.06996980284128618,0.0,0.0,0.0,0.3980501577932958,0.0,0.0,0.0,0.0,0.0,2.1629392342970033,stabilize,85.0,2.0,0.0,0.0,-2.0,0.1629392342970033,0.0,0,0
1761250605.6965213,8.95454740524292,0.0,0.0,2.1714026724070736,0.0,0.0,0.07777636550915329,0.0,0.0,0.0,0.35,0.0,0.0,0.0,0.0,0.0,2.1714026724070736,stabilize,85.0,2.0,0.0,0.0,-2.0,0.17140267240707363,0.0,0,0
1761250605.8029244,9.060950517654419,0.0,0.0,2.1794239712360657,0.0,0.0,0.06251580334627355,0.0,0.0,0.0,0.35,0.0,0.0,0.0,0.0,0.0,2.1794239712360657,stabilize,85.0,2.0,0.0,0.0,-2.0,0.17942397123606568,0.0,0,0
1761250605.9096642,9.16769027709961,0.0,0.0,2.186742188377204,0.0,0.0,0.04665422391362601,0.0,0.0,0.0,0.37092039218680917,0.0,0.0,0.0,0.0,0.0,2.186742188377204,stabilize,85.0,2.0,0.0,0.0,-2.0,0.1867421883772038,0.0,0,0
1761250606.0158384,9.273864507675171,0.0,0.0,2.193775488605565,0.0,0.0,0.05543832128803925,0.0,0.0,0.0,0.4512339666170242,0.0,0.0,0.0,0.0,0.0,2.193775488605565,stabilize,85.0,2.0,0.0,0.0,-2.0,0.19377548860556493,0.0,0,0
1761250606.1207564,9.378782510757446,0.0,0.0,2.1998101426793415,0.0,0.0,0.08490224193002532,0.0,0.0,0.0,0.6439447838086994,0.0,0.0,0.0,0.0,0.0,2.1998101426793415,stabilize,85.0,2.0,0.0,0.0,-2.0,0.1998101426793415,0.0,0,0
1761250606.2273455,9.485371589660645,0.00025051403090333736,0.0,2.216185417036073,0.022194645725005728,0.0,0.5188608971570755,0.0,-0.06908766451643977,0.0,1.0,0.0,-0.3,0.0,0.00025051403090333736,0.0,2.216185417036073,auto,85.0,5,10.0,0.0,0.0,10.242385834600382,0.06908766451643977,0,0
1761250606.3317914,9.589817523956299,0.017799411439285772,0.0,2.3210810802834354,0.3298267763558557,0.0,1.2313892977837098,0.0,-0.32099207150670706,0.0,0.35,0.0,-0.3,0.0,0.017799411439285772,0.0,2.3210810802834354,auto,85.0,5,10.0,0.0,0.0,10.248499693687442,0.32099207150670706,0,0
1761250606.4375532,9.695579290390015,0.07581273403015613,0.0,2.452991259679749,0.7701013866523848,0.0,1.2276507068389602,0.0,-0.43450438204857694,0.0,0.35,0.0,-0.11637469896909225,0.0,0.07581273403015613,0.0,2.452991259679749,auto,85.0,5,10.0,0.0,0.0,10.22284984777255,0.43450438204857694,0,0
1761250606.5465372,9.804563283920288,0.18487705634331145,0.0,2.5865577272006286,1.178171176881405,0.0,1.198312449430608,0.0,-0.2748412852208408,0.0,0.35,0.0,-0.17956963659519531,0.0,0.18487705634331145,0.0,2.5865577272006286,auto,85.0,5,10.0,0.0,0.0,10.15021769595299,0.2748412852208408,0,0
1761250606.6500974,9.90812349319458,0.3226456272575782,0.0,2.7095494101563107,1.4707874564279801,0.0,1.165615704653772,0.0,-0.2411839282369441,0.0,0.35,0.0,-0.06852177703327478,0.0,0.3226456272575782,0.0,2.7095494101563107,auto,85.0,5,10.0,0.0,0.0,10.04951967318415,0.2411839282369441,0,0
1761250606.7544358,10.01246190071106,0.4893108289021625,0.0,2.8283757764196817,1.7180981767166634,0.0,1.11084658013076,0.0,-0.190411061756571,0.0,0.35,0.0,0.3,0.0,0.4893108289021625,0.0,2.8283757764196817,auto,85.0,5,10.0,0.0,0.0,9.922344382346106,0.19041106175657102,0,0
1761250606.8618014,10.119827508926392,0.67709560346021,0.0,2.944073319106953,1.791985852361125,0.0,1.0640947442349,0.0,-0.10108289723052566,0.0,0.35,0.0,-0.3,0.0,0.67709560346021,0.0,2.944073319106953,auto,85.0,5,10.0,0.0,0.0,9.776712847133151,0.10108289723052566,0,0
1761250606.9664676,10.224493741989136,0.8701487276080692,0.0,3.052666596319525,1.847044443085235,0.0,1.0014712508441888,0.0,-0.07593220061139876,0.0,0.35,0.0,-0.12385236673224584,0.0,0.8701487276080692,0.0,3.052666596319525,auto,85.0,5,10.0,0.0,0.0,9.626679469281274,0.07593220061139877,0,0
1761250607.0718307,10.329856872558594,1.0682124433990587,0.0,3.1540720745468187,1.8935100761810144,0.0,0.9291614405926875,0.0,-0.029147660140468695,0.0,0.3869212515341472,0.0,-0.23267589664849453,0.0,1.0682124433990587,0.0,3.1540720745468187,auto,85.0,5,10.0,0.0,0.0,9.472328098608466,0.02914766014046869,0,0
1761250607.178787,10.436813116073608,1.2728530213458347,0.0,3.2518242980595584,1.919155068915111,0.0,0.9135290794029661,0.0,-0.012222424396181174,0.0,0.5961081013512818,0.0,-0.21624455273640558,0.0,1.2728530213458347,0.0,3.2518242980595584,auto,85.0,5,10.0,0.0,0.0,9.313294564893944,0.012222424396181174,0,0
1761250607.2845979,10.54262399673462,1.4765931466134905,0.0,3.343068117195703,1.9256590169362355,0.0,0.8651010255699032,0.0,-0.01011178577086886,0.0,0.6084893267438514,0.0,-0.21306794324892905,0.0,1.4765931466134905,0.0,3.343068117195703,auto,85.0,5,10.0,0.0,0.0,9.155575832495002,0.01011178577086886,0,0
1761250607.388103,10.646129131317139,1.675928288645119,0.0,3.4268757479448797,1.9196061303529142,0.0,0.7766513697952253,0.0,-0.010406710761655686,0.0,0.35,0.0,-0.15676476369176756,0.0,1.675928288645119,0.0,3.4268757479448797,auto,85.0,5,10.0,0.0,0.0,9.001869097450337,0.010406710761655686,0,0
1761250607.4936264,10.751652479171753,1.8785676748617242,0.0,3.5069766571339462,1.9090813210733535,0.0,0.738346891205201,0.0,0.005677317026836396,0.0,0.35,0.0,-0.267612134756406,0.0,1.8785676748617242,0.0,3.5069766571339462,auto,85.0,5,10.0,0.0,0.0,8.84627312971306,0.005677317026836395,0,0
1761250607.5975847,10.855610847473145,2.0762858608119106,0.0,3.5805701887516705,1.8896704033722103,0.0,0.6790616778353413,0.0,-0.014776480038560628,0.0,0.35,0.0,0.27768519032626726,0.0,2.0762858608119106,0.0,3.5805701887516705,auto,85.0,5,10.0,0.0,0.0,8.695155469348803,0.014776480038560628,0,0
1761250607.702959,10.96098518371582,2.2741667367447875,0.0,3.650649667414672,1.8661158184871611,0.0,0.6506865987724307,0.0,-0.00182487500030621,0.0,0.4762288694606243,0.0,0.24565090942466597,0.0,2.2741667367447875,0.0,3.650649667414672,auto,85.0,5,10.0,0.0,0.0,8.544924961976879,0.00182487500030621,0,0
1761250607.8084085,11.066434621810913,2.4692093561279362,0.0,3.716101981902074,1.841223752537985,0.0,0.6007575750052113,0.0,-0.011461278902156882,0.0,0.35,0.0,0.3,0.0,2.4692093561279362,0.0,3.716101981902074,auto,85.0,5,10.0,0.0,0.0,8.397750988313927,0.011461278902156882,0,0
1761250607.9128215,11.170847654342651,2.6590710730533123,0.0,3.7765331177909607,1.8016517432663761,0.0,0.5542153483483919,0.0,-0.0202624152837057,0.0,0.35,0.0,0.2516902967507002,0.0,2.6590710730533123,0.0,3.7765331177909607,auto,85.0,5,10.0,0.0,0.0,8.255388537207354,0.0202624152837057,0,0
1761250608.017518,11.275544166564941,2.846106880810921,0.0,3.833405765145148,1.7689722409401134,0.0,0.5147869826790893,0.0,-0.0012581921056212687,0.0,0.35,0.0,0.21148687830970322,0.0,2.846106880810921,0.0,3.833405765145148,auto,85.0,5,10.0,0.0,0.0,8.116229821846405,0.0012581921056212687,0,0
1761250608.1222847,11.380310773849487,3.0294665448857168,0.0,3.887388642422823,1.7332716964730353,0.0,0.49160573076341435,0.0,-0.01665370093784966,0.0,0.35,0.0,0.17205762164128183,0.0,3.0294665448857168,0.0,3.887388642422823,auto,85.0,5,10.0,0.0,0.0,7.981235938506356,0.01665370093784966,0,0
1761250608.2278986,11.48592472076416,3.210626907882988,0.0,3.9378600068377185,1.6937610844991922,0.0,0.44788773495607553,0.0,-0.016149330508890218,0.0,0.35,0.0,-0.11721936951339285,0.0,3.210626907882988,0.0,3.9378600068377185,auto,85.0,5,10.0,0.0,0.0,7.848715080662215,0.016149330508890218,0,0
1761250608.3329139,11.590939998626709,3.387421411273528,0.0,3.9867994972837373,1.6583361459458483,0.0,0.44780337548287524,0.0,0.014626147338596417,0.0,0.48254184162555186,0.0,-0.0593430252633083,0.0,3.387421411273528,0.0,3.9867994972837373,auto,85.0,5,10.0,0.0,0.0,7.721448427829175,0.014626147338596417,0,0
1761250608.43987,11.697896242141724,3.563772785607467,0.0,4.033642156239088,1.6248538562035513,0.0,0.4355161774798173,0.0,0.02183656404602239,0.0,0.35,0.0,-0.21652477962190192,0.0,3.563772785607467,0.0,4.033642156239088,auto,85.0,5,10.0,0.0,0.0,7.5957415569433495,0.02183656404602239,0,0
1761250608.5434082,11.80143427848816,3.7303298545141272,0.0,4.076550476078591,1.5844451128613062,0.0,0.39521039378134126,0.0,0.016539950781492934,0.0,0.35,0.0,-0.14739335737794085,0.0,3.7303298545141272,0.0,4.076550476078591,auto,85.0,5,10.0,0.0,0.0,7.478437505068384,0.016539950781492934,0,0
1761250608.6485472,11.906573295593262,3.89563104891224,0.0,4.117661840274898,1.5483811410405688,0.0,0.3972026098858651,0.0,0.025611752168637075,0.0,0.561332493684806,0.0,0.01333558114310783,0.0,3.89563104891224,0.0,4.117661840274898,auto,85.0,5,10.0,0.0,0.0,7.363318499281444,0.025611752168637078,0,0
1761250608.7544525,12.012478590011597,4.0579774371046415,0.0,4.158096971726002,1.5058704604468875,0.0,0.36485884056025064,0.0,0.03507479225197182,0.0,0.35,0.0,-0.3,0.0,4.0579774371046415,0.0,4.158096971726002,auto,85.0,5,10.0,0.0,0.0,7.252406673941725,0.03507479225197182,0,0
1761250608.858828,12.116854190826416,4.213748380115319,0.0,4.196961051246797,1.4679549451787832,0.0,0.3739661543282632,0.0,0.04518390217574579,0.0,0.35,0.0,-0.2655143829647537,0.0,4.213748380115319,0.0,4.196961051246797,auto,85.0,5,10.0,0.0,0.0,7.148089945873703,0.04518390217574579,0,0
1761250608.9625745,12.220600605010986,4.364549985851528,0.0,4.2356455068378525,1.4303861198857617,0.0,0.3653882245350631,0.0,0.03755916239115392,0.0,0.35,0.0,-0.2552962865562227,0.0,4.364549985851528,0.0,4.2356455068378525,auto,85.0,5,10.0,0.0,0.0,7.049751039686558,0.03755916239115392,0,0
1761250609.0659137,12.323939800262451,4.5111164041152945,0.0,4.272199063289343,1.393706464623947,0.0,0.35221594935715383,0.0,0.04841409539795473,0.0,0.44573051507698247,0.0,-0.3,0.0,4.5111164041152945,0.0,4.272199063289343,auto,85.0,5,10.0,0.0,0.0,6.955539372726069,0.04841409539795473,0,0
1761250609.1743965,12.432422637939453,4.659673691003567,0.0,4.308527774467641,1.3595173402341065,0.0,0.3186537744532366,0.0,0.06149934675253194,0.0,0.35,0.0,-0.3,0.0,4.659673691003567,0.0,4.308527774467641,auto,85.0,5,10.0,0.0,0.0,6.861668650548389,0.06149934675253194,0,0
1761250609.2793317,12.537357807159424,4.8008485629486835,0.0,4.344541633998628,1.324626148921244,0.0,0.35476883689457317,0.0,0.007523603661260883,0.0,0.35,0.0,0.3,0.0,4.8008485629486835,0.0,4.344541633998628,auto,85.0,5,10.0,0.0,0.0,6.775412730966302,0.007523603661260883,0,0
1761250609.383788,12.641814231872559,4.936993438212163,0.0,4.378667759195941,1.2907064253529605,0.0,0.31586389437341383,0.0,0.017043071529077667,0.0,0.35,0.0,0.20193770256246718,0.0,4.936993438212163,0.0,4.378667759195941,auto,85.0,5,10.0,0.0,0.0,6.693785684508334,0.017043071529077667,0,0
1761250609.4898043,12.747830390930176,5.071702493494917,0.0,4.413944806622286,1.2562974341693893,0.0,0.32108533983503684,0.0,0.047508410644846316,0.0,0.35,0.0,-0.06905490174492568,0.0,5.071702493494917,0.0,4.413944806622286,auto,85.0,5,10.0,0.0,0.0,6.61596743254772,0.047508410644846316,0,0
1761250609.5951524,12.85317850112915,5.202220429924934,0.0,4.447342547248643,1.2253864098216107,0.0,0.29303475494711245,0.0,0.06383672575556672,0.0,0.35,0.0,-0.12064964751099852,0.0,5.202220429924934,0.0,4.447342547248643,auto,85.0,5,10.0,0.0,0.0,6.541983226483979,0.06383672575556672,0,0
1761250609.7011123,12.9591383934021,5.330155367161205,0.0,4.481577485287167,1.202279145589616,0.0,0.3042554090174693,0.0,0.04931890960564662,0.0,0.35,0.0,0.11166317748691412,0.0,5.330155367161205,0.0,4.481577485287167,auto,85.0,5,10.0,0.0,0.0,6.472401845643249,0.049318909605646624,0,0
1761250609.80791,13.065936088562012,5.456090108256534,0.0,4.513330938778681,1.1669421283331287,0.0,0.31570700296060755,0.0,0.04713849435071353,0.0,0.5877581050009882,0.0,0.21488631640841832,0.0,5.456090108256534,0.0,4.513330938778681,auto,85.0,5,10.0,0.0,0.0,6.40447291096004,0.04713849435071353,0,0
1761250609.9136667,13.171692848205566,5.577197563027486,0.0,4.543280585239109,1.134609551166071,0.0,0.2681921168330209,0.0,0.03871906094359477,0.0,0.4364168449343768,0.0,0.02463008835864006,0.0,5.577197563027486,0.0,4.543280585239109,auto,85.0,5,10.0,0.0,0.0,6.34055043925215,0.03871906094359477,0,0
1761250610.0183194,13.276345491409302,5.693976998187301,0.0,4.571427499504191,1.1067171985058633,0.0,0.2507263376915105,0.0,0.04158374618225663,0.0,0.35,0.0,0.16065115027313176,0.0,5.693976998187301,0.0,4.571427499504191,auto,85.0,5,10.0,0.0,0.0,6.280110148346379,0.041583746182256624,0,0
1761250610.1239607,13.381986856460571,5.808687036818473,0.0,4.600207256465963,1.078652319829075,0.0,0.2514586131355709,0.0,0.03730882879748797,0.0,0.35,0.0,0.2280818081115331,0.0,5.808687036818473,0.0,4.600207256465963,auto,85.0,5,10.0,0.0,0.0,6.223263706269855,0.037308828797487974,0,0
1761250610.2306905,13.48871660232544,5.921656055680247,0.0,4.627344007124401,1.0510448601772655,0.0,0.24015931754300504,0.0,0.03890081638927113,0.0,0.35,0.0,0.22412759567383075,0.0,5.921656055680247,0.0,4.627344007124401,auto,85.0,5,10.0,0.0,0.0,6.16807927060278,0.03890081638927113,0,0
1761250610.3328252,13.590851306915283,6.026811541461815,0.0,4.653000929742478,1.023587481345712,0.0,0.2513116452166237,0.0,0.021610217155635377,0.0,0.35,0.0,0.26363751408558944,0.0,6.026811541461815,0.0,4.653000929742478,auto,85.0,5,10.0,0.0,0.0,6.118549189084403,0.02161021715563538,0,0
1761250610.4390786,13.697104692459106,6.1337970101947255,0.0,4.678586891343079,0.999268776488789,0.0,0.22090326233450083,0.0,0.03674655941867992,0.0,0.35,0.0,0.21664948790204486,0.0,6.1337970101947255,0.0,4.678586891343079,auto,85.0,5,10.0,0.0,0.0,6.069324580068736,0.03674655941867992,0,0
1761250610.5425324,13.80055856704712,6.235038229243899,0.0,4.702399210376987,0.9748775514760998,0.0,0.22640573388643992,0.0,0.009816701562267957,0.0,0.43200439427638243,0.0,0.3,0.0,6.235038229243899,0.0,4.702399210376987,auto,85.0,5,10.0,0.0,0.0,6.023910313825151,0.009816701562267955,0,0
1761250610.6472826,13.905308723449707,6.33515338627593,0.0,4.725113175195291,0.9476674795875418,0.0,0.20106455204173498,0.0,0.011889503795509144,0.0,0.35,0.0,0.22246439411177948,0.0,6.33515338627593,0.0,4.725113175195291,auto,85.0,5,10.0,0.0,0.0,5.979782205108219,0.011889503795509144,0,0
1761250610.7520523,14.010078430175781,6.432054125979253,0.0,4.746970031794161,0.9238994982630615,0.0,0.21765295906563528,0.0,0.006134224114509996,0.0,0.35,0.0,0.3,0.0,6.432054125979253,0.0,4.746970031794161,auto,85.0,5,10.0,0.0,0.0,5.9383467600581845,0.006134224114509996,0,0
1761250610.8576806,14.1157066822052,6.528062386303085,0.0,4.768964253869605,0.8962143415539844,0.0,0.200568308933168,0.0,0.002990617776100832,0.0,0.35,0.0,0.3,0.0,6.528062386303085,0.0,4.768964253869605,auto,85.0,5,10.0,0.0,0.0,5.898929635797456,0.002990617776100832,0,0
1761250610.9591086,14.217134714126587,6.617495312303333,0.0,4.789135231931042,0.883943723885395,0.0,0.22581218789051213,0.0,-0.03667581724394571,0.0,0.35,0.0,0.3,0.0,6.617495312303333,0.0,4.789135231931042,auto,85.0,5,10.0,0.0,0.0,5.863203410424469,0.03667581724394571,0,0
1761250611.06418,14.322206020355225,6.708925425540001,0.0,4.810968541072315,0.8535649641067768,0.0,0.2169740282042922,0.0,-0.01636236455967812,0.0,0.5701042972341295,0.0,0.14795433893474239,0.0,6.708925425540001,0.0,4.810968541072315,auto,85.0,5,10.0,0.0,0.0,5.828944171789995,0.01636236455967812,0,0
1761250611.1683753,14.426401376724243,6.796922959300861,0.0,4.831101957826973,0.8310410546831958,0.0,0.1878276476795837,0.0,-0.01771291564324952,0.0,0.4864480264286921,0.0,0.03691017681106019,0.0,6.796922959300861,0.0,4.831101957826973,auto,85.0,5,10.0,0.0,0.0,5.796485888499476,0.017712915643249522,0,0
1761250611.2738144,14.531840562820435,6.883833445158481,0.0,4.849770967794093,0.8063649980208821,0.0,0.15534178571229176,0.0,-0.002248663991063045,0.0,0.3574091700636361,0.0,-0.1757221548232883,0.0,6.883833445158481,0.0,4.849770967794093,auto,85.0,5,10.0,0.0,0.0,5.764613815128583,0.0022486639910630447,0,0
1761250611.380055,14.638081073760986,6.9689727243753135,0.0,4.868573706059712,0.7846951018245473,0.0,0.17754131876516588,0.0,0.004075528571422089,0.0,0.5253308751953423,0.0,0.020364512033970297,0.0,6.9689727243753135,0.0,4.868573706059712,auto,85.0,5,10.0,0.0,0.0,5.734992264765211,0.004075528571422089,0,0
1761250611.4828572,14.740883350372314,7.048732431459194,0.0,4.8856696498096355,0.7615548984276732,0.0,0.1457984840205049,0.0,-0.009973386354062645,0.0,0.35,0.0,-0.005822203316631292,0.0,7.048732431459194,0.0,4.8856696498096355,auto,85.0,5,10.0,0.0,0.0,5.707867218864834,0.009973386354062645,0,0
1761250611.589119,14.847145080566406,7.128966344615457,0.0,4.903513683403168,0.7394204349779512,0.0,0.14150753549874787,0.0,-0.009392515055847645,0.0,0.35,0.0,-0.012093961130336003,0.0,7.128966344615457,0.0,4.903513683403168,auto,85.0,5,10.0,0.0,0.0,5.682189779800815,0.009392515055847645,0,0
1761250611.6948373,14.952863454818726,7.2064435721245,0.0,4.922366298100603,0.7177340929532675,0.0,0.17887994048566022,0.0,-0.008595887529860746,0.0,0.5530449411791393,0.0,0.041934333514028636,0.0,7.2064435721245,0.0,4.922366298100603,auto,85.0,5,10.0,0.0,0.0,5.659827514014995,0.008595887529860746,0,0
1761250611.8008456,15.058871746063232,7.281834639758503,0.0,4.93943451131986,0.6967054272871473,0.0,0.1444109245133668,0.0,-0.013906335263757029,0.0,0.35,0.0,-0.03254552265264758,0.0,7.281834639758503,0.0,4.93943451131986,auto,85.0,5,10.0,0.0,0.0,5.6379460991778245,0.013906335263757029,0,0
1761250611.905202,15.163228034973145,7.354131185333154,0.0,4.956031435039431,0.6776604381506456,0.0,0.14283958892436016,0.0,-0.0037536542809188146,0.0,0.35,0.0,-0.08402847087381338,0.0,7.354131185333154,0.0,4.956031435039431,auto,85.0,5,10.0,0.0,0.0,5.618084136921193,0.0037536542809188146,0,0
1761250612.0096707,15.267696857452393,7.424557203530087,0.0,4.971674634713453,0.6591830143920879,0.0,0.1337241038688846,0.0,0.002057946686938164,0.0,0.3789289853983127,0.0,-0.21100926119161173,0.0,7.424557203530087,0.0,4.971674634713453,auto,85.0,5,10.0,0.0,0.0,5.59914763793043,0.002057946686938164,0,0
1761250612.1143134,15.372339487075806,7.493254994112012,0.0,4.986041436173877,0.6423843292354942,0.0,0.11835657181358758,0.0,0.003094879713805055,0.0,0.35,0.0,-0.1816140344993325,0.0,7.493254994112012,0.0,4.986041436173877,auto,85.0,5,10.0,0.0,0.0,5.580714983565029,0.003094879713805055,0,0
1761250612.222541,15.480567216873169,7.562321728906334,0.0,5.001237871209628,0.6162926327299842,0.0,0.13382400241157885,0.0,0.03340734363654987,0.0,0.42923566485125514,0.0,-0.3,0.0,7.562321728906334,0.0,5.001237871209628,auto,85.0,5,10.0,0.0,0.0,5.563690825143289,0.03340734363654986,0,0
1761250612.328256,15.586282014846802,7.627580057129503,0.0,5.014363489258878,0.6076188451078105,0.0,0.11272199352971012,0.0,0.040073461345685686,0.0,0.35,0.0,-0.27199044643703274,0.0,7.627580057129503,0.0,5.014363489258878,auto,85.0,5,10.0,0.0,0.0,5.547271183901335,0.04007346134568569,0,0
1761250612.4360235,15.694049596786499,7.692546170535319,0.0,5.027059645952962,0.5886930409284062,0.0,0.13894288359202833,0.0,0.033343357024305284,0.0,0.35,0.0,-0.16380524160800686,0.0,7.692546170535319,0.0,5.027059645952962,auto,85.0,5,10.0,0.0,0.0,5.53133544987826,0.033343357024305284,0,0
1761250612.5399995,15.798025608062744,7.7531986268397075,0.0,5.03913779909224,0.5695923312643659,0.0,0.1391542294024336,0.0,0.023235671890004563,0.0,0.35,0.0,-0.3,0.0,7.7531986268397075,0.0,5.03913779909224,auto,85.0,5,10.0,0.0,0.0,5.5173386853332795,0.023235671890004566,0,0
1761250612.6429725,15.900998592376709,7.811659094972254,0.0,5.051146768999837,0.5550599221985714,0.0,0.1086380848277051,0.0,0.019658413734660738,0.0,0.35,0.0,-0.3,0.0,7.811659094972254,0.0,5.051146768999837,auto,85.0,5,10.0,0.0,0.0,5.504808770392951,0.019658413734660738,0,0
1761250612.7463543,16.004380464553833,7.869035576678336,0.0,5.062870222641589,0.542419691649135,0.0,0.09746553635072672,0.0,0.03050245887063946,0.0,0.35,0.0,-0.3,0.0,7.869035576678336,0.0,5.062870222641589,auto,85.0,5,10.0,0.0,0.0,5.49305600415411,0.03050245887063946,0,0
1761250612.8504565,16.108482599258423,7.925266161555051,0.0,5.073260735712465,0.5270667123890104,0.0,0.10479096513675946,0.0,0.028561091701832214,0.0,0.46989553497008746,0.0,-0.3,0.0,7.925266161555051,0.0,5.073260735712465,auto,85.0,5,10.0,0.0,0.0,5.4811034466529,0.028561091701832214,0,0
1761250612.954895,16.212921142578125,7.9800842977561794,0.0,5.08488707790012,0.5119520167800652,0.0,0.12127728678591812,0.0,0.011926310479664401,0.0,0.35,0.0,-0.2653510617167151,0.0,7.9800842977561794,0.0,5.08488707790012,auto,85.0,5,10.0,0.0,0.0,5.4713925137177615,0.011926310479664401,0,0
1761250613.0606065,16.31863260269165,8.034275860006565,0.0,5.096184671082363,0.49914537408078713,0.0,0.10235002412915414,0.0,0.014942810620300609,0.0,0.35,0.0,-0.3,0.0,8.034275860006565,0.0,5.096184671082363,auto,85.0,5,10.0,0.0,0.0,5.462157961495419,0.01494281062030061,0,0
1761250613.1644356,16.42246174812317,8.085973634005322,0.0,5.107311708095699,0.4844484849774214,0.0,0.12442087110098471,0.0,0.010499852110780777,0.0,0.35,0.0,-0.3,0.0,8.085973634005322,0.0,5.107311708095699,auto,85.0,5,10.0,0.0,0.0,5.454184614896547,0.010499852110780777,0,0
1761250613.2692246,16.52725076675415,8.13689691869095,0.0,5.118493176975372,0.47319777606173735,0.0,0.10280491529682786,0.0,0.01919531102859678,0.0,0.35,0.0,-0.29408618047042256,0.0,8.13689691869095,0.0,5.118493176975372,auto,85.0,5,10.0,0.0,0.0,5.447029052091306,0.01919531102859678,0,0
1761250613.3745055,16.63253164291382,8.186823769338478,0.0,5.128177729054196,0.4612330037527116,0.0,0.08732208425740544,0.0,0.033082579181781945,0.0,0.41379241110648024,0.0,-0.3,0.0,8.186823769338478,0.0,5.128177729054196,auto,85.0,5,10.0,0.0,0.0,5.439284407364941,0.033082579181781945,0,0
1761250613.4797754,16.737801551818848,8.235339054779688,0.0,5.137681666687194,0.45013990086093286,0.0,0.09946275447697656,0.0,0.026455831624020786,0.0,0.35,0.0,-0.3,0.0,8.235339054779688,0.0,5.137681666687194,auto,85.0,5,10.0,0.0,0.0,5.432292440563151,0.02645583162402079,0,0
1761250613.5848255,16.842851638793945,8.282577928167395,0.0,5.148047466861651,0.43723106000571627,0.0,0.08654704733539217,0.0,0.026599166065401237,0.0,0.35,0.0,-0.3,0.0,8.282577928167395,0.0,5.148047466861651,auto,85.0,5,10.0,0.0,0.0,5.426963358442588,0.026599166065401237,0,0
1761250613.6892774,16.947303533554077,8.328404270178538,0.0,5.157414030501034,0.42309570404353164,0.0,0.13988405698681028,0.0,0.07395456295843794,0.0,0.35,0.0,-0.20935607085914854,0.0,8.328404270178538,0.0,5.157414030501034,auto,85.0,5,10.0,0.0,0.0,5.421545145617277,0.07395456295843794,0,0
1761250613.7946253,17.052651405334473,8.371655318498036,0.0,5.168761260571899,0.4170704930701505,0.0,0.08599505720645262,0.0,0.011905032076014059,0.0,0.35,0.0,0.23709867183338662,0.0,8.371655318498036,0.0,5.168761260571899,auto,85.0,5,10.0,0.0,0.0,5.419188073001761,0.011905032076014059,0,0
1761250613.9000585,17.158084630966187,8.414524869248652,0.0,5.1775060793943295,0.4098423861914945,0.0,0.08066798821700452,0.0,0.004922007273024915,0.0,0.4265147900949581,0.0,0.3,0.0,8.414524869248652,0.0,5.1775060793943295,auto,85.0,5,10.0,0.0,0.0,5.414822304784917,0.004922007273024916,0,0
1761250614.0054293,17.263455390930176,8.456445073920694,0.0,5.185556265068102,0.40013961355420347,0.0,0.07133716537745675,0.0,-0.007993272201109822,0.0,0.35,0.0,0.3,0.0,8.456445073920694,0.0,5.185556265068102,auto,85.0,5,10.0,0.0,0.0,5.410411776196959,0.007993272201109822,0,0
1761250614.110367,17.368393182754517,8.497258226119675,0.0,5.1923976988665075,0.38945648462206794,0.0,0.06994055785783979,0.0,-0.009899627664045715,0.0,0.35,0.0,0.3,0.0,8.497258226119675,0.0,5.1923976988665075,auto,85.0,5,10.0,0.0,0.0,5.405481172121422,0.009899627664045715,0,0
1761250614.2144206,17.47244668006897,8.536686843009736,0.0,5.198350979158587,0.38002829356986495,0.0,0.06085981523220722,0.0,-0.01461480897061781,0.0,0.35,0.0,0.3,0.0,8.536686843009736,0.0,5.198350979158587,auto,85.0,5,10.0,0.0,0.0,5.400383162141354,0.014614808970617812,0,0
1761250614.3197222,17.57774829864502,8.575635884518569,0.0,5.205325342769708,0.3699976889900801,0.0,0.06883927264195393,0.0,-0.007696348801289348,0.0,0.35,0.0,0.3,0.0,8.575635884518569,0.0,5.205325342769708,auto,85.0,5,10.0,0.0,0.0,5.396686488721739,0.007696348801289348,0,0
1761250614.4264202,17.684446334838867,8.61398430366482,0.0,5.211610644042173,0.35905433647141766,0.0,0.051851148165262165,0.0,-0.002983610192927304,0.0,0.35,0.0,0.29951391539123035,0.0,8.61398430366482,0.0,5.211610644042173,auto,85.0,5,10.0,0.0,0.0,5.392765989321358,0.0029836101929273046,0,0
1761250614.5323753,17.790401458740234,8.650985108107765,0.0,5.217639045197534,0.3507497008056096,0.0,0.05380341200670347,0.0,0.000880705868758238,0.0,0.35,0.0,0.27164085359702433,0.0,8.650985108107765,0.0,5.217639045197534,auto,85.0,5,10.0,0.0,0.0,5.3892112952190745,0.000880705868758238,0,0
1761250614.636498,17.894524097442627,8.686316068041158,0.0,5.224238945459356,0.34137966218099935,0.0,0.05627303562832946,0.0,-0.004837190393430012,0.0,0.35,0.0,0.3,0.0,8.686316068041158,0.0,5.224238945459356,auto,85.0,5,10.0,0.0,0.0,5.386876463437892,0.004837190393430012,0,0
1761250614.7410233,17.999049425125122,8.720958542855016,0.0,5.2303138966223015,0.3330764423220826,0.0,0.06252055013813035,0.0,-0.0031214034846886282,0.0,0.35,0.0,0.29633889852741174,0.0,8.720958542855016,0.0,5.2303138966223015,auto,85.0,5,10.0,0.0,0.0,5.384434093411854,0.0031214034846886287,0,0
1761250614.8449411,18.102967262268066,8.754538460181589,0.0,5.2354086197251695,0.32561282141394216,0.0,0.05700807564394985,0.0,-0.006916284436099968,0.0,0.35,0.0,0.3,0.0,8.754538460181589,0.0,5.2354086197251695,auto,85.0,5,10.0,0.0,0.0,5.38151259987928,0.006916284436099969,0,0
1761250614.9499195,18.207945585250854,8.787607782347395,0.0,5.241581206325695,0.31717103262523827,0.0,0.060297484873025595,0.0,-0.006286912542230186,0.0,0.47763207576666356,0.0,0.3,0.0,8.787607782347395,0.0,5.241581206325695,auto,85.0,5,10.0,0.0,0.0,5.37996918503548,0.006286912542230185,0,0
1761250615.053287,18.311313152313232,8.819320843448304,0.0,5.248027482699731,0.30890940750873824,0.0,0.0587448987371423,0.0,-0.009501768246378557,0.0,0.35,0.0,0.3,0.0,8.819320843448304,0.0,5.248027482699731,auto,85.0,5,10.0,0.0,0.0,5.379200287206947,0.009501768246378557,0,0
1761250615.1599731,18.417999267578125,8.850990842514198,0.0,5.253766974740512,0.3028151021664167,0.0,0.08218454394754171,0.0,-0.0048968445142791375,0.0,0.35,0.0,0.3,0.0,8.850990842514198,0.0,5.253766974740512,auto,85.0,5,10.0,0.0,0.0,5.37794472534446,0.0048968445142791375,0,0
1761250615.2646282,18.52265429496765,8.881838305422015,0.0,5.259456709701759,0.29462814490317135,0.0,0.07386138358039769,0.0,-0.012824297790246138,0.0,0.35,0.0,0.3,0.0,8.881838305422015,0.0,5.259456709701759,auto,85.0,5,10.0,0.0,0.0,5.377003854978009,0.012824297790246138,0,0
1761250615.3682566,18.626282691955566,8.911366020175173,0.0,5.264783407157333,0.2863197096104827,0.0,0.04957918580442807,0.0,-0.02002192375700807,0.0,0.35,0.0,0.3,0.0,8.911366020175173,0.0,5.264783407157333,auto,85.0,5,10.0,0.0,0.0,5.376157388535832,0.020021923757008068,0,0
1761250615.4750707,18.733096837997437,8.940990557764975,0.0,5.268848727513371,0.2776713653460187,0.0,0.048258978897462515,0.0,-0.019031024466538583,0.0,0.49496188434439425,0.0,0.3,0.0,8.940990557764975,0.0,5.268848727513371,auto,85.0,5,10.0,0.0,0.0,5.374222540252887,0.019031024466538583,0,0
1761250615.5785913,18.836617469787598,8.968859524801758,0.0,5.272039834449979,0.2708613386389431,0.0,0.03196666194291689,0.0,-0.029099491747549243,0.0,0.4511433009511558,0.0,0.3,0.0,8.968859524801758,0.0,5.272039834449979,auto,85.0,5,10.0,0.0,0.0,5.371932119416571,0.029099491747549243,0,0
1761250615.6837559,18.941781997680664,8.996619733000315,0.0,5.274874758839971,0.2639956283925665,0.0,0.057181216929446874,0.0,-0.02674552526587125,0.0,0.35,0.0,0.3,0.0,8.996619733000315,0.0,5.274874758839971,auto,85.0,5,10.0,0.0,0.0,5.369457671092249,0.02674552526587125,0,0
1761250615.7885804,19.04660654067993,9.023489062276417,0.0,5.278424010871594,0.2571739956018602,0.0,0.024476010547372223,0.0,-0.03222904942310247,0.0,0.35,0.0,0.3,0.0,9.023489062276417,0.0,5.278424010871594,auto,85.0,5,10.0,0.0,0.0,5.367991584386059,0.032229049423102465,0,0
1761250615.8947396,19.15276575088501,9.050339949858026,0.0,5.2816315836782275,0.25056627952627847,0.0,0.0487863019479357,0.0,-0.019787934996927783,0.0,0.35,0.0,0.3,0.0,9.050339949858026,0.0,5.2816315836782275,auto,85.0,5,10.0,0.0,0.0,5.366328949714417,0.019787934996927783,0,0
1761250616.000921,19.258947134017944,9.07619202009738,0.0,5.284619417048826,0.2456396649225811,0.0,0.02567320422130423,0.0,-0.020322724309975962,0.0,0.35,0.0,0.3,0.0,9.07619202009738,0.0,5.284619417048826,auto,85.0,5,10.0,0.0,0.0,5.364757549673725,0.020322724309975962,0,0
1761250616.104906,19.362932205200195,9.100802632878645,0.0,5.28836097957463,0.23856518223470524,0.0,0.04690961285663742,0.0,-0.022433398866348663,0.0,0.35,0.0,0.3,0.0,9.100802632878645,0.0,5.28836097957463,auto,85.0,5,10.0,0.0,0.0,5.364263020707087,0.02243339886634866,0,0
1761250616.2095711,19.467597246170044,9.124960824686195,0.0,5.2915688166320605,0.23187667415811622,0.0,0.02970510333603492,0.0,-0.02646215020315792,0.0,0.35,0.0,0.3,0.0,9.124960824686195,0.0,5.2915688166320605,auto,85.0,5,10.0,0.0,0.0,5.3634311871680325,0.02646215020315792,0,0
1761250616.3163707,19.57439684867859,9.14900170669566,0.0,5.293752842648704,0.22589037024801972,0.0,0.02329985588445772,0.0,-0.024649514399135656,0.0,0.35,0.0,0.3,0.0,9.14900170669566,0.0,5.293752842648704,auto,85.0,5,10.0,0.0,0.0,5.361717752200141,0.024649514399135656,0,0
1761250616.42064,19.67866611480713,9.171794123492607,0.0,5.295216067266406,0.21920733843027834,0.0,0.03170558186226689,0.0,-0.026342706481156393,0.0,0.5376439790963188,0.0,0.3,0.0,9.171794123492607,0.0,5.295216067266406,auto,85.0,5,10.0,0.0,0.0,5.359593097700392,0.026342706481156393,0,0
1761250616.5251534,19.78317952156067,9.194014599831391,0.0,5.297523967457237,0.21426339803374217,0.0,0.03584803899431767,0.0,-0.026483660663032364,0.0,0.35,0.0,0.3,0.0,9.194014599831391,0.0,5.297523967457237,auto,85.0,5,10.0,0.0,0.0,5.358486040951195,0.026483660663032364,0,0
1761250616.6295354,19.887561559677124,9.215666160005892,0.0,5.2999340408084255,0.20871843784783362,0.0,0.04742908215854237,0.0,-0.026329532872963107,0.0,0.5824654019692932,0.0,0.3,0.0,9.215666160005892,0.0,5.2999340408084255,auto,85.0,5,10.0,0.0,0.0,5.35765624219022,0.026329532872963107,0,0
1761250616.736324,19.99435019493103,9.237205695542848,0.0,5.303675778967106,0.20362621425041086,0.0,0.05921398152134008,0.0,-0.022058158368788532,0.0,0.35,0.0,0.3,0.0,9.237205695542848,0.0,5.303675778967106,auto,85.0,5,10.0,0.0,0.0,5.358248960184158,0.02205815836878853,0,0
1761250616.840012,20.09803819656372,9.257475021428945,0.0,5.308240993186366,0.19687742675331873,0.0,0.06733487511434116,0.0,-0.0262237639785105,0.0,0.35,0.0,0.3,0.0,9.257475021428945,0.0,5.308240993186366,auto,85.0,5,10.0,0.0,0.0,5.359922180922603,0.0262237639785105,0,0
1761250616.946131,20.20415711402893,9.277551721814438,0.0,5.312873351054279,0.1914625507883005,0.0,0.02858283393799429,0.0,-0.028668559679369324,0.0,0.35,0.0,0.3,0.0,9.277551721814438,0.0,5.312873351054279,auto,85.0,5,10.0,0.0,0.0,5.361767876269543,0.028668559679369324,0,0
1761250617.050102,20.308128118515015,9.29696389285858,0.0,5.315564728196859,0.1865045468023816,0.0,0.03647449449222967,0.0,-0.028107449303045123,0.0,0.5013271477026141,0.0,0.3,0.0,9.29696389285858,0.0,5.315564728196859,auto,85.0,5,10.0,0.0,0.0,5.361854916686493,0.028107449303045123,0,0
1761250617.1551619,20.413187980651855,9.31591531714991,0.0,5.318585744565294,0.1816497271262282,0.0,0.05243073973185633,0.0,-0.024471109261422676,0.0,0.35,0.0,0.3,0.0,9.31591531714991,0.0,5.318585744565294,auto,85.0,5,10.0,0.0,0.0,5.362399292816908,0.024471109261422676,0,0
1761250617.2604492,20.51847529411316,9.334292053666463,0.0,5.323270586582667,0.17661944067244326,0.0,0.05247577434828385,0.0,-0.025960314447178858,0.0,0.35,0.0,0.3,0.0,9.334292053666463,0.0,5.323270586582667,auto,85.0,5,10.0,0.0,0.0,5.364734551474824,0.025960314447178855,0,0
1761250617.3662257,20.62425184249878,9.35228823415258,0.0,5.32729231315148,0.17258390874150295,0.0,0.05399795484369264,0.0,-0.025017636093460596,0.0,0.35,0.0,0.3,0.0,9.35228823415258,0.0,5.32729231315148,auto,85.0,5,10.0,0.0,0.0,5.366523448321085,0.025017636093460596,0,0
1761250617.47254,20.730566024780273,9.36991867172766,0.0,5.330847951327437,0.16812983875471105,0.0,0.06066799421484143,0.0,-0.023398564556088877,0.0,0.35,0.0,0.3,0.0,9.36991867172766,0.0,5.330847951327437,auto,85.0,5,10.0,0.0,0.0,5.367955137704614,0.023398564556088877,0,0
1761250617.578145,20.83617115020752,9.386922391146888,0.0,5.335305005814811,0.16384247069266367,0.0,0.04877049207837999,0.0,-0.02847880404054082,0.0,0.35,0.0,0.3,0.0,9.386922391146888,0.0,5.335305005814811,auto,85.0,5,10.0,0.0,0.0,5.370413732623366,0.028478804040540817,0,0
1761250617.6825845,20.940610647201538,9.403394751230872,0.0,5.338471753581491,0.15820493531107457,0.0,0.01634742556300947,0.0,-0.02940575411031931,0.0,0.35,0.0,0.3,0.0,9.403394751230872,0.0,5.338471753581491,auto,85.0,5,10.0,0.0,0.0,5.3717053611163665,0.02940575411031931,0,0
1761250617.7874765,21.04550266265869,9.419502613883761,0.0,5.3406450014848765,0.15536674925175953,0.0,0.04367266636398526,0.0,-0.026209364552537924,0.0,0.35,0.0,0.3,0.0,9.419502613883761,0.0,5.3406450014848765,auto,85.0,5,10.0,0.0,0.0,5.37210072943287,0.026209364552537924,0,0
1761250617.8929203,21.150946378707886,9.435218045154166,0.0,5.3442356725685825,0.15172893251264738,0.0,0.05631450498697633,0.0,-0.027396102119408433,0.0,0.35,0.0,0.3,0.0,9.435218045154166,0.0,5.3442356725685825,auto,85.0,5,10.0,0.0,0.0,5.373996053261861,0.027396102119408433,0,0
1761250617.9993932,21.25741934776306,9.45072251294515,0.0,5.347615950121459,0.14706439537965205,0.0,0.013800603610352222,0.0,-0.028268229185183676,0.0,0.35,0.0,0.3,0.0,9.45072251294515,0.0,5.347615950121459,auto,85.0,5,10.0,0.0,0.0,5.375751306355116,0.028268229185183673,0,0
1761250618.1047273,21.36275339126587,9.46563128332466,0.0,5.350474617468168,0.14355750440835682,0.0,0.03644492536330524,0.0,-0.025354548960652007,0.0,0.35,0.0,0.3,0.0,9.46563128332466,0.0,5.350474617468168,auto,85.0,5,10.0,0.0,0.0,5.377092946707578,0.025354548960652007,0,0
1761250618.21366,21.471686124801636,9.480600490958143,0.0,5.352564813993342,0.13891793181229195,0.0,0.02755733488091678,0.0,-0.009524277905242868,0.0,0.35,0.0,0.2942371449369863,0.0,9.480600490958143,0.0,5.352564813993342,auto,85.0,5,10.0,0.0,0.0,5.3777063826498095,0.009524277905242868,0,0
1761250618.31803,21.576056241989136,9.49434123985168,0.0,5.353888072154612,0.13607009362208103,0.0,0.00467230754875189,0.0,-0.01140734242364366,0.0,0.39092851197580386,0.0,0.3,0.0,9.49434123985168,0.0,5.353888072154612,auto,85.0,5,10.0,0.0,0.0,5.377714037662672,0.01140734242364366,0,0
1761250618.4236665,21.681692600250244,9.508006528283255,0.00022311636113426185,5.364173142559342,0.1350937576017655,0.02003701345863374,0.46710138377334676,0.06281735076678148,0.002711175140715956,0.003085590551755655,1.0,0.3,0.3,-0.009448091875086852,9.508006528283255,0.00022311636113426185,5.364173142559342,auto,85.0,20,0.0,10.0,0.0,14.804461468347649,0.06295149638454658,1,0
1761250618.5284317,21.786457777023315,9.513204843265456,0.018086433754101322,5.4697037322897275,-0.11690305490441005,0.3997438359052684,1.5077456565595961,0.30186950562948767,0.23941322497655376,0.022459121681630577,1.0,0.3,0.3,-0.07936734119967155,9.513204843265456,0.018086433754101322,5.4697037322897275,auto,85.0,20,0.0,10.0,0.0,14.834329231649047,0.3859382112066328,1,0
1761250618.6352532,21.893279314041138,9.466341358098756,0.1003600407704496,5.675397333221939,-0.7991125723689264,1.1288291102196106,2.25498546051181,0.3364253321688663,0.42522895360096874,0.03491714790343773,1.0,-0.3,-0.3,-0.09859632146517469,9.466341358098756,0.1003600407704496,5.675397333221939,auto,85.0,20,0.0,10.0,0.0,14.826483902812836,0.5433423178100685,1,0
1761250618.7409534,21.998979568481445,9.350315341400691,0.24148413587700937,5.940912770399682,-1.3111355866524619,1.4725567211784887,2.730274873916816,0.1770029230186232,0.1914340436259043,0.03611773694443125,0.35,0.3,-0.3,-0.08099888485967094,9.350315341400691,0.24148413587700937,5.940912770399682,auto,85.0,20,0.0,10.0,0.0,14.763179650721291,0.26321382702678897,1,0
1761250618.8445196,22.102545738220215,9.19959957327974,0.41016710108396365,6.247601235700306,-1.6115216482778836,1.76209758360485,3.119694277216663,0.1497696243610423,0.2431712084530864,0.030915484742552835,0.35,-0.10155368463910695,-0.3,-0.05513864467785709,9.19959957327974,0.41016710108396365,6.247601235700306,auto,85.0,20,0.0,10.0,0.0,14.684347058624878,0.28726110805093186,1,0
1761250618.9523416,22.210367679595947,9.013687091260003,0.606414691146537,6.606818523767826,-1.7576494223463093,1.8230297896870244,3.4848292783575823,-0.010173654366218777,-0.02001280123412131,0.018695455550171207,0.5229414357085256,0.3,-0.12442811245026913,-0.015002197881688144,9.013687091260003,0.606414691146537,6.606818523767826,auto,85.0,20,0.0,10.0,0.0,14.599179803668989,0.02921533013039827,1,0
1761250619.0578182,22.315844297409058,8.82941009274765,0.8013775445207469,6.990682113124605,-1.785026232827006,1.8971386780142714,3.7853522769578083,0.059531337285906274,0.1426237208160553,0.013875145735098276,0.35,-0.3,-0.3,-0.016723502242854908,8.82941009274765,0.8013775445207469,6.990682113124605,auto,85.0,20,0.0,10.0,0.0,14.54107197118292,0.15517095581208049,1,0
1761250619.1638882,22.42191433906555,8.635681718152544,1.0028153820965326,7.404404656226461,-1.8258898564341584,1.9190977288300524,3.992941295071874,0.10267928564571296,0.013567777025535653,0.010424178345943974,0.35,-0.3,0.3,-0.01360471630188748,8.635681718152544,1.0028153820965326,7.404404656226461,auto,85.0,20,0.0,10.0,0.0,14.503431942096359,0.10409507081661752,1,0
1761250619.2695029,22.527529001235962,8.440502432657297,1.2069098724303238,7.839043274752733,-1.8596377874342631,1.93518700738075,4.290271075186746,0.06457537641260461,-0.010692908578981735,0.01168477577138946,1.0,-0.07514327438638452,0.026766820422608147,-0.025627249816946005,8.440502432657297,1.2069098724303238,7.839043274752733,auto,85.0,20,0.0,10.0,0.0,14.491760237138314,0.0664894842628192,1,0
1761250619.3748827,22.632908821105957,8.245279167432436,1.4111276053878976,8.29441084004567,-1.865704277452879,1.9221736410964776,4.38784516840926,0.030612011025443704,0.033725318127463516,0.015849645926459942,0.35,0.3,-0.3,-0.04022612893236267,8.245279167432436,1.4111276053878976,8.29441084004567,auto,85.0,20,0.0,10.0,0.0,14.510362116201383,0.04822554901517093,1,0
1761250619.4797552,22.737781286239624,8.05098341087661,1.6142890669816068,8.762888010189775,-1.8571624604536596,1.9279985287792298,4.545258409154924,-0.031241457818351352,0.054983343161548986,0.01927620146312777,0.696625363272085,0.3,-0.3,-0.04874862053293888,8.05098341087661,1.6142890669816068,8.762888010189775,auto,85.0,20,0.0,10.0,0.0,14.557702016921567,0.06611178907489625,1,0
1761250619.58472,22.842746019363403,7.857716816780157,1.8153427596076954,9.243375211735312,-1.829947030382573,1.912348241182516,4.591892768524125,-0.010090003887327685,0.05734161922902292,0.01891391853377624,0.35,0.07051540780280119,-0.18474007935143139,-0.04138863259145969,7.857716816780157,1.8153427596076954,9.243375211735312,auto,85.0,20,0.0,10.0,0.0,14.634627191026722,0.06121769179375242,1,0
1761250619.6857212,22.9437472820282,7.6736090352393465,2.006826730675235,9.717551206162124,-1.8015392702506425,1.906971192854127,4.709549825282316,0.10081130673480486,0.028018473837183974,0.018872040513097765,0.35,-0.3,-0.3,-0.041579785425045826,7.6736090352393465,2.006826730675235,9.717551206162124,auto,85.0,20,0.0,10.0,0.0,14.737906770757434,0.10632078044705973,1,0
1761250619.7919056,23.04993176460266,7.484645010729505,2.20953638119444,10.222375968412297,-1.7604642793661118,1.8738329866921746,4.772425177506973,-0.030594206188039735,0.05809489662465143,0.013286496143475294,0.35,0.3,-0.1533587260397429,-0.01986213384377787,7.484645010729505,2.20953638119444,10.222375968412297,auto,85.0,20,0.0,10.0,0.0,14.873069783072504,0.06698920395015759,1,0
1761250619.8970604,23.155086517333984,7.300597198499658,2.4048107210258536,10.726543457164093,-1.7389052641936327,1.8576851832751238,4.824391988193871,-0.036255153734185266,0.025178887416197206,0.012639685103597037,0.35,0.07443018416247757,0.10522030218481832,-0.024402835412538078,7.300597198499658,2.4048107210258536,10.726543457164093,auto,85.0,20,0.0,10.0,0.0,15.034771503970875,0.045914857980015954,1,0
1761250620.006085,23.264111042022705,7.108298097942795,2.603851738228052,11.263004968008417,-1.7516735030054722,1.7729319063935853,4.9121315158391665,-0.02576817282695025,-0.04719889280886491,0.007394350708968982,0.35,0.3,-0.037929954076707545,-0.005691710199723744,7.108298097942795,2.603851738228052,11.263004968008417,auto,85.0,20,0.0,10.0,0.0,15.234375335691045,0.054280849621478174,1,0
1761250620.1120238,23.370049953460693,6.926143233360951,2.791590077784273,11.785638127519965,-1.7094797287926664,1.7688283034396035,4.937741827282532,-0.029675604364585013,0.002901078186254725,0.0018162137721848323,0.4495779346305458,-0.02581996764785513,-0.20998644186986815,0.0054840218960623705,6.926143233360951,2.791590077784273,11.785638127519965,auto,85.0,20,0.0,10.0,0.0,15.454251834643506,0.029872334718137012,1,0
1761250620.2160614,23.474087476730347,6.751254117551736,2.972713410855085,12.302348113861377,-1.6707378387072638,1.7262695245753419,4.961109878668706,-0.01796889424819632,0.042215002908751055,-0.002241540104066648,0.35,-0.10202497860028331,-0.3,0.011200009836712786,6.751254117551736,2.972713410855085,12.302348113861377,auto,85.0,20,0.0,10.0,0.0,15.694265133492674,0.04593486838042384,1,0
1761250620.322105,23.58013105392456,6.576606192197998,3.1530596145386496,12.832189108345444,-1.6240747456899376,1.6920385445998776,5.04251574230149,-0.006885817707114869,0.03383187455139732,-0.0025226677399726024,0.6898367074197032,-0.2428690793291701,-0.08649111054754939,0.005118590947847975,6.576606192197998,3.1530596145386496,12.832189108345444,auto,85.0,20,0.0,10.0,0.0,15.96237510402691,0.03461753997157223,1,0
1761250620.4229279,23.680953979492188,6.4144239478670375,3.3195466652836187,13.337951355039758,-1.5720078905619457,1.6019054560834698,5.020767568725878,-0.044953669978576596,-0.06924353605752055,-0.00598497343018545,0.39999938461672024,0.3,0.3,0.01600245141494927,6.4144239478670375,3.3195466652836187,13.337951355039758,auto,85.0,20,0.0,10.0,0.0,16.23804907277042,0.08277269862250447,1,0
1761250620.5288997,23.786925792694092,6.250077721028414,3.488601637428657,13.871244540538898,-1.5512754379380427,1.5931930003643122,5.021691406379974,-0.025513243125828578,0.006829802453185538,-0.013526663946028476,0.35,0.008527482074138268,-0.3,0.03842677140806313,6.250077721028414,3.488601637428657,13.871244540538898,auto,85.0,20,0.0,10.0,0.0,16.549114938824452,0.029673934923699706,1,0
