timestamp,simulation_time,position_x,position_y,position_z,velocity_x,velocity_y,velocity_z,attitude_roll,attitude_pitch,attitude_yaw,angular_velocity_x,angular_velocity_y,angular_velocity_z,acceleration_x,acceleration_y,acceleration_z,motor_speed_1,motor_speed_2,motor_speed_3,motor_speed_4,control_throttle,control_roll,control_pitch,control_yaw,estimated_position_x,estimated_position_y,estimated_position_z,estimated_velocity_x,estimated_velocity_y,estimated_velocity_z,estimated_attitude_roll,estimated_attitude_pitch,estimated_attitude_yaw,sensor_accel_x,sensor_accel_y,sensor_accel_z,sensor_gyro_x,sensor_gyro_y,sensor_gyro_z,sensor_gps_x,sensor_gps_y,sensor_gps_z,sensor_gps_vx,sensor_gps_vy,sensor_gps_vz,sensor_baro_altitude,sensor_mag_x,sensor_mag_y,sensor_mag_z,flight_mode,battery_level,gps_fix,waypoint_index,mission_complete,setpoint_altitude,setpoint_position_x,setpoint_position_y,setpoint_position_z,position_error,attitude_error
1760959737.523946,0.110809326171875,0.0,0.0,0.0,0.0,0.0,-3.1317326432973362,0.0,0.0,0.0,,,,,,,,,,,0.6,0.0,0.0,0.0,0.07144976400126636,-0.07872137660480935,0.975844828588407,0.04028815475926987,0.01694200942267349,-2.7607416429710807,-0.0013987104331444134,-0.00024151517288278847,-0.10217402962111494,,,,,,,,,,,,,,,,,stabilize,85.0,True,0,False,10.0,0.0,0.0,-10.0,10.976359680019659,0.10218388840453758
1760959737.6327703,0.2196335792541504,0.0,0.0,0.0,0.0,0.0,-6.174809374281101,0.0,0.0,-0.0003104821596471601,,,,,,,,,,,0.6,0.0,0.0,0.0,0.3681678412740089,-0.37813542311748166,0.06664998281817991,0.005374857419623109,0.003654071426209287,-5.809782507778622,-0.001521706300909237,0.0034143223831395765,0.017627314471753905,,,,,,,,,,,,,,,,,stabilize,85.0,True,0,False,10.0,0.0,0.0,-10.0,10.080474980581911,0.018019306393097918
1760959737.7406363,0.3274996280670166,0.0,0.0,0.0,0.0,0.0,-9.20660324171521,0.0,0.0,-0.001882318735709582,,,,,,,,,,,0.65,0.0,0.0,0.0677762317122386,0.1426534472873494,-0.9497622468919145,-0.16195890332214125,0.03822454010461882,0.044165574151809286,-8.873942645011093,0.004188698630418991,0.005232497724018648,-0.06979958020849439,,,,,,,,,,,,,,,,,stabilize,85.0,True,0,False,10.0,0.0,0.0,-10.0,9.884809100410925,0.07012065049563057
1760959737.8477776,0.43464088439941406,0.0,0.0,0.0,0.0,0.0,-12.163553731656926,0.0,0.0,-0.0021641621926441696,,,,,,,,,,,0.65,0.0,0.0,0.11838505038136321,0.14548974419540966,-0.944315826684163,-0.29903808869666004,0.015381761425974841,0.05667620247868651,-11.8409660848507,0.0015439906095098244,0.005361650504918952,-0.12388380932353868,,,,,,,,,,,,,,,,,stabilize,85.0,True,0,False,10.0,0.0,0.0,-10.0,9.74790037140052,0.12400939244932233
1760959737.954973,0.5418362617492676,0.0,0.0,0.0,0.0,0.0,-15.020884721297408,0.0,0.0,-0.00032408522413358306,,,,,,,,,,,0.65,0.0,0.0,-0.0006135368147148266,0.7690081784714875,0.08047764490960756,-0.7641031404853655,-0.008351662024024353,0.00671108112983725,-14.732960497936713,-0.004514497210015134,0.002077990979797018,0.03320731089438067,,,,,,,,,,,,,,,,,stabilize,85.0,True,0,False,10.0,0.0,0.0,-10.0,9.268205922910782,0.03357713847854527
1760959738.084145,0.6710083484649658,0.0,0.0,0.0,0.0,0.0,-18.278522909262257,0.0,0.0,0.0016658133772144658,,,,,,,,,,,0.65,0.0,0.0,-0.0005768897679219644,1.0589209076152297,0.5677452566385671,-1.9552486983398385,-0.032673181867699894,-0.00910167121148655,-17.531916554464402,-0.0027840186506306063,-0.004622962021523689,-0.023886925134020853,,,,,,,,,,,,,,,,,stabilize,85.0,True,0,False,10.0,0.0,0.0,-10.0,8.1339825221464,0.024488930765915986
1760959738.189684,0.7765471935272217,0.0,0.0,0.0,0.0,0.0,-20.83742359095553,0.0,0.0,0.00305226036601886,,,,,,,,,,,0.65,0.0,0.0,-0.1295582794177421,0.07819436642080102,0.21233844676680028,-1.020660433850323,-0.061253324834790575,0.016354713258630842,-20.263042650902893,-0.00188054757366377,-0.000743515797975841,0.13433631270975455,,,,,,,,,,,,,,,,,stabilize,85.0,True,0,False,10.0,0.0,0.0,-10.0,8.98219021281204,0.13435153213630135
1760959738.2965345,0.8833978176116943,0.0,0.0,0.0,0.0,0.0,-23.256234055764835,0.0,0.0,0.004735453324423742,,,,,,,,,,,0.65,0.0,0.0,-0.07140086792736397,0.3859286406768608,0.33358400496139373,-0.8969349878468147,-0.10379987177104884,-0.008091684377019164,-22.757556923821088,-0.002376145765331137,0.0005603149835051636,0.07358386220946213,,,,,,,,,,,,,,,,,stabilize,85.0,True,0,False,10.0,0.0,0.0,-10.0,9.11734675328016,0.07362434922795548
1760959738.4055624,0.9924256801605225,0.0,0.0,0.0,0.0,0.0,-25.56482343672646,0.0,0.0,0.007456688328500235,,,,,,,,,,,0.65,0.0,0.0,-0.18551633547355084,-0.5341202502332206,0.5090408929406894,-1.1116658117684068,-0.10022061656547986,-0.034535485738296554,-25.14238274383226,-0.006285002065047042,0.0019256184089785603,0.1930920361031948,,,,,,,,,,,,,,,,,stabilize,85.0,True,0,False,10.0,0.0,0.0,-10.0,8.918906419179518,0.19320389142999198
1760959738.5120518,1.0989151000976562,0.0,0.0,0.0,0.0,0.0,-27.660014929669092,0.0,0.0,0.005273265055921481,,,,,,,,,,,0.65,0.0,0.0,0.0007297664227700518,-0.5450080194409973,0.5043025972993543,-1.563232679893444,-0.10186195515600009,-0.05574066736122226,-27.254728119991885,-0.009822711568379041,3.499761094603643e-05,0.014685338521687592,,,,,,,,,,,,,,,,,stabilize,85.0,True,0,False,10.0,0.0,0.0,-10.0,8.469380004729734,0.017667655613716856
1760959738.6181366,1.2049999237060547,0.0,0.0,0.0,0.0,0.0,-29.589976737981626,0.0,0.0,0.0036607772863087324,,,,,,,,,,,0.65,0.0,0.0,0.00020275860082783119,-0.5930814193452272,1.5039722535197948,-1.5115032948960672,-0.03438686820534413,-0.02903624003709907,-29.311176638522888,-0.0166156883262323,0.003463037959863029,-0.024982711182352985,,,,,,,,,,,,,,,,,stabilize,85.0,True,0,False,10.0,0.0,0.0,-10.0,8.64107947086996,0.03020280762589481
1760959738.7247827,1.3116459846496582,0.0,0.0,0.0,0.0,0.0,-31.37412331414719,0.0,0.0,0.00353528987444563,,,,,,,,,,,0.65,0.0,0.0,-0.0005042328523234978,-0.49326319838855537,0.5078799211518317,-1.558791271807242,-0.025123231316431606,-0.03536368087938785,-31.116045109619456,-0.010794978140361587,0.0013716200433166123,0.006563220222315026,,,,,,,,,,,,,,,,,stabilize,85.0,True,0,False,10.0,0.0,0.0,-10.0,8.470847383238072,0.012707822562528849
1760959738.8321893,1.4190526008605957,0.0,0.0,0.0,0.0,0.0,-33.00983626867466,0.0,0.0,0.005745554524994238,,,,,,,,,,,0.65,0.0,0.0,-0.13559060789634975,-0.23549544178760928,0.5643698568209027,-1.5902174476184299,-0.013211736827701532,-0.08171618607501004,-32.82328689430342,-0.015466360942425277,0.001079986906383354,0.14014711903366764,,,,,,,,,,,,,,,,,stabilize,85.0,True,0,False,10.0,0.0,0.0,-10.0,8.431987548421324,0.14100209099852506
1760959738.9408476,1.5277109146118164,0.0,0.0,0.0,0.0,0.0,-34.52876151719952,0.0,0.0,0.004329149645795789,,,,,,,,,,,0.65,0.0,0.0,0.0015925853791619723,-0.0967900802753576,0.36616947053967136,-1.753260330246745,0.01874511319742919,-0.11096935911349436,-34.361708635436436,-0.017925779600067065,-0.0004851798166491223,-0.026901436849713065,,,,,,,,,,,,,,,,,stabilize,85.0,True,0,False,10.0,0.0,0.0,-10.0,8.255432367930648,0.03233042341671022
1760959739.0517983,1.6386616230010986,0.0,0.0,0.0,0.0,0.0,-35.91193192796414,0.0,0.0,-0.0008994383931737646,,,,,,,,,,,0.65,0.0,0.0,-0.13292162768489219,-0.09455805158629142,0.3515076169541545,-1.748333184603006,0.0236336848046673,-0.15539164635821737,-35.75964928146603,-0.017449740496148693,-0.003963464697241366,0.14006370462517592,,,,,,,,,,,,,,,,,stabilize,85.0,True,0,False,10.0,0.0,0.0,-10.0,8.25969152342995,0.1412021382597223
1760959739.15741,1.7442731857299805,0.0,0.0,0.0,0.0,0.0,-37.1210396796253,0.0,0.0,-0.00925533572629922,,,,,,,,,,,0.65,0.0,0.0,-0.071480729810133,-0.09164014352854301,0.3329300451864214,-1.5380263029654255,0.028647643852949312,-0.1925230988990596,-36.9802862644937,-0.015335340332082526,0.0015296108093602624,0.07729567690341903,,,,,,,,,,,,,,,,,stabilize,85.0,True,0,False,10.0,0.0,0.0,-10.0,8.469016423422424,0.0788170923105303
1760959739.2642443,1.8511075973510742,0.0,0.0,0.0,0.0,0.0,-38.20609833768411,0.0,0.0,-0.01948215987669899,,,,,,,,,,,0.65,0.0,0.0,0.0027424911943863036,-0.08850207352339896,0.31060464985231584,-1.7136919129761512,0.031111213801212168,-0.2270442936755102,-38.07657571713044,-0.015910361620746598,-0.0027119879433960123,-0.03592724708532567,,,,,,,,,,,,,,,,,stabilize,85.0,True,0,False,10.0,0.0,0.0,-10.0,8.29259968758921,0.039386058048985984
1760959739.3712058,1.958069086074829,0.0,0.0,0.0,0.0,0.0,-39.18568504713574,0.0,0.0,-0.029813748393097236,,,,,,,,,,,0.65,0.0,0.0,0.0023355997241273443,-0.8890318618247657,-0.6567447609657303,-1.6692061692137772,0.00504608587929224,-0.1511820226372802,-39.05164283782845,-0.01930018325105256,-0.003613697431939775,0.011482266252553289,,,,,,,,,,,,,,,,,stabilize,85.0,True,0,False,10.0,0.0,0.0,-10.0,8.403797783351367,0.02274639138299396
1760959739.477964,2.0648272037506104,0.0,0.0,0.0,0.0,0.0,-40.0599623321005,0.0,0.0,-0.03992605221096608,,,,,,,,,,,0.65,0.0,0.0,0.001317432930636617,-0.8882581873534569,-0.6746214061902888,-2.0310818524906495,0.012134007341876796,-0.1856235913397838,-39.935269695817745,-0.02082643936950769,-0.010136846694216209,-0.02024455905341257,,,,,,,,,,,,,,,,,stabilize,85.0,True,0,False,10.0,0.0,0.0,-10.0,8.046600095120578,0.03076261381906503
1760959739.5828764,2.1697397232055664,0.0,0.0,0.0,0.0,0.0,-40.83076996095211,0.0,0.0,-0.047221617268195605,,,,,,,,,,,0.65,0.0,0.0,0.0004343035642748097,-1.1878206132793319,-0.10544588861305688,-2.043947971376009,0.05564533765102058,-0.1676356189333255,-40.73397163885612,-0.016870106096549316,-0.008908378946759651,-0.01873730658394888,,,,,,,,,,,,,,,,,stabilize,85.0,True,0,False,10.0,0.0,0.0,-10.0,8.04492389814401,0.026740350655681294
1760959739.6902127,2.277076005935669,0.0,0.0,0.0,0.0,0.0,-41.52674349670791,0.0,0.0,-0.052040837752960784,,,,,,,,,,,0.65,0.0,0.0,-0.0011043587305050405,-1.1813331231441135,-0.12484627386120635,-1.946566412212496,0.0648578764337109,-0.19662435688811802,-41.4382653239308,-0.014915627610184605,-0.0025820751814887915,-0.043689468956999225,,,,,,,,,,,,,,,,,stabilize,85.0,True,0,False,10.0,0.0,0.0,-10.0,8.140572897090129,0.04623756867519269
1760959739.7978013,2.384664535522461,0.0,0.0,0.0,0.0,0.0,-42.14938573158376,0.0,0.0,-0.052068024724240006,,,,,,,,,,,0.65,0.0,0.0,-0.0032046412100639834,-1.3306986344556107,0.36428405604415887,-1.8768154538966197,0.014387005244892408,-0.13210148819053869,-42.08427551056814,-0.012177965396658266,-0.006957262265487057,0.01870526393087485,,,,,,,,,,,,,,,,,stabilize,85.0,True,0,False,10.0,0.0,0.0,-10.0,8.239513875179941,0.023379333569558045
1760959739.9049783,2.4918415546417236,0.0,0.0,0.0,0.0,0.0,-42.69906852807597,0.0,0.0,-0.04886906734584572,,,,,,,,,,,0.65,0.0,0.0,-0.003647937521850859,-0.38547964157415887,-0.6376522335648928,-2.240981535265875,0.02685198652335383,-0.0959813923904719,-42.652230645759516,-0.01080424413807726,-0.006274113966922609,0.04648875287120376,,,,,,,,,,,,,,,,,stabilize,85.0,True,0,False,10.0,0.0,0.0,-10.0,7.794713751070243,0.04813834584803436
1760959740.0115144,2.5983777046203613,0.0,0.0,0.0,0.0,0.0,-43.184909670722945,0.0,0.0,-0.04441624049985042,,,,,,,,,,,0.65,0.0,0.0,-0.003393057957988643,-0.3819973786837711,-0.6487126011648086,-2.1746076272720467,0.035976950205361714,-0.11067665316067973,-43.14290914430156,-0.009573792755826692,-0.004149530575037439,0.027068736902258642,,,,,,,,,,,,,,,,,stabilize,85.0,True,0,False,10.0,0.0,0.0,-10.0,7.861521215603257,0.029010215945566298
1760959740.1213007,2.7081639766693115,0.0,0.0,0.0,0.0,0.0,-43.62068938438671,0.0,0.0,-0.03818985188207757,,,,,,,,,,,0.65,0.0,0.0,0.1196312689257823,-0.37787387938889677,-0.6614762387768166,-2.4685087534839334,0.03968385043247505,-0.12296704597971903,-43.58312504328889,-0.00449938936965475,-0.003187893833317832,-0.1275890777289058,,,,,,,,,,,,,,,,,stabilize,85.0,True,0,False,10.0,0.0,0.0,-10.0,7.569920731390711,0.12770818269596132
1760959740.2285373,2.8154006004333496,0.0,0.0,0.0,0.0,0.0,-44.003707059123116,0.0,0.0,-0.03006321058008011,,,,,,,,,,,0.65,0.0,0.0,-0.09211986323430515,-0.28565047543417255,-0.05482181518129414,-2.1698447912591936,0.03802497126926997,-0.10932771974090669,-43.882930340605675,-0.00010895592489892914,-0.008006296071855297,0.09174068408756979,,,,,,,,,,,,,,,,,stabilize,85.0,True,0,False,10.0,0.0,0.0,-10.0,7.83555564197628,0.09208944437360374
1760959740.3384273,2.925290584564209,0.0,0.0,0.0,0.0,0.0,-44.34396612361618,0.0,0.0,-0.018188261490352242,,,,,,,,,,,0.65,0.0,0.0,-0.07095586881734126,-1.4108121138241023,0.38679154085445383,-2.23167479086746,0.01243542672406981,-0.04761931958861527,-44.2124812939488,0.0038745266566613265,-0.01184424250991049,0.06887632694966801,,,,,,,,,,,,,,,,,stabilize,85.0,True,0,False,10.0,0.0,0.0,-10.0,7.904864013468765,0.06999461730393498
1760959740.4484332,3.0352964401245117,0.0,0.0,0.0,0.0,0.0,-44.645814746810764,0.0,0.0,-0.004848628122981248,,,,,,,,,,,0.65,0.0,0.0,-0.0038406897038709754,-0.9515244943958668,-0.20399503055230098,-2.103718848156804,0.006026266209012862,-0.00865227875709844,-44.570213011662574,0.006553536785751994,-0.01348003138325771,-0.008746237104563223,,,,,,,,,,,,,,,,,stabilize,85.0,True,0,False,10.0,0.0,0.0,-10.0,7.95602091908257,0.01735386855963407
1760959740.5565677,3.1434309482574463,0.0,0.0,0.0,0.0,0.0,-44.905016228229215,0.0,0.0,0.008120810865039794,,,,,,,,,,,0.65,0.0,0.0,-0.003613297260331832,0.1990748750060124,-0.5198073702931952,-2.2667511176690103,-0.0201267576937187,-0.04389325617234047,-44.91225822998764,0.009690551252815866,-0.013647929174295739,-0.036838349084204546,,,,,,,,,,,,,,,,,stabilize,85.0,True,0,False,10.0,0.0,0.0,-10.0,7.7532553668857895,0.040462781881375365
1760959740.6665375,3.2534008026123047,0.0,0.0,0.0,0.0,0.0,-45.13533488702491,0.0,0.0,0.021859486019942465,,,,,,,,,,,0.65,0.0,0.0,0.083006595170288,-0.17363492451219653,0.143452449835269,-2.2609923700333434,0.0015826922280635656,-0.030510151979655578,-45.133259814771016,0.014104502673134012,-0.013391048350760005,-0.08955102895958328,,,,,,,,,,,,,,,,,stabilize,85.0,True,0,False,10.0,0.0,0.0,-10.0,7.742284339202237,0.09163865974199405
1760959740.7753098,3.362173080444336,0.0,0.0,0.0,0.0,0.0,-45.33722639431697,0.0,0.0,0.033099519585484655,,,,,,,,,,,0.65,0.0,0.0,-0.04990686790693174,-0.17256886491258988,0.14114421317292286,-2.1575177257492815,0.01666447234342003,-0.011564041832165878,-45.3370512955868,0.013447690886122958,-0.00878402347849515,0.05155840086771461,,,,,,,,,,,,,,,,,stabilize,85.0,True,0,False,10.0,0.0,0.0,-10.0,7.845650382472198,0.05400248289361725
1760959740.8839571,3.470820426940918,0.0,0.0,0.0,0.0,0.0,-45.513296505686455,0.0,0.0,0.0339078427809975,,,,,,,,,,,0.65,0.0,0.0,0.003566906697743036,-0.17044005246678762,0.14074861172486355,-2.1427280727515026,0.02301900754741252,0.00278296242309013,-45.513935357942934,0.007991501563165459,-0.0053288721881791234,-0.0004839481679030297,,,,,,,,,,,,,,,,,stabilize,85.0,True,0,False,10.0,0.0,0.0,-10.0,7.860380532894999,0.009617441544467096
1760959740.9934242,3.580287456512451,0.0,0.0,0.0,0.0,0.0,-45.66779238259233,0.0,0.0,0.028877478229592038,,,,,,,,,,,0.65,0.0,0.0,0.004783345304073166,-0.16773110136648675,0.14166626889973616,-2.2120290096992563,0.028010370314077875,0.013877684934849711,-45.67127403432526,0.007916139680646271,-0.004482809006850486,0.038926553664092645,,,,,,,,,,,,,,,,,stabilize,85.0,True,0,False,10.0,0.0,0.0,-10.0,7.791065087642096,0.0399754602750098
1760959741.0977135,3.6845767498016357,0.0,0.0,0.0,0.0,0.0,-45.798105391252655,0.0,0.0,0.02083203910571777,,,,,,,,,,,0.65,0.0,0.0,0.004934689059781278,-0.0016948293101282106,0.8066097033492841,-2.003974698966621,0.04993547271711912,0.019860991708297592,-45.76606064020933,0.00721603440185811,-0.007021746957514166,0.012145260603771933,,,,,,,,,,,,,,,,,stabilize,85.0,True,0,False,10.0,0.0,0.0,-10.0,8.036606416936788,0.015776039996072962
1760959741.2037342,3.790597438812256,0.0,0.0,0.0,0.0,0.0,-45.91395842831676,0.0,0.0,0.011473017657848236,,,,,,,,,,,0.65,0.0,0.0,0.004018305329000761,-0.21297389884520665,0.42789399380117643,-2.21370905886626,0.04332064106344972,0.02021497492402375,-45.88052165706937,0.0068637215979858645,-0.004430604318532697,-0.005717799209558526,,,,,,,,,,,,,,,,,stabilize,85.0,True,0,False,10.0,0.0,0.0,-10.0,7.800947235528631,0.009971667694166624
1760959741.312334,3.8991973400115967,0.0,0.0,0.0,0.0,0.0,-46.01803845262333,0.0,0.0,0.0034832424692293525,,,,,,,,,,,0.65,0.0,0.0,0.003233684194622545,-0.6112109951136827,0.8218111381144833,-2.2041430181369965,-0.04019297788444296,-0.030173925217524437,-45.96756284732828,0.01047000061111798,-0.008001508780668631,-0.03669307305911648,,,,,,,,,,,,,,,,,stabilize,85.0,True,0,False,10.0,0.0,0.0,-10.0,7.8628454460798745,0.03898751936306782
1760959741.4200382,4.006901502609253,0.0,0.0,0.0,0.0,0.0,-46.10763700560556,0.0,0.0,-0.0033717219824701042,,,,,,,,,,,0.65,0.0,0.0,0.0022095910573238647,-0.6149983680629088,0.819257858907478,-2.2399902404930168,-0.030073425467605927,-0.016983967402479715,-46.059412898388,0.013222704493973822,-0.0132828785424596,0.007159321749110355,,,,,,,,,,,,,,,,,stabilize,85.0,True,0,False,10.0,0.0,0.0,-10.0,7.827334022497401,0.020063166859097138
1760959741.5256004,4.112463712692261,0.0,0.0,0.0,0.0,0.0,-46.18579031942672,0.0,0.0,-0.009486316455641906,,,,,,,,,,,0.65,0.0,0.0,0.001956212733113867,0.014731273583114489,0.29878066060450537,-2.320734045425188,-0.03789026399359605,-0.003525823957440042,-46.1376560504767,0.011928306227624015,-0.010206075285315143,-0.03261238310972524,,,,,,,,,,,,,,,,,stabilize,85.0,True,0,False,10.0,0.0,0.0,-10.0,7.6850902723822605,0.03619414309366898
1760959741.630741,4.217604160308838,0.0,0.0,0.0,0.0,0.0,-46.25419935765165,0.0,0.0,-0.014992684455305152,,,,,,,,,,,0.65,0.0,0.0,0.0007340051995883329,-0.7426186087901651,0.03449385499921131,-2.1999557097906837,-0.0317506920696541,-0.025516737000550814,-46.22158584078379,0.009731105848960258,-0.01400222682664238,-0.009005923826542254,,,,,,,,,,,,,,,,,stabilize,85.0,True,0,False,10.0,0.0,0.0,-10.0,7.835391703889544,0.01928376107293112
1760959741.7374678,4.324331045150757,0.0,0.0,0.0,0.0,0.0,-46.314529880553316,0.0,0.0,-0.02021545996099385,,,,,,,,,,,0.65,0.0,0.0,0.0011942022962604035,-0.16045793726074253,0.6381871486190529,-2.018976825918596,0.023048056051311244,-0.03246204772071677,-46.33513333075666,0.00776144569417488,-0.017210875856117348,0.01428039701507848,,,,,,,,,,,,,,,,,stabilize,85.0,True,0,False,10.0,0.0,0.0,-10.0,8.008105924094467,0.02367243177002674
1760959741.8443654,4.4312286376953125,0.0,0.0,0.0,0.0,0.0,-46.36780007522714,0.0,0.0,-0.027933962011630467,,,,,,,,,,,0.65,0.0,0.0,-0.08319708247827098,-0.5969474190059375,-0.5298814350238322,-2.1281885725055174,0.011994783134784805,-0.017692328914315474,-46.36996711175984,0.009662807017071902,-0.020492072714842692,0.08894273120167266,,,,,,,,,,,,,,,,,stabilize,85.0,True,0,False,10.0,0.0,0.0,-10.0,7.9121764203203595,0.09178291952870408
1760959741.9461925,4.533055782318115,0.0,0.0,0.0,0.0,0.0,-46.41233122756327,0.0,0.0,-0.0380098397395018,,,,,,,,,,,0.65,0.0,0.0,0.0027038113803358093,-0.5946331597304941,-0.5309277855905036,-2.508057330454764,0.03307788231674095,-0.002221104010670838,-46.415643821754934,0.018605970114933035,-0.019199424283410645,-0.021444684984584683,,,,,,,,,,,,,,,,,stabilize,85.0,True,0,False,10.0,0.0,0.0,-10.0,7.534233728251049,0.034273525217290844
1760959742.0525315,4.639394760131836,0.0,0.0,0.0,0.0,0.0,-46.45349118185201,0.0,0.0,-0.0480556618932523,,,,,,,,,,,0.65,0.0,0.0,0.06684330704821984,-0.5900200472504801,-0.5300513634149998,-2.1642374873062082,0.05248643598660581,0.01856061413420453,-46.45713338382155,0.019004449846542176,-0.018821447466478892,-0.06752285780878946,,,,,,,,,,,,,,,,,stabilize,85.0,True,0,False,10.0,0.0,0.0,-10.0,7.875801689945786,0.07262749014917948
1760959742.160438,4.747301340103149,0.0,0.0,0.0,0.0,0.0,-46.48967159349999,0.0,0.0,-0.05593989959162443,,,,,,,,,,,0.65,0.0,0.0,0.14074406543578083,-0.622433356005951,0.14504557486157701,-2.189587345126573,0.02447563150849239,0.06793726294513729,-46.51470515502726,0.02042979603219221,-0.012677285088154504,-0.1457325894769922,,,,,,,,,,,,,,,,,stabilize,85.0,True,0,False,10.0,0.0,0.0,-10.0,7.836517551876135,0.14770266672877932
1760959742.2672973,4.85416054725647,0.0,0.0,0.0,0.0,0.0,-46.5214333933803,0.0,0.0,-0.05854107998166138,,,,,,,,,,,0.65,0.0,0.0,0.07638066839327187,-0.6190690262682216,0.1532914430507441,-2.365273415811286,0.03815420239574612,0.08585005525638856,-46.54680822330444,0.018130505090992666,-0.006649346226398375,-0.08171548556265795,,,,,,,,,,,,,,,,,stabilize,85.0,True,0,False,10.0,0.0,0.0,-10.0,7.661318081186495,0.08396635993559558
1760959742.3735836,4.960446834564209,0.0,0.0,0.0,0.0,0.0,-46.548892149111765,0.0,0.0,-0.056185736942539366,,,,,,,,,,,0.65,0.0,0.0,0.04893421893890504,-0.6146493671085775,0.16349956501733603,-1.9933966295572128,0.04546125660268717,0.10641178283154536,-46.5731682976174,0.020644588065426284,-0.007611546640097564,-0.05399807584455267,,,,,,,,,,,,,,,,,stabilize,85.0,True,0,False,10.0,0.0,0.0,-10.0,8.03182566318727,0.058308891719527516
1760959742.4808528,5.067716121673584,0.0,0.0,0.0,0.0,0.0,-46.573333536264386,0.0,0.0,-0.05107618983092145,,,,,,,,,,,0.65,0.0,0.0,0.06759668701210197,-0.6093382043732947,0.17617314205308635,-2.317666672355586,0.05258537286383624,0.1302444805377593,-46.59764589517344,0.026262489205861758,-0.007103316373228354,-0.07285518576185239,,,,,,,,,,,,,,,,,stabilize,85.0,True,0,False,10.0,0.0,0.0,-10.0,7.708474257615824,0.07776923257420122
1760959742.5872672,5.174130439758301,0.0,0.0,0.0,0.0,0.0,-46.59429859716237,0.0,0.0,-0.045406698023171294,,,,,,,,,,,0.65,0.0,0.0,-0.0025895014722796955,0.19600784216211617,1.6259767690226952,-2.2248453648036692,0.03519464300419785,0.07042662686068721,-46.60049006164193,0.02764199726972654,-0.003431120301713292,0.032321826815407934,,,,,,,,,,,,,,,,,stabilize,85.0,True,0,False,10.0,0.0,0.0,-10.0,7.945769259725928,0.04266793981749789
1760959742.6936204,5.280483722686768,0.0,0.0,0.0,0.0,0.0,-46.612672945289376,0.0,0.0,-0.03928288277053782,,,,,,,,,,,0.65,0.0,0.0,0.08456400300879355,0.5488218145644115,0.39600840014122,-1.7538239872445198,0.05546858702585718,0.0782589126509427,-46.628492228099795,0.026715924751484207,5.850065947761787e-05,-0.09020637877551914,,,,,,,,,,,,,,,,,stabilize,85.0,True,0,False,10.0,0.0,0.0,-10.0,8.273901550687441,0.09407940704238389
1760959742.800779,5.3876423835754395,0.0,0.0,0.0,0.0,0.0,-46.62884717831801,0.0,0.0,-0.03263140670533189,,,,,,,,,,,0.65,0.0,0.0,0.05289986843259332,0.6128779117038873,-0.6044155972691774,-1.9916297462126962,0.04136218723356818,0.060848712769516214,-46.62626339737417,0.02575679181383174,0.002896248492343638,-0.05700828177769274,,,,,,,,,,,,,,,,,stabilize,85.0,True,0,False,10.0,0.0,0.0,-10.0,8.054497605103753,0.06262383548709938
1760959742.9081757,5.495038986206055,0.0,0.0,0.0,0.0,0.0,-46.64316901703429,0.0,0.0,-0.024180072521385463,,,,,,,,,,,0.65,0.0,0.0,0.07139201078099679,-0.06949249937261441,-0.7248591544985367,-2.1927780302583293,0.018104951345576208,0.0911732837152611,-46.67662840357088,0.02350862688118896,0.007331389782800435,-0.07704404706657544,,,,,,,,,,,,,,,,,stabilize,85.0,True,0,False,10.0,0.0,0.0,-10.0,7.841107376266849,0.0808838055631843
1760959743.016051,5.602914333343506,0.0,0.0,0.0,0.0,0.0,-46.65562239583454,0.0,0.0,-0.012706646383686258,,,,,,,,,,,0.65,0.0,0.0,0.06034409394412453,-0.6211624603955958,-0.736548036469329,-2.4585670086402382,0.030560934929007327,0.09683087022397378,-46.682485560398895,0.025559277716865662,0.007269246974791472,-0.06561578246353714,,,,,,,,,,,,,,,,,stabilize,85.0,True,0,False,10.0,0.0,0.0,-10.0,7.602733546258278,0.07079229857329544
1760959743.1211426,5.708005905151367,0.0,0.0,0.0,0.0,0.0,-46.66631316247156,0.0,0.0,-0.0013845275794091819,,,,,,,,,,,0.65,0.0,0.0,-0.0023146069025671155,0.4148151409321498,-0.5166659061383385,-2.265404480432568,0.018662839881254306,0.09144858423085517,-46.66360461613994,0.02251730617226307,0.00546232271274901,-0.01735945620681672,,,,,,,,,,,,,,,,,stabilize,85.0,True,0,False,10.0,0.0,0.0,-10.0,7.762923618780806,0.028951973446900602
1760959743.226761,5.813624382019043,0.0,0.0,0.0,0.0,0.0,-46.675807749296865,0.0,0.0,0.00826652583587828,,,,,,,,,,,0.65,0.0,0.0,-0.08613326433871987,0.2891708976533859,-1.226061518107196,-2.4179991266075547,0.0211779309036901,0.07769743208770467,-46.71207714575393,0.024112757077211652,0.005386127681166625,0.08915093386057159,,,,,,,,,,,,,,,,,stabilize,85.0,True,0,False,10.0,0.0,0.0,-10.0,7.685934159121895,0.09251121247435069
1760959743.334433,5.9212963581085205,0.0,0.0,0.0,0.0,0.0,-46.68415449089852,0.0,0.0,0.014576838648990006,,,,,,,,,,,0.65,0.0,0.0,-0.0608838811113693,0.5466787145704541,-0.6212752767983185,-2.3598039962260833,0.009417391143388779,0.1128462702048691,-46.66982216038067,0.02663209539899008,0.010384735787430634,0.06391406298907246,,,,,,,,,,,,,,,,,stabilize,85.0,True,0,False,10.0,0.0,0.0,-10.0,7.684883575084801,0.07001513186795247
1760959743.4415805,6.028443813323975,0.0,0.0,0.0,0.0,0.0,-46.69148431594114,0.0,0.0,0.01868138358005239,,,,,,,,,,,0.65,0.0,0.0,0.0013249429457745374,1.0686465376188077,-0.8763322272451974,-1.9971037503882454,-0.040142762547084904,0.04615269070327948,-46.72799799318821,0.03197581246880871,0.004257583039706635,0.020970822326818996,,,,,,,,,,,,,,,,,stabilize,85.0,True,0,False,10.0,0.0,0.0,-10.0,8.12134914758152,0.03847538155032943
1760959743.5482187,6.135082006454468,0.0,0.0,0.0,0.0,0.0,-46.69781428509462,0.0,0.0,0.02241762529944639,,,,,,,,,,,0.65,0.0,0.0,0.0007740381721821421,0.5061875229295407,-0.9104456264648956,-2.27921404738642,-0.03256557445198437,0.05776263222858103,-46.69526367114843,0.03095332891189439,0.0011472770543720326,0.026303031532166652,,,,,,,,,,,,,,,,,stabilize,85.0,True,0,False,10.0,0.0,0.0,-10.0,7.790742761328588,0.04063587433721045
1760959743.6529741,6.239837408065796,0.0,0.0,0.0,0.0,0.0,-46.70328242601601,0.0,0.0,0.025971014868053807,,,,,,,,,,,0.65,0.0,0.0,0.0009491806846717251,-0.12448726094517293,-0.2501297125574817,-2.2235699351947433,-0.01462823359222031,0.10627447188195208,-46.72579173883134,0.030160941663986265,-0.00028779432409421486,0.04064954260085375,,,,,,,,,,,,,,,,,stabilize,85.0,True,0,False,10.0,0.0,0.0,-10.0,7.781447584096985,0.05061769000349569
1760959743.7600002,6.346863508224487,0.0,0.0,0.0,0.0,0.0,-46.708289278104644,0.0,0.0,0.027072174574785723,,,,,,,,,,,0.65,0.0,0.0,-0.06202144680312153,0.31927489563206096,-0.46867916681999316,-2.049503176295393,0.020726249893390752,0.11163723381893267,-46.69861719122006,0.029017511040739824,-0.001998124782861608,0.06722471196253006,,,,,,,,,,,,,,,,,stabilize,85.0,True,0,False,10.0,0.0,0.0,-10.0,7.970696102858833,0.07324732314625891
1760959743.8667197,6.453583002090454,0.0,0.0,0.0,0.0,0.0,-46.71292237008187,0.0,0.0,0.020894254364363884,,,,,,,,,,,0.65,0.0,0.0,0.12034663829614525,0.5345818082960727,-0.3783285331167659,-2.165164371728384,0.09919426514053081,0.11283412650625149,-46.73832263169787,0.027766661681450006,-0.0044482477943531855,-0.1207133748193434,,,,,,,,,,,,,,,,,stabilize,85.0,True,0,False,10.0,0.0,0.0,-10.0,7.862159977434043,0.12394552541196217
1760959743.9743695,6.561232805252075,0.0,0.0,0.0,0.0,0.0,-46.716721627457176,0.0,0.0,0.014790616740708055,,,,,,,,,,,0.65,0.0,0.0,-0.04751501468544711,0.4076498930826173,-0.39181189914065484,-2.231046054274249,0.01279371760198382,0.07258425296938371,-46.73149719909824,0.02808163609574019,-0.0042543337551412454,0.053659881467718495,,,,,,,,,,,,,,,,,stabilize,85.0,True,0,False,10.0,0.0,0.0,-10.0,7.789501935967806,0.060712935365071184
1760959744.0807147,6.6675779819488525,0.0,0.0,0.0,0.0,0.0,-46.71990723930733,0.0,0.0,0.007520522695916373,,,,,,,,,,,0.65,0.0,0.0,-0.05537979955107756,0.3576014626622696,-0.4763011996028457,-2.339467246974307,0.033286823685225675,0.07033596246480145,-46.754187171733456,0.02480090360604632,-0.00535206173926312,0.060949158143317625,,,,,,,,,,,,,,,,,stabilize,85.0,True,0,False,10.0,0.0,0.0,-10.0,7.6836517164054685,0.06601915830209006
1760959744.1889687,6.775831937789917,0.0,0.0,0.0,0.0,0.0,-46.722819604026434,0.0,0.0,0.0019905863507295556,,,,,,,,,,,0.65,0.0,0.0,0.0018012082103539507,0.36146002027450075,-0.4671684943770855,-1.8184617429734582,0.037861939889898166,0.09787844352658331,-46.75846122319723,0.028283449856157692,-0.0001617715698681915,-0.0392395748745137,,,,,,,,,,,,,,,,,stabilize,85.0,True,0,False,10.0,0.0,0.0,-10.0,8.202832925251148,0.0483706930086718
1760959744.2973268,6.884190082550049,0.0,0.0,0.0,0.0,0.0,-46.72545504993542,0.0,0.0,-0.0009975151067664464,,,,,,,,,,,0.65,0.0,0.0,0.13079397543157267,-0.4639418850641471,-0.3613967838201219,-2.570080346191645,-0.014380368552213028,0.09332490434223759,-46.712938146822204,0.03078832310491606,-0.0013558007102096633,-0.13471492301167845,,,,,,,,,,,,,,,,,stabilize,85.0,True,0,False,10.0,0.0,0.0,-10.0,7.453157436289674,0.13819504157972154
1760959744.4003515,6.987214803695679,0.0,0.0,0.0,0.0,0.0,-46.727672355925556,0.0,0.0,-0.003911060397988522,,,,,,,,,,,0.65,0.0,0.0,0.06315584593350358,-0.24370436289041517,-0.06831826855014363,-2.518038270011525,-0.026828039705069712,0.12090282285312835,-46.68950160406583,0.03699083257977736,0.005673449653618369,-0.06534065960053122,,,,,,,,,,,,,,,,,stabilize,85.0,True,0,False,10.0,0.0,0.0,-10.0,7.486241415511635,0.07529881488409862
1760959744.5075774,7.094440698623657,0.0,0.0,0.0,0.0,0.0,-46.7294946179934,0.0,0.0,-0.005025421944568041,,,,,,,,,,,0.65,0.0,0.0,0.00046334639756952874,0.384715995430737,0.394350095148582,-2.4064808981437555,-0.042474749466369095,0.11174852769600378,-46.72936461324148,0.030898444615650063,0.0092936616685563,3.889356874550026e-05,,,,,,,,,,,,,,,,,stabilize,85.0,True,0,False,10.0,0.0,0.0,-10.0,7.61347822909737,0.03226588817289362
1760959744.6142297,7.201092958450317,0.0,0.0,0.0,0.0,0.0,-46.73113003544853,0.0,0.0,-0.006732235651755975,,,,,,,,,,,0.65,0.0,0.0,-0.09350781347140531,0.3797820573313431,0.4080098123523695,-2.4024434423300733,-0.049445735627640396,0.14305332980554775,-46.730243740150456,0.02881956751613905,0.006146060296284174,0.09786922963849172,,,,,,,,,,,,,,,,,stabilize,85.0,True,0,False,10.0,0.0,0.0,-10.0,7.617976901057127,0.10220923460732247
1760959744.7214525,7.308315753936768,0.0,0.0,0.0,0.0,0.0,-46.73258181013926,0.0,0.0,-0.008827407851834085,,,,,,,,,,,0.65,0.0,0.0,0.00037076989247025337,0.37422611911859865,0.4249661964753294,-2.313974143330029,-0.05413729410080113,0.17604947759073497,-46.73064102457426,0.03425717897552175,0.001365985839625181,0.01946479384527687,,,,,,,,,,,,,,,,,stabilize,85.0,True,0,False,10.0,0.0,0.0,-10.0,7.706856358190195,0.03942459166705616
1760959744.8272848,7.4141480922698975,0.0,0.0,0.0,0.0,0.0,-46.733889844608576,0.0,0.0,-0.010295221634679996,,,,,,,,,,,0.65,0.0,0.0,0.0008351155074689995,0.5941742964538546,-0.6400751940931383,-2.2415398705824234,0.01624399565836943,0.17116121548630728,-46.78114431191717,0.034170030487421565,-0.0005253246741267605,-0.038595982631423865,,,,,,,,,,,,,,,,,stabilize,85.0,True,0,False,10.0,0.0,0.0,-10.0,7.807460722182469,0.05155110886110732
1760959744.9353886,7.522251844406128,0.0,0.0,0.0,0.0,0.0,-46.73501647545962,0.0,0.0,-0.010755066266957563,,,,,,,,,,,0.65,0.0,0.0,-1.495309193147936e-05,0.595914208115825,-0.619674971261219,-2.024513893078521,0.013715177759159983,0.20560953557361786,-46.78153957189595,0.029541321182807573,0.003289585419473412,0.03665910834002285,,,,,,,,,,,,,,,,,stabilize,85.0,True,0,False,10.0,0.0,0.0,-10.0,8.021688690988913,0.04719535203537887
1760959745.0438926,7.63075590133667,0.0,0.0,0.0,0.0,0.0,-46.73601027943899,0.0,0.0,-0.010664030376095668,,,,,,,,,,,0.65,0.0,0.0,-0.069593094142013,0.3060174965437217,1.0038429156190993,-2.13755694961442,0.023093523200779117,0.1761009646345565,-46.75349363396447,0.024522778030693037,0.002728096779317529,0.07222100418314628,,,,,,,,,,,,,,,,,stabilize,85.0,True,0,False,10.0,0.0,0.0,-10.0,7.932172339780953,0.0763196082248985
1760959745.1518016,7.738664865493774,0.0,0.0,0.0,0.0,0.0,-46.73743974923641,0.0,0.0,-0.004222882629431403,,,,,,,,,,,0.65,0.0,0.0,0.11651767082469017,-0.20635245813549855,-0.0981061683354163,-2.3575468886816826,0.003965491504762407,0.16429108296149722,-46.72349803726011,0.03206028507345015,0.004991679228242197,-0.12614017796851856,,,,,,,,,,,,,,,,,stabilize,85.0,True,0,False,10.0,0.0,0.0,-10.0,7.645867885069887,0.1302463943394906
1760959745.2613125,7.848175764083862,0.0,0.0,0.0,0.0,0.0,-46.73817264127695,0.0,0.0,0.008290941657986432,,,,,,,,,,,0.65,0.0,0.0,0.1175148111154992,-0.25413636320638744,-1.5642087363471735,-2.2363682452310707,0.0003241389927105488,0.15185297600409534,-46.6922542124735,0.02761856166253015,0.0012970468327264785,-0.1270916894924206,,,,,,,,,,,,,,,,,stabilize,85.0,True,0,False,10.0,0.0,0.0,-10.0,7.923718337095601,0.13006446408158964
1760959745.3706613,7.957524538040161,0.0,0.0,0.0,0.0,0.0,-46.7388955467269,0.0,0.0,0.021340271705676487,,,,,,,,,,,0.65,0.0,0.0,-0.17268744203081735,0.2529776039760756,-0.6813847314843691,-2.423031830067319,-0.016530289250199462,0.1127636057649752,-46.72599122735874,0.029592245888489407,0.0029991634391253364,0.17610551684171227,,,,,,,,,,,,,,,,,stabilize,85.0,True,0,False,10.0,0.0,0.0,-10.0,7.611749435483706,0.17859968941783189
1760959745.478495,8.06535816192627,0.0,0.0,0.0,0.0,0.0,-46.73937168624929,0.0,0.0,0.03051803496191503,,,,,,,,,,,0.65,0.0,0.0,0.04855660121015557,0.2509263119157085,-0.6675067458173085,-2.26043654616856,-0.020364584647739766,0.142657077447504,-46.7278226367138,0.025269035506419082,0.0053560769987121715,-0.05256449532934962,,,,,,,,,,,,,,,,,stabilize,85.0,True,0,False,10.0,0.0,0.0,-10.0,7.7723466035430055,0.05856823273302704
1760959745.5871396,8.174002885818481,0.0,0.0,0.0,0.0,0.0,-46.73983754419916,0.0,0.0,0.03914967118695722,,,,,,,,,,,0.65,0.0,0.0,-0.09200836430754175,0.24835733922174036,-0.6505517026569054,-2.2274791109709975,-0.026588362225855793,0.16925961882500185,-46.7279248019907,0.023671696779488906,0.006199660263935393,0.09419551527689855,,,,,,,,,,,,,,,,,stabilize,85.0,True,0,False,10.0,0.0,0.0,-10.0,7.803651700080374,0.09732204331028357
1760959745.6963942,8.283257484436035,0.0,0.0,0.0,0.0,0.0,-46.74057244447398,0.0,0.0,0.04402598497883408,,,,,,,,,,,0.65,0.0,0.0,-0.2,-1.3013952221883365,-0.059971596961644995,-2.317795031748071,-0.008509397495746583,0.06685833961873394,-46.68724132124661,0.026415019524839146,0.00876935067882928,0.22195147684152777,,,,,,,,,,,,,,,,,stabilize,85.0,True,0,False,10.0,0.0,0.0,-10.0,7.791886760664029,0.22368976918929742
1760959745.8056023,8.392465591430664,0.0,0.0,0.0,0.0,0.0,-46.74115818324315,0.0,0.0,0.04020384448096184,,,,,,,,,,,0.65,0.0,0.0,0.0047956904391463755,-0.7855322857688041,-0.8049196343287452,-2.3829129438638232,0.01726451166293868,0.04050754848146391,-46.75657714943353,0.024745492384147576,0.010111265971056823,0.040785563664889224,,,,,,,,,,,,,,,,,stabilize,85.0,True,0,False,10.0,0.0,0.0,-10.0,7.699673487263623,0.04876514427676893
1760959745.9147754,8.501638650894165,0.0,0.0,0.0,0.0,0.0,-46.74129435894805,0.0,0.0,0.03255918177682607,,,,,,,,,,,0.65,0.0,0.0,0.00378284411352655,0.12139659966446098,-0.2566877273050256,-2.3465659953674454,-0.00194160484772483,0.006692087250111053,-46.75940741652415,0.02514125174698357,0.011179576728395037,-0.01053269557073476,,,,,,,,,,,,,,,,,stabilize,85.0,True,0,False,10.0,0.0,0.0,-10.0,7.658699484052434,0.029461893204902022
1760959746.0252407,8.612103939056396,0.0,0.0,0.0,0.0,0.0,-46.741565058757416,0.0,0.0,0.023818207622421157,,,,,,,,,,,0.65,0.0,0.0,-0.10460740103888548,0.14633039414143137,-0.2475278875998783,-2.0419859133067497,0.0099633359346635,0.03235663387171581,-46.74356896952541,0.023565945570289595,0.007921629147964055,0.11318891994857308,,,,,,,,,,,,,,,,,stabilize,85.0,True,0,False,10.0,0.0,0.0,-10.0,7.963207321387372,0.11588717615898754
1760959746.133299,8.720162391662598,0.0,0.0,0.0,0.0,0.0,-46.741820675106155,0.0,0.0,0.01166861140811408,,,,,,,,,,,0.65,0.0,0.0,-0.12874130133589648,0.7867366178301799,0.38363779408269233,-2.3977418596001225,-0.018978675359179933,0.035777305703578725,-46.727094077665946,0.02540907351731656,0.0098888767943787,0.13923994501032136,,,,,,,,,,,,,,,,,stabilize,85.0,True,0,False,10.0,0.0,0.0,-10.0,7.652480728244908,0.14188436555075445
1760959746.2404723,8.827335596084595,0.0,0.0,0.0,0.0,0.0,-46.74206730296926,0.0,0.0,-0.004858514479978228,,,,,,,,,,,0.65,0.0,0.0,0.10215273068804348,0.9658958209913872,0.5232388605491562,-1.8847542952353988,-0.02728797820645317,0.04639121536813068,-46.69085010973556,0.024562115182621764,0.006624282637296413,-0.1012218221316921,,,,,,,,,,,,,,,,,stabilize,85.0,True,0,False,10.0,0.0,0.0,-10.0,8.189257993914815,0.10436970776218107
1760959746.3471184,8.933981657028198,0.0,0.0,0.0,0.0,0.0,-46.74237950514233,0.0,0.0,-0.017017468073851426,,,,,,,,,,,0.65,0.0,0.0,0.1333883880843928,0.9626201875427939,0.5298242240881834,-2.1321101567533476,-0.033341868344846794,0.07748578086658092,-46.68996322389834,0.029556426336762885,0.005517040713215408,-0.13663458250205404,,,,,,,,,,,,,,,,,stabilize,85.0,True,0,False,10.0,0.0,0.0,-10.0,7.944245837042017,0.13990364259568933
1760959746.4472716,9.034134864807129,0.0,0.0,0.0,0.0,0.0,-46.7424283066512,0.0,0.0,-0.023364357215119425,,,,,,,,,,,0.65,0.0,0.0,0.000738556231242178,0.9590741998604054,0.538847371971107,-2.3853552327959378,-0.03818784951009184,0.10259678570769479,-46.6901580477464,0.026771884513519046,0.008769204480136298,0.007409258491337975,,,,,,,,,,,,,,,,,stabilize,85.0,True,0,False,10.0,0.0,0.0,-10.0,7.693698378661998,0.029129535852998198
1760959746.5551114,9.141974687576294,0.0,0.0,0.0,0.0,0.0,-46.74249242939937,0.0,0.0,-0.029899813169877415,,,,,,,,,,,0.65,0.0,0.0,0.06458575645416714,0.3035134281258922,0.5120879682560033,-2.1511232234030664,-0.07200599413429093,0.07806509864177776,-46.72442336435379,0.023505387055841896,0.010851513270607738,-0.0661514916983798,,,,,,,,,,,,,,,,,stabilize,85.0,True,0,False,10.0,0.0,0.0,-10.0,7.871417988043067,0.07103716220984568
1760959746.6610906,9.24795389175415,0.0,0.0,0.0,0.0,0.0,-46.74254309369566,0.0,0.0,-0.03577594104573839,,,,,,,,,,,0.65,0.0,0.0,0.00038787029826332616,0.5275115529903611,0.3016769358698665,-2.1235544733631952,-0.046437804000883126,0.07605705416526731,-46.757027180919344,0.02601712680963373,0.011662278440905043,-0.0022809619925145148,,,,,,,,,,,,,,,,,stabilize,85.0,True,0,False,10.0,0.0,0.0,-10.0,7.899852628134974,0.028602489637670644
1760959746.7688773,9.355740547180176,0.0,0.0,0.0,0.0,0.0,-46.74272827423182,0.0,0.0,-0.03907371047925392,,,,,,,,,,,0.65,0.0,0.0,0.15812512766052741,-0.037950262278290105,0.139106526447972,-2.243110020100115,0.013397954932086096,0.06456042698256262,-46.73610100981082,0.028126560532171507,0.006754796044055895,-0.16595006943125257,,,,,,,,,,,,,,,,,stabilize,85.0,True,0,False,10.0,0.0,0.0,-10.0,7.758230017753962,0.16845223721044564
1760959746.873601,9.460464239120483,0.0,0.0,0.0,0.0,0.0,-46.74293876969304,0.0,0.0,-0.03581962809098055,,,,,,,,,,,0.65,0.0,0.0,0.07858802042580204,0.10479953412418733,0.8722508596075054,-2.0894319013155407,0.02374911361608588,0.04075455535163281,-46.75215468699662,0.028231474082733844,0.003178241192292824,-0.08566811721215555,,,,,,,,,,,,,,,,,stabilize,85.0,True,0,False,10.0,0.0,0.0,-10.0,7.959201728085734,0.09025598956654389
1760959746.9812245,9.568087816238403,0.0,0.0,0.0,0.0,0.0,-46.7430037886485,0.0,0.0,-0.030073351161636414,,,,,,,,,,,0.65,0.0,0.0,-0.10099772829151861,0.10718394353492317,0.8781947959918048,-2.3406598417942175,0.022340407910243634,0.06968238577432394,-46.75058084260165,0.028144711071816975,-0.004226343362170357,0.10313135679334803,,,,,,,,,,,,,,,,,stabilize,85.0,True,0,False,10.0,0.0,0.0,-10.0,7.7102662831164634,0.10698627712733942
1760959747.0886917,9.675554990768433,0.0,0.0,0.0,0.0,0.0,-46.74302209471363,0.0,0.0,-0.028397527509716303,,,,,,,,,,,0.65,0.0,0.0,-0.17668450484126097,0.10965189987710262,0.8871972797235522,-2.4162040669695792,0.025289357137908725,0.09833402153300255,-46.74908077965816,0.02933991976090587,-0.004228939250434932,0.183051042452965,,,,,,,,,,,,,,,,,stabilize,85.0,True,0,False,10.0,0.0,0.0,-10.0,7.6363016772613355,0.18543570034348147
1760959747.1952064,9.782069683074951,0.0,0.0,0.0,0.0,0.0,-46.74308424853407,0.0,0.0,-0.02697056336777011,,,,,,,,,,,0.65,0.0,0.0,0.08386118332712106,0.1920416783206299,-0.573864674983915,-1.9336280124623537,-0.0027786945265719024,0.106664763035588,-46.73469800445919,0.02951658684599697,-0.006421426074399007,-0.08906489330036566,,,,,,,,,,,,,,,,,stabilize,85.0,True,0,False,10.0,0.0,0.0,-10.0,8.089039356607103,0.09404796026747082
1760959747.3024259,9.889289140701294,0.0,0.0,0.0,0.0,0.0,-46.74304157505146,0.0,0.0,-0.023004651941577803,,,,,,,,,,,0.65,0.0,0.0,-0.0008909347646332087,-0.5730713837404022,-0.5637752846833785,-2.228621518499903,0.009103950520969701,0.09939768279663556,-46.738129076459046,0.034685645955481716,-0.00873322707745459,0.011302309778873657,,,,,,,,,,,,,,,,,stabilize,85.0,True,0,False,10.0,0.0,0.0,-10.0,7.812846912950792,0.0375114048906867
1760959747.4088798,9.995743036270142,0.0,0.0,0.0,0.0,0.0,-46.74313221947995,0.0,0.0,-0.018494137768765222,,,,,,,,,,,0.65,0.0,0.0,-0.0008735873730490362,-0.5716379356085247,-0.5513154719929699,-2.088951582514581,0.017326266152415996,0.13391485214883883,-46.73756271100565,0.03181444132790006,-0.0074756353040258666,0.03949137050171569,,,,,,,,,,,,,,,,,stabilize,85.0,True,0,False,10.0,0.0,0.0,-10.0,7.950811640510934,0.051260239409399694
1760959747.5177665,10.104629755020142,0.0,0.0,0.0,0.0,0.0,-46.74338853562451,0.0,0.0,-0.009820393512436717,,,,,,,,,,,0.65,0.0,0.0,-0.004124411612128352,-0.5691267445495196,-0.5349239164326277,-2.4609203364483783,0.0286698944429718,0.16992297661690775,-46.736706766040044,0.03375014722370553,-0.004706334060690697,-0.04832091894597976,,,,,,,,,,,,,,,,,stabilize,85.0,True,0,False,10.0,0.0,0.0,-10.0,7.579430784769446,0.05912810859224706
1760959747.62257,10.209433317184448,0.0,0.0,0.0,0.0,0.0,-46.74335796596142,0.0,0.0,0.002775722445303283,,,,,,,,,,,0.65,0.0,0.0,-0.004419144282568363,-0.5657607833916838,-0.5151765919382875,-2.375355050346489,0.034971939049481975,0.20538860591778435,-46.73827243400304,0.033740882688557856,-0.0020668695056239063,-0.018685004629968652,,,,,,,,,,,,,,,,,stabilize,85.0,True,0,False,10.0,0.0,0.0,-10.0,7.662943481011844,0.038624454846356744
1760959747.7294788,10.316342115402222,0.0,0.0,0.0,0.0,0.0,-46.743321263046404,0.0,0.0,0.016997574829340837,,,,,,,,,,,0.65,0.0,0.0,-0.06798372770640133,-1.0393239379996793,1.033734934968347,-2.031354675971719,0.06705711532959724,0.10196802928479351,-46.754003377060826,0.03376838221062883,-0.004806553854516227,0.06662743858744011,,,,,,,,,,,,,,,,,stabilize,85.0,True,0,False,10.0,0.0,0.0,-10.0,8.102352156258759,0.07485066579398329
1760959747.837458,10.424321174621582,0.0,0.0,0.0,0.0,0.0,-46.74332374203722,0.0,0.0,0.031158238241817657,,,,,,,,,,,0.65,0.0,0.0,-0.15892011176678722,0.021820451822506016,1.3613422460489581,-2.092372311200169,0.03331911046935201,0.06826707118429004,-46.780300183908295,0.0344841411279988,-0.0001900418108305076,0.16188850317950051,,,,,,,,,,,,,,,,,stabilize,85.0,True,0,False,10.0,0.0,0.0,-10.0,8.02398308246404,0.16552063184668173
1760959747.9431343,10.52999758720398,0.0,0.0,0.0,0.0,0.0,-46.743219843156844,0.0,0.0,0.042464310398537375,,,,,,,,,,,0.65,0.0,0.0,-0.0018194470016638918,-0.12876018444460838,0.8394905295383414,-2.317991959819194,0.07299225134475133,0.08504969675404613,-46.75797125091997,0.035489378192372883,0.00019809262150251674,0.011800700068645482,,,,,,,,,,,,,,,,,stabilize,85.0,True,0,False,10.0,0.0,0.0,-10.0,7.728814337509041,0.037400424159066636
1760959748.049382,10.636245250701904,0.0,0.0,0.0,0.0,0.0,-46.743179551184014,0.0,0.0,0.053077264534687335,,,,,,,,,,,0.65,0.0,0.0,-0.001040918856927868,-0.10769394899624705,0.7570297008160719,-2.361279723319472,-0.005095905710428488,0.0791871133622874,-46.76024636071592,0.031697064154122746,0.005543299519575467,-0.011983933876813485,,,,,,,,,,,,,,,,,stabilize,85.0,True,0,False,10.0,0.0,0.0,-10.0,7.676896470575745,0.03433724969647593
1760959748.1569192,10.74378252029419,0.0,0.0,0.0,0.0,0.0,-46.743175636165944,0.0,0.0,0.06200541350312008,,,,,,,,,,,0.65,0.0,0.0,-0.11266225387134514,-1.0391454732833554,0.7262989784193423,-2.293560518273713,-0.0037588611297688047,0.0718726719957219,-46.74530686146729,0.02625991114747001,0.0017209177292244722,0.11694279718055173,,,,,,,,,,,,,,,,,stabilize,85.0,True,0,False,10.0,0.0,0.0,-10.0,7.8100283614214865,0.11986726952640339
1760959748.263724,10.850587368011475,0.0,0.0,0.0,0.0,0.0,-46.74322303028932,0.0,0.0,0.0685007396102707,,,,,,,,,,,0.65,0.0,0.0,-0.15017789336396875,-1.039730606927736,0.7354023101461226,-2.237685171164921,-0.007415730304664882,0.10019259312953457,-46.74452262531093,0.029511960623823,0.003451120420610387,0.1568814710405933,,,,,,,,,,,,,,,,,stabilize,85.0,True,0,False,10.0,0.0,0.0,-10.0,7.866091011086989,0.15967047945027332
1760959748.3704267,10.957289934158325,0.0,0.0,0.0,0.0,0.0,-46.74331771573267,0.0,0.0,0.06889537544990966,,,,,,,,,,,0.65,0.0,0.0,0.0034330684106422217,-0.7641746176704891,-0.1040872114823171,-1.99530354895876,-0.022580381497982728,0.039083239610189106,-46.76899912727258,0.02875730848026749,0.006950647359303957,0.042408422866222754,,,,,,,,,,,,,,,,,stabilize,85.0,True,0,False,10.0,0.0,0.0,-10.0,8.041763629154879,0.05170849659140196
1760959748.4774647,11.064327955245972,0.0,0.0,0.0,0.0,0.0,-46.74321219668972,0.0,0.0,0.06782463012225193,,,,,,,,,,,0.65,0.0,0.0,-0.11505420683629106,-1.5663450697651153,0.4718217349581829,-2.3667938116530376,-0.023690170575669925,0.05532715118705382,-46.75375748537815,0.02982070393758756,0.007489255795312236,0.12283366343064855,,,,,,,,,,,,,,,,,stabilize,85.0,True,0,False,10.0,0.0,0.0,-10.0,7.806528635762172,0.1266233477976898
1760959748.5844,11.171263217926025,0.0,0.0,0.0,0.0,0.0,-46.7435024434379,0.0,0.0,0.06360588231927206,,,,,,,,,,,0.65,0.0,0.0,-0.11645338564264585,-0.8722770468361646,0.020902250313650738,-2.215926311996637,-0.038755188466621376,0.07579927344550164,-46.760783862298865,0.028685486032024223,0.0024149195035792163,0.12659490107304203,,,,,,,,,,,,,,,,,stabilize,85.0,True,0,False,10.0,0.0,0.0,-10.0,7.8328224370766675,0.12982664565795235
1760959748.690318,11.277181386947632,0.0,0.0,0.0,0.0,0.0,-46.74375320679409,0.0,0.0,0.050029278167168977,,,,,,,,,,,0.65,0.0,0.0,-0.06343488144438586,-1.5534475267275716,0.42765996111439625,-2.3521642988607443,-0.0495479266993425,0.02664650934035587,-46.70848724622826,0.03245842163120809,0.0014093836168924715,0.07410377975835208,,,,,,,,,,,,,,,,,stabilize,85.0,True,0,False,10.0,0.0,0.0,-10.0,7.815720259339925,0.08091295119721684
1760959748.7979927,11.38485598564148,0.0,0.0,0.0,0.0,0.0,-46.74371276977347,0.0,0.0,0.029899117719416824,,,,,,,,,,,0.65,0.0,0.0,-0.04080973981007304,-1.2520460878888073,-0.055587580261255855,-2.1708871387065294,-0.023303138285166815,0.0446566994544739,-46.75115393583982,0.02922409851377146,0.005986496685730889,0.05110682382747679,,,,,,,,,,,,,,,,,stabilize,85.0,True,0,False,10.0,0.0,0.0,-10.0,7.92879042352286,0.05917595388537168
1760959748.9047828,11.49164605140686,0.0,0.0,0.0,0.0,0.0,-46.74373153217378,0.0,0.0,0.005043439472883365,,,,,,,,,,,0.65,0.0,0.0,-0.10750887448406671,-0.688371042500877,-0.2622390215448447,-2.069924340916421,-0.06042047959993523,0.03638782266550688,-46.723784647092316,0.026295127960292677,0.005637749034626598,0.12122724142035174,,,,,,,,,,,,,,,,,stabilize,85.0,True,0,False,10.0,0.0,0.0,-10.0,7.96421521277297,0.12417432114174752
1760959749.01314,11.600003242492676,0.0,0.0,0.0,0.0,0.0,-46.7436031020595,0.0,0.0,-0.02362654254196654,,,,,,,,,,,0.65,0.0,0.0,0.09044443956084017,-0.0741630112593942,-0.011585945118704505,-2.161560241685098,-0.06228462077985456,0.08419577345944038,-46.6771413248141,0.02762939278014664,0.005058058473018692,-0.08638316965268288,,,,,,,,,,,,,,,,,stabilize,85.0,True,0,False,10.0,0.0,0.0,-10.0,7.838799157466348,0.09083512151233292
1760959749.1207445,11.707607746124268,0.0,0.0,0.0,0.0,0.0,-46.743751718186545,0.0,0.0,-0.04751066061938326,,,,,,,,,,,0.65,0.0,0.0,0.10525460610108688,-0.08104462058624315,-0.0010151214947407149,-2.1286307732294456,-0.0638607911729947,0.11331447107214435,-46.675998365222455,0.02935896865441412,0.002485242157287843,-0.10577284305901297,,,,,,,,,,,,,,,,,stabilize,85.0,True,0,False,10.0,0.0,0.0,-10.0,7.871786504037574,0.10979990800459634
1760959749.2287178,11.81558108329773,0.0,0.0,0.0,0.0,0.0,-46.74390702111648,0.0,0.0,-0.06209523701206659,,,,,,,,,,,0.65,0.0,0.0,0.059982869992630646,-0.08796455772354185,0.012928757604019667,-1.911332812465628,-0.06534342164250753,0.14730852123636,-46.675031228101176,0.035105266473915715,0.004537539949663282,-0.062344353624478,,,,,,,,,,,,,,,,,stabilize,85.0,True,0,False,10.0,0.0,0.0,-10.0,8.08915581422956,0.07169231082796386
1760959749.3353193,11.922182559967041,0.0,0.0,0.0,0.0,0.0,-46.74389154427196,0.0,0.0,-0.07166089880742788,,,,,,,,,,,0.65,0.0,0.0,0.08474111307810489,-1.319911746664373,0.7299249998089986,-2.123456505853545,-0.019024719896961757,0.15573927466414733,-46.72691759051491,0.0353800289420524,0.008838022220790807,-0.08997061545960426,,,,,,,,,,,,,,,,,stabilize,85.0,True,0,False,10.0,0.0,0.0,-10.0,8.019656784396052,0.0970802180204373
1760959749.4425561,12.029419422149658,0.0,0.0,0.0,0.0,0.0,-46.74399987421101,0.0,0.0,-0.07622067447435572,,,,,,,,,,,0.65,0.0,0.0,-0.004079308151501139,-1.3225240498754953,0.748669330399024,-2.1650657741104307,-0.0305461332635127,0.19349849454290918,-46.72830929695995,0.03459936608828932,0.0065056187311559365,-0.02655228497654652,,,,,,,,,,,,,,,,,stabilize,85.0,True,0,False,10.0,0.0,0.0,-10.0,7.980962971521356,0.04409606610869466
1760959749.5498571,12.136720418930054,0.0,0.0,0.0,0.0,0.0,-46.74419706903583,0.0,0.0,-0.073179636524108,,,,,,,,,,,0.65,0.0,0.0,0.09020218823333215,0.6177063825853614,-0.1658879172810624,-2.397941850638312,-0.03070663984597746,0.16107336672211142,-46.66149552564105,0.03533803493205622,0.006347791910209176,-0.10063467038283214,,,,,,,,,,,,,,,,,stabilize,85.0,True,0,False,10.0,0.0,0.0,-10.0,7.628916573306002,0.10684759266383037
1760959749.6581159,12.2449791431427,0.0,0.0,0.0,0.0,0.0,-46.7440264330033,0.0,0.0,-0.06376139014013175,,,,,,,,,,,0.65,0.0,0.0,0.09309389003185342,-0.01614268494321621,-0.1099090072674423,-2.384856341832663,-0.04759172050312617,0.1533774067369111,-46.74484105720515,0.03446426058922022,0.007751869002384099,-0.10381195555189059,,,,,,,,,,,,,,,,,stabilize,85.0,True,0,False,10.0,0.0,0.0,-10.0,7.615953880551136,0.10965764381245617
1760959749.767546,12.354409217834473,0.0,0.0,0.0,0.0,0.0,-46.744091526483565,0.0,0.0,-0.05023857937453226,,,,,,,,,,,0.65,0.0,0.0,0.12188887751933311,-0.02144230413375632,-0.09121369522011054,-2.0231833736294336,-0.047685596151978926,0.1886243634018545,-46.74545935747617,0.03093594409454517,0.0011022780857629809,-0.13526382254318475,,,,,,,,,,,,,,,,,stabilize,85.0,True,0,False,10.0,0.0,0.0,-10.0,7.977366934104522,0.13876076298072648
1760959749.8741932,12.461056470870972,0.0,0.0,0.0,0.0,0.0,-46.7440210840372,0.0,0.0,-0.030066069976122864,,,,,,,,,,,0.65,0.0,0.0,-0.008948240401671704,-0.02651109331010257,-0.06919647326255354,-2.307854977666884,-0.04754885446049954,0.2232361414014954,-46.7448520078029,0.03267431018935625,0.00311681733652909,0.0055794533054579765,,,,,,,,,,,,,,,,,stabilize,85.0,True,0,False,10.0,0.0,0.0,-10.0,7.692501935949357,0.033293473772608106
1760959749.9799724,12.566835641860962,0.0,0.0,0.0,0.0,0.0,-46.74403731191289,0.0,0.0,-0.006105084817607309,,,,,,,,,,,0.65,0.0,0.0,-0.007898235573551255,-0.031697544323166904,-0.04375498184494028,-2.286038880728684,-0.05048260132928956,0.2578057215797145,-46.74467704219714,0.034250801581750936,0.0017102845082864332,-0.002385256451873548,,,,,,,,,,,,,,,,,stabilize,85.0,True,0,False,10.0,0.0,0.0,-10.0,7.714150334442668,0.034376328053370694
1760959750.0909302,12.677793502807617,0.0,0.0,0.0,0.0,0.0,-46.743879805124756,0.0,0.0,0.019151410911833703,,,,,,,,,,,0.65,0.0,0.0,-0.007128895460636764,-1.6103957774132747,0.22725871856198138,-2.136555291505245,-0.024381883564530776,0.08519566660892568,-46.76634595357922,0.03722735816345263,0.005330747988069599,-0.02106518223211811,,,,,,,,,,,,,,,,,stabilize,85.0,True,0,False,10.0,0.0,0.0,-10.0,8.029868228596726,0.04310492979248007
1760959750.1989403,12.78580355644226,0.0,0.0,0.0,0.0,0.0,-46.744211905122945,0.0,0.0,0.04350041632781404,,,,,,,,,,,0.65,0.0,0.0,-0.1236507684170185,-1.1266132591501345,1.0419399697879896,-2.4647456798142144,-0.03838499484523202,0.09327054461400325,-46.803236326674266,0.04358170833021938,0.0017223158468992437,0.12509775085776983,,,,,,,,,,,,,,,,,stabilize,85.0,True,0,False,10.0,0.0,0.0,-10.0,7.6899254876892815,0.13248312701068557
1760959750.3059819,12.892845153808594,0.0,0.0,0.0,0.0,0.0,-46.74431525129865,0.0,0.0,0.06189225218749406,,,,,,,,,,,0.65,0.0,0.0,-0.2,-1.5097640333393278,-0.16048113314802265,-2.2560073656966644,-0.021724256142661543,0.12460149671412446,-46.759723190106534,0.03418907854891959,0.0010909122446512752,0.20758655577537546,,,,,,,,,,,,,,,,,stabilize,85.0,True,0,False,10.0,0.0,0.0,-10.0,7.891423417268004,0.21038598175789372
1760959750.4170556,13.003918886184692,0.0,0.0,0.0,0.0,0.0,-46.74429883707084,0.0,0.0,0.07272721535053041,,,,,,,,,,,0.65,0.0,0.0,0.0015969045081185994,-1.9974779264468292,0.13365635168054132,-2.412411129822144,-0.040426281697535586,0.13421750740802071,-46.7633137875769,0.039411804153654854,0.0004792872891654009,-0.02774250825345856,,,,,,,,,,,,,,,,,stabilize,85.0,True,0,False,10.0,0.0,0.0,-10.0,7.847247093715971,0.04819924052456447
1760959750.5252242,13.112087488174438,0.0,0.0,0.0,0.0,0.0,-46.744225572065915,0.0,0.0,0.07931308909188689,,,,,,,,,,,0.65,0.0,0.0,-0.10150915156137261,-1.3268861499836668,0.016973497956963984,-2.636241284683305,0.03127817436892952,0.10832055674454953,-46.771286704271155,0.03717650285395114,0.002887119080487758,0.10774700138321017,,,,,,,,,,,,,,,,,stabilize,85.0,True,0,False,10.0,0.0,0.0,-10.0,7.482369769802476,0.11401685896440161
1760959750.6345139,13.22137713432312,0.0,0.0,0.0,0.0,0.0,-46.74410533384924,0.0,0.0,0.08351458052905088,,,,,,,,,,,0.65,0.0,0.0,0.0033222786477088125,-1.3958506792756393,-0.3664811355810459,-2.575218971626308,0.04557240966205888,0.05856586874120099,-46.733657279854455,0.03761950780216869,0.006686505698534192,0.04156338013128851,,,,,,,,,,,,,,,,,stabilize,85.0,True,0,False,10.0,0.0,0.0,-10.0,7.56373458424269,0.05645751760104185
1760959750.7429707,13.329833984375,0.0,0.0,0.0,0.0,0.0,-46.74403739857801,0.0,0.0,0.08267397287456499,,,,,,,,,,,0.65,0.0,0.0,0.06046568950122865,-0.9308432338885864,0.4907494254800993,-2.35542308312431,0.00048378993379442404,0.0438556797435105,-46.73451833770199,0.038971787296665845,0.00580132208727868,-0.05820533080454121,,,,,,,,,,,,,,,,,stabilize,85.0,True,0,False,10.0,0.0,0.0,-10.0,7.716661218604445,0.07028738206195324
1760959750.853167,13.440030336380005,0.0,0.0,0.0,0.0,0.0,-46.744114778343736,0.0,0.0,0.07604774643430139,,,,,,,,,,,0.65,0.0,0.0,0.006195304659795223,-0.9313992607322302,0.49776601084698624,-2.1033489494016195,-0.011417984345880377,0.08385951996873318,-46.73506889384812,0.038460785468569784,0.009711497311008982,-0.026387589420235613,,,,,,,,,,,,,,,,,stabilize,85.0,True,0,False,10.0,0.0,0.0,-10.0,7.9669550895786765,0.04764294359390501
1760959750.9608643,13.547727584838867,0.0,0.0,0.0,0.0,0.0,-46.744025215999216,0.0,0.0,0.06587741351855415,,,,,,,,,,,0.65,0.0,0.0,-0.16173448793066858,-1.2950418808923012,1.1217303599972082,-1.9437964997421078,0.01633614856112945,0.11637106216154351,-46.69972222049758,0.038294827543215816,0.010977869099264565,0.1747529625717603,,,,,,,,,,,,,,,,,stabilize,85.0,True,0,False,10.0,0.0,0.0,-10.0,8.236372217874326,0.1792361720025628
1760959751.0710168,13.657880067825317,0.0,0.0,0.0,0.0,0.0,-46.74405080841262,0.0,0.0,0.04870887615813542,,,,,,,,,,,0.65,0.0,0.0,-0.046402710939418036,-1.2881707361718249,1.5234340042075434,-2.261005977798482,0.008210034045635892,0.11898144308552717,-46.7109379528725,0.0391904298594091,0.015648514046254593,0.05657589959975774,,,,,,,,,,,,,,,,,stabilize,85.0,True,0,False,10.0,0.0,0.0,-10.0,7.992012480369142,0.0705804377993149
1760959751.1759949,13.762858152389526,0.0,0.0,0.0,0.0,0.0,-46.74394060278436,0.0,0.0,0.027123573809609204,,,,,,,,,,,0.65,0.0,0.0,0.007744347597173564,-1.2882557783465287,1.538107201378905,-2.0592906744499637,-0.008133226620995776,0.15795431981480273,-46.70925151951465,0.03500390356997286,0.011810359195734834,-0.022394743497160093,,,,,,,,,,,,,,,,,stabilize,85.0,True,0,False,10.0,0.0,0.0,-10.0,8.190252823097355,0.04320049057327743
1760959751.2808127,13.867676019668579,0.0,0.0,0.0,0.0,0.0,-46.743858548530696,0.0,0.0,0.004237831679106803,,,,,,,,,,,0.65,0.0,0.0,-0.1646751748154391,-1.739798600943127,1.0764228508854432,-1.8922820264750264,0.06626638085286905,0.13796402523995888,-46.742737210521945,0.03702553729204516,0.014006528180754766,0.1788769671956023,,,,,,,,,,,,,,,,,stabilize,85.0,True,0,False,10.0,0.0,0.0,-10.0,8.361858409706057,0.18320491979349104
1760959751.387271,13.97413420677185,0.0,0.0,0.0,0.0,0.0,-46.743676467360665,0.0,0.0,-0.02143460264477554,,,,,,,,,,,0.65,0.0,0.0,0.006700341455999574,-1.7336022334378558,1.0931984177364857,-2.1152597679502323,0.05197463449173993,0.17840384706675763,-46.7427350471332,0.04280138053334775,0.011711365589493575,-0.011376342770073905,,,,,,,,,,,,,,,,,stabilize,85.0,True,0,False,10.0,0.0,0.0,-10.0,8.146753218996295,0.04580977444119788
1760959751.4943411,14.081204414367676,0.0,0.0,0.0,0.0,0.0,-46.74371307852422,0.0,0.0,-0.04876644915952993,,,,,,,,,,,0.65,0.0,0.0,0.13323776744280413,-1.7287149734996836,1.1146334997589702,-2.172207000022467,0.041577741882742006,0.2224758447534452,-46.743175137009274,0.04441184371013476,0.009870439403017548,-0.1328422038470124,,,,,,,,,,,,,,,,,stabilize,85.0,True,0,False,10.0,0.0,0.0,-10.0,8.093528683391702,0.1404168385866641
1760959751.601148,14.188011169433594,0.0,0.0,0.0,0.0,0.0,-46.74379524305549,0.0,0.0,-0.07072298392877338,,,,,,,,,,,0.65,0.0,0.0,0.12019115337680726,-0.04777380896212173,-0.3711414945766561,-2.184164937702637,-0.021622547283456868,0.1464528327354549,-46.78519003085267,0.04637317465790864,0.018264837980382753,-0.12264714337000426,,,,,,,,,,,,,,,,,stabilize,85.0,True,0,False,10.0,0.0,0.0,-10.0,7.824787924720783,0.13238730079250394
1760959751.7074258,14.294289112091064,0.0,0.0,0.0,0.0,0.0,-46.74386069982622,0.0,0.0,-0.08542639345730768,,,,,,,,,,,0.65,0.0,0.0,0.06552351991142644,0.08093113328529808,-0.8015186185177667,-2.0600639712644506,-0.03156226533310139,0.10446922569648304,-46.718210533820816,0.03967765688637027,0.02207574398865895,-0.0685829776124662,,,,,,,,,,,,,,,,,stabilize,85.0,True,0,False,10.0,0.0,0.0,-10.0,7.980699598692982,0.08225132063886499
1760959751.8146873,14.401550531387329,0.0,0.0,0.0,0.0,0.0,-46.743653291250645,0.0,0.0,-0.0976933656278825,,,,,,,,,,,0.65,0.0,0.0,-0.00021368105954558213,0.4426064862853202,-1.719133768974201,-2.120776391316231,-0.0021865025863604106,0.15360989679645753,-46.66278991538654,0.038594967931782874,0.017531599254668958,0.02549353476097995,,,,,,,,,,,,,,,,,stabilize,85.0,True,0,False,10.0,0.0,0.0,-10.0,8.076724960834618,0.04946563288477113
1760959751.9213805,14.508243799209595,0.0,0.0,0.0,0.0,0.0,-46.74397558246391,0.0,0.0,-0.10503529643550763,,,,,,,,,,,0.65,0.0,0.0,0.13855829501308042,0.44188536379816995,-1.7005301979565088,-2.022407982794009,-0.011373370729630464,0.1967211416444649,-46.66022495157045,0.03782623279900085,0.013489889044234378,-0.14841769691103818,,,,,,,,,,,,,,,,,stabilize,85.0,True,0,False,10.0,0.0,0.0,-10.0,8.168784488642714,0.15375504463453143
1760959752.0270324,14.613895654678345,0.0,0.0,0.0,0.0,0.0,-46.74402064648979,0.0,0.0,-0.10376088251241287,,,,,,,,,,,0.65,0.0,0.0,-0.006361460320008446,-0.256934773749093,-1.5150291820549846,-2.279198698677611,0.06039005533941997,0.1509903580081373,-46.742157246537914,0.03648968427736634,0.015146570351131098,-0.04480401396218482,,,,,,,,,,,,,,,,,stabilize,85.0,True,0,False,10.0,0.0,0.0,-10.0,7.872236126726713,0.05973537745078114
