timestamp,simulation_time,position_x,position_y,position_z,velocity_x,velocity_y,velocity_z,attitude_roll,attitude_pitch,attitude_yaw,control_throttle,control_roll,control_pitch,control_yaw,estimated_position_x,estimated_position_y,estimated_position_z,flight_mode,battery_level,setpoint_altitude,setpoint_position_x,setpoint_position_y,setpoint_position_z,position_error,attitude_error,waypoint_index,mission_complete
1761142545.4440334,0.1031656265258789,0.0,0.0,-0.0,0.0,0.0,-0.0,0.0,0.0,0.0,0.0,0.0,0.0,0.0,0.0,0.0,-0.0,manual,85.0,0.0,0.0,0.0,0.0,0.0,0.0,0,0
1761142545.567153,0.22628521919250488,0.0,0.0,-0.0,0.0,0.0,-0.0,0.0,0.0,0.0,0.0,0.0,0.0,0.0,0.0,0.0,-0.0,manual,85.0,0.0,0.0,0.0,0.0,0.0,0.0,0,0
1761142545.6692832,0.3284153938293457,0.0,0.0,-0.0,0.0,0.0,-0.0,0.0,0.0,0.0,0.0,0.0,0.0,0.0,0.0,0.0,-0.0,manual,85.0,0.0,0.0,0.0,0.0,0.0,0.0,0,0
1761142545.7734742,0.43260645866394043,0.0,0.0,-0.0,0.0,0.0,-0.0,0.0,0.0,0.0,0.0,0.0,0.0,0.0,0.0,0.0,-0.0,manual,85.0,0.0,0.0,0.0,0.0,0.0,0.0,0,0
1761142545.8748946,0.5340268611907959,0.0,0.0,-0.0,0.0,0.0,-0.0,0.0,0.0,0.0,0.0,0.0,0.0,0.0,0.0,0.0,-0.0,manual,85.0,0.0,0.0,0.0,0.0,0.0,0.0,0,0
1761142545.978506,0.6376383304595947,0.0,0.0,-0.0,0.0,0.0,-0.0,0.0,0.0,0.0,0.0,0.0,0.0,0.0,0.0,0.0,-0.0,manual,85.0,0.0,0.0,0.0,0.0,0.0,0.0,0,0
1761142546.0830743,0.7422065734863281,0.0,0.0,-0.0,0.0,0.0,-0.0,0.0,0.0,0.0,0.0,0.0,0.0,0.0,0.0,0.0,-0.0,manual,85.0,0.0,0.0,0.0,0.0,0.0,0.0,0,0
1761142546.1870587,0.8461909294128418,0.0,0.0,-0.0,0.0,0.0,-0.0,0.0,0.0,0.0,0.0,0.0,0.0,0.0,0.0,0.0,-0.0,manual,85.0,0.0,0.0,0.0,0.0,0.0,0.0,0,0
1761142546.2928104,0.9519426822662354,0.0,0.0,-0.0,0.0,0.0,-0.0,0.0,0.0,0.0,0.0,0.0,0.0,0.0,0.0,0.0,-0.0,manual,85.0,0.0,0.0,0.0,0.0,0.0,0.0,0,0
1761142546.3946056,1.0537378787994385,0.0,0.0,-0.0,0.0,0.0,-0.0,0.0,0.0,0.0,0.0,0.0,0.0,0.0,0.0,0.0,-0.0,manual,85.0,0.0,0.0,0.0,0.0,0.0,0.0,0,0
1761142546.5012224,1.1603546142578125,0.0,0.0,-0.0,0.0,0.0,-0.0,0.0,0.0,0.0,0.0,0.0,0.0,0.0,0.0,0.0,-0.0,manual,85.0,0.0,0.0,0.0,0.0,0.0,0.0,0,0
1761142546.6046872,1.2638194561004639,0.0,0.0,-0.0,0.0,0.0,-0.0,0.0,0.0,0.0,0.0,0.0,0.0,0.0,0.0,0.0,-0.0,manual,85.0,0.0,0.0,0.0,0.0,0.0,0.0,0,0
1761142546.7080479,1.3671801090240479,0.0,0.0,-0.0,0.0,0.0,-0.0,0.0,0.0,0.0,0.0,0.0,0.0,0.0,0.0,0.0,-0.0,manual,85.0,0.0,0.0,0.0,0.0,0.0,0.0,0,0
1761142546.81347,1.472602128982544,0.0,0.0,-0.0,0.0,0.0,-0.0,0.0,0.0,0.0,0.0,0.0,0.0,0.0,0.0,0.0,-0.0,manual,85.0,0.0,0.0,0.0,0.0,0.0,0.0,0,0
1761142546.916277,1.575409173965454,0.0,0.0,-0.0,0.0,0.0,-0.0,0.0,0.0,0.0,0.0,0.0,0.0,0.0,0.0,0.0,-0.0,manual,85.0,0.0,0.0,0.0,0.0,0.0,0.0,0,0
1761142547.0198996,1.6790318489074707,0.0,0.0,-0.0,0.0,0.0,-0.0,0.0,0.0,0.0,0.0,0.0,0.0,0.0,0.0,0.0,-0.0,manual,85.0,0.0,0.0,0.0,0.0,0.0,0.0,0,0
1761142547.1301227,1.789254903793335,0.0,0.0,-0.0,0.0,0.0,-0.0,0.0,0.0,0.0,0.0,0.0,0.0,0.0,0.0,0.0,-0.0,manual,85.0,0.0,0.0,0.0,0.0,0.0,0.0,0,0
1761142547.2345338,1.8936660289764404,0.0,0.0,-0.0,0.0,0.0,-0.0,0.0,0.0,0.0,0.0,0.0,0.0,0.0,0.0,0.0,-0.0,manual,85.0,0.0,0.0,0.0,0.0,0.0,0.0,0,0
1761142547.3368878,1.9960200786590576,0.0,0.0,-0.0,0.0,0.0,-0.0,0.0,0.0,0.0,0.0,0.0,0.0,0.0,0.0,0.0,-0.0,manual,85.0,0.0,0.0,0.0,0.0,0.0,0.0,0,0
1761142547.4395664,2.098698616027832,0.0,0.0,-0.0,0.0,0.0,-0.0,0.0,0.0,0.0,0.0,0.0,0.0,0.0,0.0,0.0,-0.0,manual,85.0,0.0,0.0,0.0,0.0,0.0,0.0,0,0
1761142547.5434399,2.2025721073150635,0.0,0.0,-0.0,0.0,0.0,-0.0,0.0,0.0,0.0,0.0,0.0,0.0,0.0,0.0,0.0,-0.0,manual,85.0,0.0,0.0,0.0,0.0,0.0,0.0,0,0
1761142547.6449075,2.304039716720581,0.0,0.0,-0.0,0.0,0.0,-0.0,0.0,0.0,0.0,0.0,0.0,0.0,0.0,0.0,0.0,-0.0,manual,85.0,0.0,0.0,0.0,0.0,0.0,0.0,0,0
1761142547.748402,2.40753436088562,0.0,0.0,-0.0,0.0,0.0,-0.0,0.0,0.0,0.0,0.0,0.0,0.0,0.0,0.0,0.0,-0.0,manual,85.0,0.0,0.0,0.0,0.0,0.0,0.0,0,0
1761142547.8491445,2.5082767009735107,0.0,0.0,-0.0,0.0,0.0,-0.0,0.0,0.0,0.0,0.0,0.0,0.0,0.0,0.0,0.0,-0.0,manual,85.0,0.0,0.0,0.0,0.0,0.0,0.0,0,0
1761142547.95363,2.612762212753296,0.0,0.0,-0.0,0.0,0.0,-0.0,0.0,0.0,0.0,0.0,0.0,0.0,0.0,0.0,0.0,-0.0,manual,85.0,0.0,0.0,0.0,0.0,0.0,0.0,0,0
1761142548.05743,2.716562271118164,0.0,0.0,-0.0,0.0,0.0,-0.0,0.0,0.0,0.0,0.0,0.0,0.0,0.0,0.0,0.0,-0.0,manual,85.0,0.0,0.0,0.0,0.0,0.0,0.0,0,0
1761142548.159971,2.819103240966797,0.0,0.0,-0.0,0.0,0.0,-0.0,0.0,0.0,0.0,0.0,0.0,0.0,0.0,0.0,0.0,-0.0,manual,85.0,0.0,0.0,0.0,0.0,0.0,0.0,0,0
1761142548.2643683,2.9235005378723145,0.0,0.0,-0.0,0.0,0.0,-0.0,0.0,0.0,0.0,0.0,0.0,0.0,0.0,0.0,0.0,-0.0,manual,85.0,0.0,0.0,0.0,0.0,0.0,0.0,0,0
1761142548.3750715,3.0342037677764893,0.0,0.0,0.0099093239050064,0.0,0.0,0.27307314076133543,0.0,0.0,0.0,0.75,0.0,0.0,0.0,0.0,0.0,0.0099093239050064,stabilize,85.0,2.0,0.0,0.0,-2.0,1.9900906760949937,0.0,0,0
1761142548.4798293,3.1389615535736084,0.0,0.0,0.04878668345388225,0.0,0.0,0.38062135267024794,0.0,0.0,0.0,0.35,0.0,0.0,0.0,0.0,0.0,0.04878668345388225,stabilize,85.0,2.0,0.0,0.0,-2.0,1.9512133165461178,0.0,0,0
1761142548.5846224,3.2437546253204346,0.0,0.0,0.09161649082894549,0.0,0.0,0.3967539625934457,0.0,0.0,0.0,0.35,0.0,0.0,0.0,0.0,0.0,0.09161649082894549,stabilize,85.0,2.0,0.0,0.0,-2.0,1.9083835091710546,0.0,0,0
1761142548.689038,3.348170280456543,0.0,0.0,0.13614641245226958,0.0,0.0,0.41761603959939986,0.0,0.0,0.0,0.35,0.0,0.0,0.0,0.0,0.0,0.13614641245226958,stabilize,85.0,2.0,0.0,0.0,-2.0,1.8638535875477305,0.0,0,0
1761142548.7936866,3.4528188705444336,0.0,0.0,0.18271374974288976,0.0,0.0,0.432726513198168,0.0,0.0,0.0,0.35,0.0,0.0,0.0,0.0,0.0,0.18271374974288976,stabilize,85.0,2.0,0.0,0.0,-2.0,1.8172862502571103,0.0,0,0
1761142548.8967922,3.555924415588379,0.0,0.0,0.22979183204561623,0.0,0.0,0.44372173610343313,0.0,0.0,0.0,0.35,0.0,0.0,0.0,0.0,0.0,0.22979183204561623,stabilize,85.0,2.0,0.0,0.0,-2.0,1.7702081679543837,0.0,0,0
1761142549.0038755,3.6630077362060547,0.0,0.0,0.28007427064915746,0.0,0.0,0.4574794236898313,0.0,0.0,0.0,0.35,0.0,0.0,0.0,0.0,0.0,0.28007427064915746,stabilize,85.0,2.0,0.0,0.0,-2.0,1.7199257293508425,0.0,0,0
1761142549.1082335,3.7673656940460205,0.0,0.0,0.3305832787479744,0.0,0.0,0.47160443000489477,0.0,0.0,0.0,0.35,0.0,0.0,0.0,0.0,0.0,0.3305832787479744,stabilize,85.0,2.0,0.0,0.0,-2.0,1.6694167212520257,0.0,0,0
1761142549.2137368,3.8728690147399902,0.0,0.0,0.3828055197418612,0.0,0.0,0.48103701996988707,0.0,0.0,0.0,0.35,0.0,0.0,0.0,0.0,0.0,0.3828055197418612,stabilize,85.0,2.0,0.0,0.0,-2.0,1.6171944802581388,0.0,0,0
1761142549.3175693,3.976701498031616,0.0,0.0,0.435279803743902,0.0,0.0,0.4874283023731642,0.0,0.0,0.0,0.35,0.0,0.0,0.0,0.0,0.0,0.435279803743902,stabilize,85.0,2.0,0.0,0.0,-2.0,1.564720196256098,0.0,0,0
1761142549.42156,4.080692291259766,0.0,0.0,0.4886222103084144,0.0,0.0,0.501520977962262,0.0,0.0,0.0,0.35,0.0,0.0,0.0,0.0,0.0,0.4886222103084144,stabilize,85.0,2.0,0.0,0.0,-2.0,1.5113777896915856,0.0,0,0
1761142549.5257213,4.184853553771973,0.0,0.0,0.5411802533584111,0.0,0.0,0.4895731456319155,0.0,0.0,0.0,0.35,0.0,0.0,0.0,0.0,0.0,0.5411802533584111,stabilize,85.0,2.0,0.0,0.0,-2.0,1.4588197466415889,0.0,0,0
1761142549.6296465,4.288778781890869,0.0,0.0,0.5946174297134659,0.0,0.0,0.49951471973226785,0.0,0.0,0.0,0.35,0.0,0.0,0.0,0.0,0.0,0.5946174297134659,stabilize,85.0,2.0,0.0,0.0,-2.0,1.4053825702865341,0.0,0,0
1761142549.7357774,4.394909620285034,0.0,0.0,0.6490861201961162,0.0,0.0,0.49524638850115155,0.0,0.0,0.0,0.35,0.0,0.0,0.0,0.0,0.0,0.6490861201961162,stabilize,85.0,2.0,0.0,0.0,-2.0,1.3509138798038838,0.0,0,0
1761142549.840554,4.499686241149902,0.0,0.0,0.7026035988942747,0.0,0.0,0.4917683778208924,0.0,0.0,0.0,0.35,0.0,0.0,0.0,0.0,0.0,0.7026035988942747,stabilize,85.0,2.0,0.0,0.0,-2.0,1.2973964011057253,0.0,0,0
1761142549.9443746,4.603506803512573,0.0,0.0,0.7546202811703037,0.0,0.0,0.4758767494682013,0.0,0.0,0.0,0.35,0.0,0.0,0.0,0.0,0.0,0.7546202811703037,stabilize,85.0,2.0,0.0,0.0,-2.0,1.2453797188296964,0.0,0,0
1761142550.04771,4.7068421840667725,0.0,0.0,0.8056810503739701,0.0,0.0,0.4732012603014886,0.0,0.0,0.0,0.35,0.0,0.0,0.0,0.0,0.0,0.8056810503739701,stabilize,85.0,2.0,0.0,0.0,-2.0,1.1943189496260298,0.0,0,0
1761142550.1538396,4.812971830368042,0.0,0.0,0.8573028658878916,0.0,0.0,0.46032968087294046,0.0,0.0,0.0,0.35,0.0,0.0,0.0,0.0,0.0,0.8573028658878916,stabilize,85.0,2.0,0.0,0.0,-2.0,1.1426971341121084,0.0,0,0
1761142550.2565846,4.915716886520386,0.0,0.0,0.9058457153693851,0.0,0.0,0.4490754559881023,0.0,0.0,0.0,0.35,0.0,0.0,0.0,0.0,0.0,0.9058457153693851,stabilize,85.0,2.0,0.0,0.0,-2.0,1.094154284630615,0.0,0,0
1761142550.3595564,5.018688678741455,0.0,0.0,0.9531949208546465,0.0,0.0,0.43471477100373457,0.0,0.0,0.0,0.35,0.0,0.0,0.0,0.0,0.0,0.9531949208546465,stabilize,85.0,2.0,0.0,0.0,-2.0,1.0468050791453534,0.0,0,0
1761142550.4630218,5.122153997421265,0.0,0.0,0.9993661851836093,0.0,0.0,0.4218414024259209,0.0,0.0,0.0,0.35,0.0,0.0,0.0,0.0,0.0,0.9993661851836093,stabilize,85.0,2.0,0.0,0.0,-2.0,1.0006338148163907,0.0,0,0
1761142550.5652833,5.22441554069519,0.0,0.0,1.0411031552102588,0.0,0.0,0.38764748682884204,0.0,0.0,0.0,0.35,0.0,0.0,0.0,0.0,0.0,1.0411031552102588,stabilize,85.0,2.0,0.0,0.0,-2.0,0.9588968447897412,0.0,0,0
1761142550.6699805,5.329112768173218,0.0,0.0,1.0841888469449907,0.0,0.0,0.3848150772793893,0.0,0.0,0.0,0.35,0.0,0.0,0.0,0.0,0.0,1.0841888469449907,stabilize,85.0,2.0,0.0,0.0,-2.0,0.9158111530550093,0.0,0,0
1761142550.7751431,5.434275388717651,0.0,0.0,1.1263247036432904,0.0,0.0,0.37501129260039073,0.0,0.0,0.0,0.35,0.0,0.0,0.0,0.0,0.0,1.1263247036432904,stabilize,85.0,2.0,0.0,0.0,-2.0,0.8736752963567096,0.0,0,0
1761142550.87988,5.53901219367981,0.0,0.0,1.1677150624714243,0.0,0.0,0.3777290370925669,0.0,0.0,0.0,0.35,0.0,0.0,0.0,0.0,0.0,1.1677150624714243,stabilize,85.0,2.0,0.0,0.0,-2.0,0.8322849375285757,0.0,0,0
1761142550.9856753,5.644807577133179,0.0,0.0,1.2088323324034604,0.0,0.0,0.3708047279242098,0.0,0.0,0.0,0.35,0.0,0.0,0.0,0.0,0.0,1.2088323324034604,stabilize,85.0,2.0,0.0,0.0,-2.0,0.7911676675965396,0.0,0,0
1761142551.0894845,5.748616695404053,0.0,0.0,1.2479684229948862,0.0,0.0,0.3530572940305636,0.0,0.0,0.0,0.35,0.0,0.0,0.0,0.0,0.0,1.2479684229948862,stabilize,85.0,2.0,0.0,0.0,-2.0,0.7520315770051138,0.0,0,0
1761142551.193818,5.85295033454895,0.0,0.0,1.2862258629828545,0.0,0.0,0.3460467306714556,0.0,0.0,0.0,0.35,0.0,0.0,0.0,0.0,0.0,1.2862258629828545,stabilize,85.0,2.0,0.0,0.0,-2.0,0.7137741370171455,0.0,0,0
1761142551.297484,5.956616163253784,0.0,0.0,1.3234407550089333,0.0,0.0,0.33538121841500235,0.0,0.0,0.0,0.35,0.0,0.0,0.0,0.0,0.0,1.3234407550089333,stabilize,85.0,2.0,0.0,0.0,-2.0,0.6765592449910667,0.0,0,0
1761142551.4023695,6.061501741409302,0.0,0.0,1.3600752295513836,0.0,0.0,0.31045190164363257,0.0,0.0,0.0,0.35,0.0,0.0,0.0,0.0,0.0,1.3600752295513836,stabilize,85.0,2.0,0.0,0.0,-2.0,0.6399247704486164,0.0,0,0
1761142551.5128074,6.1719396114349365,0.0,0.0,1.3963025939249458,0.0,0.0,0.34566960933476887,0.0,0.0,0.0,0.75,0.0,0.0,0.0,0.0,0.0,1.3963025939249458,stabilize,85.0,2.0,0.0,0.0,-2.0,0.6036974060750542,0.0,0,0
1761142551.6169412,6.276073455810547,0.0,0.0,1.4282066063739183,0.0,0.0,0.3275777912091498,0.0,0.0,0.0,0.75,0.0,0.0,0.0,0.0,0.0,1.4282066063739183,stabilize,85.0,2.0,0.0,0.0,-2.0,0.5717933936260817,0.0,0,0
1761142551.7195494,6.378681659698486,0.0,0.0,1.4593610543175901,0.0,0.0,0.3147108308407942,0.0,0.0,0.0,0.7080465259388258,0.0,0.0,0.0,0.0,0.0,1.4593610543175901,stabilize,85.0,2.0,0.0,0.0,-2.0,0.5406389456824099,0.0,0,0
1761142551.8236618,6.4827940464019775,0.0,0.0,1.488935154074695,0.0,0.0,0.2974887179092592,0.0,0.0,0.0,0.75,0.0,0.0,0.0,0.0,0.0,1.488935154074695,stabilize,85.0,2.0,0.0,0.0,-2.0,0.5110648459253051,0.0,0,0
1761142551.9270625,6.586194753646851,0.0,0.0,1.5173787972259072,0.0,0.0,0.294107437089653,0.0,0.0,0.0,0.75,0.0,0.0,0.0,0.0,0.0,1.5173787972259072,stabilize,85.0,2.0,0.0,0.0,-2.0,0.4826212027740928,0.0,0,0
1761142552.0312467,6.690378904342651,0.0,0.0,1.5447211431027095,0.0,0.0,0.28261835648467976,0.0,0.0,0.0,0.75,0.0,0.0,0.0,0.0,0.0,1.5447211431027095,stabilize,85.0,2.0,0.0,0.0,-2.0,0.45527885689729053,0.0,0,0
1761142552.1379397,6.797071933746338,0.0,0.0,1.5718806783457187,0.0,0.0,0.2679382195480552,0.0,0.0,0.0,0.75,0.0,0.0,0.0,0.0,0.0,1.5718806783457187,stabilize,85.0,2.0,0.0,0.0,-2.0,0.42811932165428135,0.0,0,0
1761142552.241148,6.900280237197876,0.0,0.0,1.596586710220027,0.0,0.0,0.2379450326563531,0.0,0.0,0.0,0.6249786115253476,0.0,0.0,0.0,0.0,0.0,1.596586710220027,stabilize,85.0,2.0,0.0,0.0,-2.0,0.40341328977997293,0.0,0,0
1761142552.348277,7.007409334182739,0.0,0.0,1.620405705198529,0.0,0.0,0.24469388250664026,0.0,0.0,0.0,0.75,0.0,0.0,0.0,0.0,0.0,1.620405705198529,stabilize,85.0,2.0,0.0,0.0,-2.0,0.379594294801471,0.0,0,0
1761142552.4529378,7.112070083618164,0.0,0.0,1.6431676751359334,0.0,0.0,0.2312491249823558,0.0,0.0,0.0,0.75,0.0,0.0,0.0,0.0,0.0,1.6431676751359334,stabilize,85.0,2.0,0.0,0.0,-2.0,0.3568323248640666,0.0,0,0
1761142552.555817,7.214949131011963,0.0,0.0,1.6652671781291022,0.0,0.0,0.23215823626747822,0.0,0.0,0.0,0.75,0.0,0.0,0.0,0.0,0.0,1.6652671781291022,stabilize,85.0,2.0,0.0,0.0,-2.0,0.3347328218708978,0.0,0,0
1761142552.6630938,7.322226047515869,0.0,0.0,1.6877069107972678,0.0,0.0,0.22902971699658992,0.0,0.0,0.0,0.75,0.0,0.0,0.0,0.0,0.0,1.6877069107972678,stabilize,85.0,2.0,0.0,0.0,-2.0,0.31229308920273224,0.0,0,0
1761142552.7670197,7.426151990890503,0.0,0.0,1.7099234068158389,0.0,0.0,0.22395446298533253,0.0,0.0,0.0,0.6909852651229674,0.0,0.0,0.0,0.0,0.0,1.7099234068158389,stabilize,85.0,2.0,0.0,0.0,-2.0,0.2900765931841611,0.0,0,0
1761142552.87098,7.530112266540527,0.0,0.0,1.7315304680527142,0.0,0.0,0.20629822313453816,0.0,0.0,0.0,0.6209557362227481,0.0,0.0,0.0,0.0,0.0,1.7315304680527142,stabilize,85.0,2.0,0.0,0.0,-2.0,0.26846953194728584,0.0,0,0
1761142552.9753911,7.634523391723633,0.0,0.0,1.7511555314982583,0.0,0.0,0.2114043078074827,0.0,0.0,0.0,0.75,0.0,0.0,0.0,0.0,0.0,1.7511555314982583,stabilize,85.0,2.0,0.0,0.0,-2.0,0.2488444685017417,0.0,0,0
1761142553.0841618,7.74329400062561,0.0,0.0,1.7697732693737716,0.0,0.0,0.1541347975795525,0.0,0.0,0.0,0.35,0.0,0.0,0.0,0.0,0.0,1.7697732693737716,stabilize,85.0,2.0,0.0,0.0,-2.0,0.23022673062622845,0.0,0,0
1761142553.1861753,7.8453075885772705,0.0,0.0,1.78738823372645,0.0,0.0,0.1552050608490072,0.0,0.0,0.0,0.35,0.0,0.0,0.0,0.0,0.0,1.78738823372645,stabilize,85.0,2.0,0.0,0.0,-2.0,0.21261176627355005,0.0,0,0
1761142553.2881527,7.947284936904907,0.0,0.0,1.8046629354102242,0.0,0.0,0.15332116651944222,0.0,0.0,0.0,0.35,0.0,0.0,0.0,0.0,0.0,1.8046629354102242,stabilize,85.0,2.0,0.0,0.0,-2.0,0.19533706458977584,0.0,0,0
1761142553.3930063,8.052138566970825,0.0,0.0,1.8210881680095286,0.0,0.0,0.12903688140242486,0.0,0.0,0.0,0.35,0.0,0.0,0.0,0.0,0.0,1.8210881680095286,stabilize,85.0,2.0,0.0,0.0,-2.0,0.17891183199047145,0.0,0,0
1761142553.4991255,8.158257722854614,0.0,0.0,1.836399740346717,0.0,0.0,0.125670727004553,0.0,0.0,0.0,0.35,0.0,0.0,0.0,0.0,0.0,1.836399740346717,stabilize,85.0,2.0,0.0,0.0,-2.0,0.16360025965328306,0.0,0,0
1761142553.6035626,8.262694835662842,0.0,0.0,1.8505389935274952,0.0,0.0,0.10988412042470169,0.0,0.0,0.0,0.35,0.0,0.0,0.0,0.0,0.0,1.8505389935274952,stabilize,85.0,2.0,0.0,0.0,-2.0,0.14946100647250482,0.0,0,0
1761142553.7076037,8.366735935211182,0.0,0.0,1.8643468197800483,0.0,0.0,0.10315632804149621,0.0,0.0,0.0,0.35,0.0,0.0,0.0,0.0,0.0,1.8643468197800483,stabilize,85.0,2.0,0.0,0.0,-2.0,0.13565318021995165,0.0,0,0
1761142553.8098197,8.468951940536499,0.0,0.0,1.8765260632177607,0.0,0.0,0.04982965388314395,0.0,0.0,0.0,0.35,0.0,0.0,0.0,0.0,0.0,1.8765260632177607,stabilize,85.0,2.0,0.0,0.0,-2.0,0.12347393678223928,0.0,0,0
1761142553.913889,8.573021173477173,0.0,0.0,1.886518207489161,0.0,0.0,0.11982340271291947,0.0,0.0,0.0,0.75,0.0,0.0,0.0,0.0,0.0,1.886518207489161,stabilize,85.0,2.0,0.0,0.0,-2.0,0.1134817925108389,0.0,0,0
1761142554.0163016,8.675433874130249,0.0,0.0,1.8973211439290987,0.0,0.0,0.12830837205738996,0.0,0.0,0.0,0.75,0.0,0.0,0.0,0.0,0.0,1.8973211439290987,stabilize,85.0,2.0,0.0,0.0,-2.0,0.10267885607090133,0.0,0,0
1761142554.1233795,8.782511711120605,0.0,0.0,1.9084578926128595,0.0,0.0,0.12815775032577909,0.0,0.0,0.0,0.75,0.0,0.0,0.0,0.0,0.0,1.9084578926128595,stabilize,85.0,2.0,0.0,0.0,-2.0,0.09154210738714053,0.0,0,0
1761142554.2271936,8.88632583618164,0.0,0.0,1.9198151869423803,0.0,0.0,0.13239551718952017,0.0,0.0,0.0,0.7478168775162297,0.0,0.0,0.0,0.0,0.0,1.9198151869423803,stabilize,85.0,2.0,0.0,0.0,-2.0,0.08018481305761971,0.0,0,0
1761142554.3323624,8.99149465560913,0.0,0.0,1.9314028581349993,0.0,0.0,0.1311045780483207,0.0,0.0,0.0,0.75,0.0,0.0,0.0,0.0,0.0,1.9314028581349993,stabilize,85.0,2.0,0.0,0.0,-2.0,0.06859714186500065,0.0,0,0
1761142554.436933,9.096065282821655,0.0,0.0,1.9352958897630115,0.0,0.0,0.006429473037892715,0.0,0.0,0.0,0.35,0.0,0.0,0.0,0.0,0.0,1.9352958897630115,auto,85.0,1.929669746123917,0.0,0.0,0.0,1.9352958897630115,0.0,0,0
1761142554.5410857,9.200217962265015,0.0,0.0,1.9383109989315828,0.0,0.0,0.015424907844735075,0.0,0.0,0.0,0.35,0.0,0.0,0.0,0.0,0.0,1.9383109989315828,auto,85.0,1.9328577105244733,0.0,0.0,0.0,1.9383109989315828,0.0,0,0
1761142554.6459012,9.305033445358276,0.0,0.0,1.9424656333292614,0.0,0.0,0.025146561500117473,0.0,0.0,0.0,0.35,0.0,0.0,0.0,0.0,0.0,1.9424656333292614,auto,85.0,1.9369650045788924,0.0,0.0,0.0,1.9424656333292614,0.0,0,0
1761142554.7531724,9.412304639816284,0.0,0.0,1.9478695446330447,0.0,0.0,0.03462403941543209,0.0,0.0,0.0,0.35,0.0,0.0,0.0,0.0,0.0,1.9478695446330447,auto,85.0,1.9414851627298697,0.0,0.0,0.0,1.9478695446330447,0.0,0,0
1761142554.8585107,9.517642974853516,0.0,0.0,1.9537447723764247,0.0,0.0,0.03998551443147805,0.0,0.0,0.0,0.35,0.0,0.0,0.0,0.0,0.0,1.9537447723764247,auto,85.0,1.9480038743681305,0.0,0.0,0.0,1.9537447723764247,0.0,0,0
1761142554.9653115,9.624443769454956,0.0,0.0,1.9600889141795936,0.0,0.0,0.03967320373060149,0.0,0.0,0.0,0.35,0.0,0.0,0.0,0.0,0.0,1.9600889141795936,auto,85.0,1.9540785107624563,0.0,0.0,0.0,1.9600889141795936,0.0,0,0
1761142555.0667515,9.725883722305298,0.0,0.0,1.9631507565489597,0.0,0.0,0.048052565053384295,0.0,0.0,0.0,0.75,0.0,0.0,0.0,0.0,0.0,1.9631507565489597,auto,85.0,1.9577564117705417,0.0,0.0,0.0,1.9631507565489597,0.0,0,0
1761142555.1703029,9.829435110092163,0.0,0.0,1.9664821100868168,0.0,0.0,0.05683815765583985,0.0,0.0,0.0,0.75,0.0,0.0,0.0,0.0,0.0,1.9664821100868168,auto,85.0,1.9608502229620146,0.0,0.0,0.0,1.9664821100868168,0.0,0,0
1761142555.2750154,9.934147596359253,0.0,0.0,1.970980216521931,0.0,0.0,0.06722506996526369,0.0,0.0,0.0,0.75,0.0,0.0,0.0,0.0,0.0,1.970980216521931,auto,85.0,1.9651047754332678,0.0,0.0,0.0,1.970980216521931,0.0,0,0
1761142555.3791375,10.038269758224487,0.0,0.0,1.9759735908468412,0.0,0.0,0.06524653550279294,0.0,0.0,0.0,0.75,0.0,0.0,0.0,0.0,0.0,1.9759735908468412,auto,85.0,1.9704224569120143,0.0,0.0,0.0,1.9759735908468412,0.0,0,0
1761142555.4833975,10.142529726028442,0.0,0.0,1.981412780054699,0.0,0.0,0.0742923792265695,0.0,0.0,0.0,0.75,0.0,0.0,0.0,0.0,0.0,1.981412780054699,auto,85.0,1.9757622833059547,0.0,0.0,0.0,1.981412780054699,0.0,0,0
1761142555.5861757,10.245307922363281,0.0,0.0,1.9876012264110055,0.0,0.0,0.08280861313223734,0.0,0.0,0.0,0.75,0.0,0.0,0.0,0.0,0.0,1.9876012264110055,auto,85.0,1.9818770271966473,0.0,0.0,0.0,1.9876012264110055,0.0,0,0
1761142555.6887567,10.347888946533203,0.0,0.0,1.9941358660345452,0.0,0.0,0.08062611473096043,0.0,0.0,0.0,0.75,0.0,0.0,0.0,0.0,0.0,1.9941358660345452,auto,85.0,1.988394268400187,0.0,0.0,0.0,1.9941358660345452,0.0,0,0
1761142555.7926633,10.45179557800293,0.0,0.0,2.00103539870954,0.0,0.0,0.07405658641494213,0.0,0.0,0.0,0.6588048525631397,0.0,0.0,0.0,0.0,0.0,2.00103539870954,auto,85.0,1.9947296538515085,0.0,0.0,0.0,2.00103539870954,0.0,0,0
1761142555.902842,10.561974287033081,0.0,0.0,2.007494165387659,0.0,0.0,0.07217034486177153,0.0,0.0,0.0,0.6606435010304087,0.0,0.0,0.0,0.0,0.0,2.007494165387659,auto,85.0,2.001227998897385,0.0,0.0,0.0,2.007494165387659,0.0,0,0
1761142556.0086477,10.667779922485352,0.0,0.0,2.013618214882711,0.0,0.0,0.08185774330990482,0.0,0.0,0.0,0.75,0.0,0.0,0.0,0.0,0.0,2.013618214882711,auto,85.0,2.0076180077464265,0.0,0.0,0.0,2.013618214882711,0.0,0,0
1761142556.1102805,10.769412755966187,0.0,0.0,2.0196373560448606,0.0,0.0,0.045155129782847324,0.0,0.0,0.0,0.35,0.0,0.0,0.0,0.0,0.0,2.0196373560448606,auto,85.0,2.0138084802311287,0.0,0.0,0.0,2.0196373560448606,0.0,0,0
1761142556.2139184,10.873050689697266,0.0,0.0,2.0266989514323623,0.0,0.0,0.04345868383765476,0.0,0.0,0.0,0.35,0.0,0.0,0.0,0.0,0.0,2.0266989514323623,auto,85.0,2.0210502451495067,0.0,0.0,0.0,2.0266989514323623,0.0,0,0
1761142556.3183634,10.977495670318604,0.0,0.0,2.033801182287058,0.0,0.0,0.04860306360553636,0.0,0.0,0.0,0.35,0.0,0.0,0.0,0.0,0.0,2.033801182287058,auto,85.0,2.0276072562479435,0.0,0.0,0.0,2.033801182287058,0.0,0,0
1761142556.4226868,11.0818190574646,0.0,0.0,2.0414054818844347,0.0,0.0,0.056392850096972924,0.0,0.0,0.0,0.35,0.0,0.0,0.0,0.0,0.0,2.0414054818844347,auto,85.0,2.0355565671627915,0.0,0.0,0.0,2.0414054818844347,0.0,0,0
1761142556.5266569,11.185789108276367,0.0,0.0,2.049131614160288,0.0,0.0,0.057449024904762905,0.0,0.0,0.0,0.35,0.0,0.0,0.0,0.0,0.0,2.049131614160288,auto,85.0,2.043232321508708,0.0,0.0,0.0,2.049131614160288,0.0,0,0
1761142556.630424,11.28955626487732,0.0,0.0,2.056150502409078,0.0,0.0,0.041787623595718144,0.0,0.0,0.0,0.35,0.0,0.0,0.0,0.0,0.0,2.056150502409078,auto,85.0,2.050184092886457,0.0,0.0,0.0,2.056150502409078,0.0,0,0
1761142556.7343152,11.393447399139404,0.0,0.0,2.0630414286526717,0.0,0.0,0.052838178060751445,0.0,0.0,0.0,0.35,0.0,0.0,0.0,0.0,0.0,2.0630414286526717,auto,85.0,2.057056032069257,0.0,0.0,0.0,2.0630414286526717,0.0,0,0
1761142556.8386774,11.497809648513794,0.0,0.0,2.0707412379357684,0.0,0.0,0.054975549452222064,0.0,0.0,0.0,0.35,0.0,0.0,0.0,0.0,0.0,2.0707412379357684,auto,85.0,2.0644479414342967,0.0,0.0,0.0,2.0707412379357684,0.0,0,0
1761142556.944206,11.603338241577148,0.0,0.0,2.0789224553870014,0.0,0.0,0.05607209468425998,0.0,0.0,0.0,0.35,0.0,0.0,0.0,0.0,0.0,2.0789224553870014,auto,85.0,2.072756156794096,0.0,0.0,0.0,2.0789224553870014,0.0,0,0
1761142557.0488617,11.707993984222412,0.0,0.0,2.0868825896788463,0.0,0.0,0.057941584237541276,0.0,0.0,0.0,0.35,0.0,0.0,0.0,0.0,0.0,2.0868825896788463,auto,85.0,2.080598888584163,0.0,0.0,0.0,2.0868825896788463,0.0,0,0
1761142557.1558375,11.814969778060913,0.0,0.0,2.095566850895022,0.0,0.0,0.06470887769778727,0.0,0.0,0.0,0.35,0.0,0.0,0.0,0.0,0.0,2.095566850895022,auto,85.0,2.0893067806710577,0.0,0.0,0.0,2.095566850895022,0.0,0,0
1761142557.259926,11.919058322906494,0.0,0.0,2.1045547983300965,0.0,0.0,0.07172726079374042,0.0,0.0,0.0,0.35,0.0,0.0,0.0,0.0,0.0,2.1045547983300965,auto,85.0,2.0984934964096262,0.0,0.0,0.0,2.1045547983300965,0.0,0,0
1761142557.365502,12.02463436126709,0.0,0.0,2.1136461084915465,0.0,0.0,0.06275756321773793,0.0,0.0,0.0,0.35,0.0,0.0,0.0,0.0,0.0,2.1136461084915465,auto,85.0,2.1073523931330658,0.0,0.0,0.0,2.1136461084915465,0.0,0,0
1761142557.4707978,12.129930019378662,0.0,0.0,2.1227686184337613,0.0,0.0,0.07414504566408361,0.0,0.0,0.0,0.35,0.0,0.0,0.0,0.0,0.0,2.1227686184337613,auto,85.0,2.1167107023591236,0.0,0.0,0.0,2.1227686184337613,0.0,0,0
1761142557.5778534,12.236985683441162,0.0,0.0,2.1315944593868266,0.0,0.0,0.0633569422519683,0.0,0.0,0.0,0.35,0.0,0.0,0.0,0.0,0.0,2.1315944593868266,auto,85.0,2.125167970692803,0.0,0.0,0.0,2.1315944593868266,0.0,0,0
1761142557.6817162,12.340848445892334,0.0,0.0,2.139947556107578,0.0,0.0,0.06327466874670121,0.0,0.0,0.0,0.35,0.0,0.0,0.0,0.0,0.0,2.139947556107578,auto,85.0,2.134123096962305,0.0,0.0,0.0,2.139947556107578,0.0,0,0
1761142557.787681,12.446813344955444,0.0,0.0,2.14804273823278,0.0,0.0,0.060363241529833925,0.0,0.0,0.0,0.35,0.0,0.0,0.0,0.0,0.0,2.14804273823278,auto,85.0,2.141810307748089,0.0,0.0,0.0,2.14804273823278,0.0,0,0
1761142557.8902426,12.54937481880188,0.0,0.0,2.1561067035502655,0.0,0.0,0.06120297416461038,0.0,0.0,0.0,0.35,0.0,0.0,0.0,0.0,0.0,2.1561067035502655,auto,85.0,2.1501676504467975,0.0,0.0,0.0,2.1561067035502655,0.0,0,0
1761142557.9938507,12.652982950210571,0.0,0.0,2.1637508679749473,0.0,0.0,0.056497969698591256,0.0,0.0,0.0,0.35,0.0,0.0,0.0,0.0,0.0,2.1637508679749473,auto,85.0,2.157846767752948,0.0,0.0,0.0,2.1637508679749473,0.0,0,0
1761142558.0962365,12.755368709564209,0.0,0.0,2.1712716217495056,0.0,0.0,0.05504018191745859,0.0,0.0,0.0,0.35,0.0,0.0,0.0,0.0,0.0,2.1712716217495056,auto,85.0,2.165458460723827,0.0,0.0,0.0,2.1712716217495056,0.0,0,0
1761142558.199678,12.858810186386108,0.0,0.0,2.1791926409996174,0.0,0.0,0.05773298884347863,0.0,0.0,0.0,0.35,0.0,0.0,0.0,0.0,0.0,2.1791926409996174,auto,85.0,2.1733058713999793,0.0,0.0,0.0,2.1791926409996174,0.0,0,0
1761142558.306032,12.965164184570312,0.0,0.0,2.1864971925706573,0.0,0.0,0.05334124858044656,0.0,0.0,0.0,0.35,0.0,0.0,0.0,0.0,0.0,2.1864971925706573,auto,85.0,2.18068932853875,0.0,0.0,0.0,2.1864971925706573,0.0,0,0
1761142558.4097085,13.068840742111206,0.0,0.0,2.1939651654450176,0.0,0.0,0.05651661921011226,0.0,0.0,0.0,0.35,0.0,0.0,0.0,0.0,0.0,2.1939651654450176,auto,85.0,2.1880946470299216,0.0,0.0,0.0,2.1939651654450176,0.0,0,0
1761142558.5142646,13.173396825790405,0.0,0.0,2.201665294088702,0.0,0.0,0.05092778430453585,0.0,0.0,0.0,0.35,0.0,0.0,0.0,0.0,0.0,2.201665294088702,auto,85.0,2.1958549596856534,0.0,0.0,0.0,2.201665294088702,0.0,0,0
1761142558.6190643,13.278196573257446,0.0,0.0,2.20897719389044,0.0,0.0,0.044538391734698236,0.0,0.0,0.0,0.35,0.0,0.0,0.0,0.0,0.0,2.20897719389044,auto,85.0,2.203259930498149,0.0,0.0,0.0,2.20897719389044,0.0,0,0
1761142558.7231321,13.382264375686646,0.0,0.0,2.2157846530441407,0.0,0.0,0.045179548094321495,0.0,0.0,0.0,0.35,0.0,0.0,0.0,0.0,0.0,2.2157846530441407,auto,85.0,2.2093423589702885,0.0,0.0,0.0,2.2157846530441407,0.0,0,0
1761142558.8336246,13.492756843566895,0.0,0.0,2.2226132437670785,0.0,0.0,0.07128725109977534,0.0,0.0,0.0,0.6256753780732482,0.0,0.0,0.0,0.0,0.0,2.2226132437670785,auto,85.0,2.2164725794577955,0.0,0.0,0.0,2.2226132437670785,0.0,0,0
1761142558.9383562,13.597488403320312,0.0,0.0,2.2286489868106223,0.0,0.0,0.08112574427216707,0.0,0.0,0.0,0.75,0.0,0.0,0.0,0.0,0.0,2.2286489868106223,auto,85.0,2.222947184304012,0.0,0.0,0.0,2.2286489868106223,0.0,0,0
1761142559.0424736,13.701605796813965,0.0,0.0,2.235443987840769,0.0,0.0,0.08730261150520774,0.0,0.0,0.0,0.7416359090400279,0.0,0.0,0.0,0.0,0.0,2.235443987840769,auto,85.0,2.229082591656196,0.0,0.0,0.0,2.235443987840769,0.0,0,0
1761142559.1502044,13.80933666229248,0.0,0.0,2.2416801699383075,0.0,0.0,0.07808558991418978,0.0,0.0,0.0,0.75,0.0,0.0,0.0,0.0,0.0,2.2416801699383075,auto,85.0,2.2356856375646794,0.0,0.0,0.0,2.2416801699383075,0.0,0,0
1761142559.2546275,13.913759708404541,0.0,0.0,2.2481878809603746,0.0,0.0,0.08105310549869911,0.0,0.0,0.0,0.75,0.0,0.0,0.0,0.0,0.0,2.2481878809603746,auto,85.0,2.2425020896145074,0.0,0.0,0.0,2.2481878809603746,0.0,0,0
1761142559.3603904,14.019522666931152,0.0,0.0,2.2552785311141044,0.0,0.0,0.08531974487337779,0.0,0.0,0.0,0.719012767565165,0.0,0.0,0.0,0.0,0.0,2.2552785311141044,auto,85.0,2.2494322633944726,0.0,0.0,0.0,2.2552785311141044,0.0,0,0
1761142559.465895,14.125027179718018,0.0,0.0,2.2626672538927726,0.0,0.0,0.09140245630273644,0.0,0.0,0.0,0.75,0.0,0.0,0.0,0.0,0.0,2.2626672538927726,auto,85.0,2.256888498935149,0.0,0.0,0.0,2.2626672538927726,0.0,0,0
1761142559.5716887,14.230820894241333,0.0,0.0,2.2694657020742017,0.0,0.0,0.0822873789833441,0.0,0.0,0.0,0.75,0.0,0.0,0.0,0.0,0.0,2.2694657020742017,auto,85.0,2.2634601303447583,0.0,0.0,0.0,2.2694657020742017,0.0,0,0
1761142559.6742964,14.333428621292114,0.0,0.0,2.276349442907786,0.0,0.0,0.09099258167782426,0.0,0.0,0.0,0.75,0.0,0.0,0.0,0.0,0.0,2.276349442907786,auto,85.0,2.2704520402108477,0.0,0.0,0.0,2.276349442907786,0.0,0,0
1761142559.7767286,14.435860872268677,0.0,0.0,2.28381990695588,0.0,0.0,0.09489316164449779,0.0,0.0,0.0,0.75,0.0,0.0,0.0,0.0,0.0,2.28381990695588,auto,85.0,2.2778911405047566,0.0,0.0,0.0,2.28381990695588,0.0,0,0
1761142559.880216,14.539348125457764,0.0,0.0,2.291492591814449,0.0,0.0,0.09661801725205872,0.0,0.0,0.0,0.75,0.0,0.0,0.0,0.0,0.0,2.291492591814449,auto,85.0,2.285638143054621,0.0,0.0,0.0,2.291492591814449,0.0,0,0
1761142559.9840267,14.643158912658691,0.0,0.0,2.2994707975960598,0.0,0.0,0.09922008600942464,0.0,0.0,0.0,0.75,0.0,0.0,0.0,0.0,0.0,2.2994707975960598,auto,85.0,2.293534208167487,0.0,0.0,0.0,2.2994707975960598,0.0,0,0
1761142560.0885386,14.747670888900757,0.0,0.0,2.307856604174688,0.0,0.0,0.0985478710362036,0.0,0.0,0.0,0.75,0.0,0.0,0.0,0.0,0.0,2.307856604174688,auto,85.0,2.3019058025756567,0.0,0.0,0.0,2.307856604174688,0.0,0,0
1761142560.193626,14.852758169174194,0.0,0.0,2.315936956343555,0.0,0.0,0.09090242103192309,0.0,0.0,0.0,0.75,0.0,0.0,0.0,0.0,0.0,2.315936956343555,auto,85.0,2.3101283242168233,0.0,0.0,0.0,2.315936956343555,0.0,0,0
1761142560.2981126,14.957244873046875,0.0,0.0,2.3239232193197106,0.0,0.0,0.09742345746543372,0.0,0.0,0.0,0.75,0.0,0.0,0.0,0.0,0.0,2.3239232193197106,auto,85.0,2.3177321730474727,0.0,0.0,0.0,2.3239232193197106,0.0,0,0
1761142560.4010148,15.060147047042847,0.0,0.0,2.3309735630727664,0.0,0.0,0.05638648904474603,0.0,0.0,0.0,0.35,0.0,0.0,0.0,0.0,0.0,2.3309735630727664,auto,85.0,2.3248078599087876,0.0,0.0,0.0,2.3309735630727664,0.0,0,0
1761142560.505361,15.164493322372437,0.0,0.0,2.33895027664085,0.0,0.0,0.06058624811691742,0.0,0.0,0.0,0.35,0.0,0.0,0.0,0.0,0.0,2.33895027664085,auto,85.0,2.3327628165793675,0.0,0.0,0.0,2.33895027664085,0.0,0,0
1761142560.6155279,15.274660110473633,0.0,0.0,2.345722280834704,0.0,0.0,0.038428913510382454,0.0,0.0,0.0,0.35,0.0,0.0,0.0,0.0,0.0,2.345722280834704,auto,85.0,2.3400086297251073,0.0,0.0,0.0,2.345722280834704,0.0,0,0
1761142560.7187784,15.377910614013672,0.0,0.0,2.3520515018196617,0.0,0.0,0.047167534036117495,0.0,0.0,0.0,0.35,0.0,0.0,0.0,0.0,0.0,2.3520515018196617,auto,85.0,2.3463569906014086,0.0,0.0,0.0,2.3520515018196617,0.0,0,0
1761142560.822406,15.48153829574585,0.0,0.0,2.358193317924348,0.0,0.0,0.04138287960696716,0.0,0.0,0.0,0.35,0.0,0.0,0.0,0.0,0.0,2.358193317924348,auto,85.0,2.3519055810204157,0.0,0.0,0.0,2.358193317924348,0.0,0,0
1761142560.9264944,15.585626602172852,0.0,0.0,2.3649831296103088,0.0,0.0,0.04683829470504673,0.0,0.0,0.0,0.35,0.0,0.0,0.0,0.0,0.0,2.3649831296103088,auto,85.0,2.3588849023092386,0.0,0.0,0.0,2.3649831296103088,0.0,0,0
1761142561.0337093,15.692841529846191,0.0,0.0,2.37165789820968,0.0,0.0,0.0407106042522958,0.0,0.0,0.0,0.35,0.0,0.0,0.0,0.0,0.0,2.37165789820968,auto,85.0,2.3659730808122457,0.0,0.0,0.0,2.37165789820968,0.0,0,0
1761142561.1375144,15.79664659500122,0.0,0.0,2.377970411878826,0.0,0.0,0.04540378972613778,0.0,0.0,0.0,0.35,0.0,0.0,0.0,0.0,0.0,2.377970411878826,auto,85.0,2.3719403520772246,0.0,0.0,0.0,2.377970411878826,0.0,0,0
1761142561.242487,15.90161919593811,0.0,0.0,2.3849549070638387,0.0,0.0,0.04926557716834997,0.0,0.0,0.0,0.35,0.0,0.0,0.0,0.0,0.0,2.3849549070638387,auto,85.0,2.3790966334888086,0.0,0.0,0.0,2.3849549070638387,0.0,0,0
1761142561.3464823,16.005614519119263,0.0,0.0,2.3915729243422597,0.0,0.0,0.03231358720977036,0.0,0.0,0.0,0.35,0.0,0.0,0.0,0.0,0.0,2.3915729243422597,auto,85.0,2.3856630454392342,0.0,0.0,0.0,2.3915729243422597,0.0,0,0
1761142561.4534874,16.112619638442993,0.0,0.0,2.3972255409184373,0.0,0.0,0.026520645755434585,0.0,0.0,0.0,0.35,0.0,0.0,0.0,0.0,0.0,2.3972255409184373,auto,85.0,2.3912398749367703,0.0,0.0,0.0,2.3972255409184373,0.0,0,0
1761142561.5579686,16.217100858688354,0.0,0.0,2.4022474642134015,0.0,0.0,0.03292160767974476,0.0,0.0,0.0,0.35,0.0,0.0,0.0,0.0,0.0,2.4022474642134015,auto,85.0,2.3966215588606037,0.0,0.0,0.0,2.4022474642134015,0.0,0,0
1761142561.6628726,16.322004795074463,0.0,0.0,2.4078535174755937,0.0,0.0,0.02874412838218291,0.0,0.0,0.0,0.35,0.0,0.0,0.0,0.0,0.0,2.4078535174755937,auto,85.0,2.401576549281382,0.0,0.0,0.0,2.4078535174755937,0.0,0,0
1761142561.7673013,16.426433563232422,0.0,0.0,2.413597934788191,0.0,0.0,0.03953495572186782,0.0,0.0,0.0,0.35,0.0,0.0,0.0,0.0,0.0,2.413597934788191,auto,85.0,2.407789700557774,0.0,0.0,0.0,2.413597934788191,0.0,0,0
1761142561.86769,16.526822328567505,0.0,0.0,2.417069719489031,0.0,0.0,0.05960586671791853,0.0,0.0,0.0,0.75,0.0,0.0,0.0,0.0,0.0,2.417069719489031,auto,85.0,2.4115759226308646,0.0,0.0,0.0,2.417069719489031,0.0,0,0
1761142561.971211,16.630343198776245,0.0,0.0,2.421301322685666,0.0,0.0,0.057036043698736466,0.0,0.0,0.0,0.75,0.0,0.0,0.0,0.0,0.0,2.421301322685666,auto,85.0,2.4157766514493892,0.0,0.0,0.0,2.421301322685666,0.0,0,0
1761142562.080481,16.73961329460144,0.0,0.0,2.4257074137226557,0.0,0.0,0.062345444127828574,0.0,0.0,0.0,0.75,0.0,0.0,0.0,0.0,0.0,2.4257074137226557,auto,85.0,2.4198113795777916,0.0,0.0,0.0,2.4257074137226557,0.0,0,0
1761142562.1838436,16.842975854873657,0.0,0.0,2.430328996593777,0.0,0.0,0.0650654226250727,0.0,0.0,0.0,0.75,0.0,0.0,0.0,0.0,0.0,2.430328996593777,auto,85.0,2.424435236987662,0.0,0.0,0.0,2.430328996593777,0.0,0,0
1761142562.287937,16.94706916809082,0.0,0.0,2.4345784118275358,0.0,0.0,0.04567973233499175,0.0,0.0,0.0,0.6484442871364742,0.0,0.0,0.0,0.0,0.0,2.4345784118275358,auto,85.0,2.4287333264837914,0.0,0.0,0.0,2.4345784118275358,0.0,0,0
1761142562.393298,17.052430152893066,0.0,0.0,2.438060731453432,0.0,0.0,0.05703047648330033,0.0,0.0,0.0,0.75,0.0,0.0,0.0,0.0,0.0,2.438060731453432,auto,85.0,2.4325156051109613,0.0,0.0,0.0,2.438060731453432,0.0,0,0
1761142562.5050185,17.164150714874268,0.0,0.0,2.442373995623023,0.0,0.0,0.06238302867437209,0.0,0.0,0.0,0.7381253705553907,0.0,0.0,0.0,0.0,0.0,2.442373995623023,auto,85.0,2.4367253923739165,0.0,0.0,0.0,2.442373995623023,0.0,0,0
1761142562.6002014,17.259333610534668,0.0,0.0,2.4473499855761016,0.0,0.0,0.07140939079948821,0.0,0.0,0.0,0.7495803071879669,0.0,0.0,0.0,0.0,0.0,2.4473499855761016,auto,85.0,2.4416848988176083,0.0,0.0,0.0,2.4473499855761016,0.0,0,0
1761142562.7048726,17.364004850387573,0.0,0.0,2.452218694741313,0.0,0.0,0.06912775271788127,0.0,0.0,0.0,0.75,0.0,0.0,0.0,0.0,0.0,2.452218694741313,auto,85.0,2.4466302600795,0.0,0.0,0.0,2.452218694741313,0.0,0,0
1761142562.8066044,17.465736627578735,0.0,0.0,2.457703563318842,0.0,0.0,0.07576571893154457,0.0,0.0,0.0,0.75,0.0,0.0,0.0,0.0,0.0,2.457703563318842,auto,85.0,2.452055626770494,0.0,0.0,0.0,2.457703563318842,0.0,0,0
1761142562.908423,17.56755518913269,0.0,0.0,2.4635115141528217,0.0,0.0,0.07685433876522962,0.0,0.0,0.0,0.75,0.0,0.0,0.0,0.0,0.0,2.4635115141528217,auto,85.0,2.4577860352993897,0.0,0.0,0.0,2.4635115141528217,0.0,0,0
1761142563.0134337,17.672565937042236,0.0,0.0,2.469671824630624,0.0,0.0,0.07933223732289268,0.0,0.0,0.0,0.7423194570608251,0.0,0.0,0.0,0.0,0.0,2.469671824630624,auto,85.0,2.463968014839217,0.0,0.0,0.0,2.469671824630624,0.0,0,0
1761142563.1156511,17.77478337287903,0.0,0.0,2.4761292119815344,0.0,0.0,0.08037180216127895,0.0,0.0,0.0,0.7225813034046961,0.0,0.0,0.0,0.0,0.0,2.4761292119815344,auto,85.0,2.4703807131693942,0.0,0.0,0.0,2.4761292119815344,0.0,0,0
1761142563.2180333,17.87716555595398,0.0,0.0,2.4827355332264913,0.0,0.0,0.08172799633830746,0.0,0.0,0.0,0.75,0.0,0.0,0.0,0.0,0.0,2.4827355332264913,auto,85.0,2.4770159584218043,0.0,0.0,0.0,2.4827355332264913,0.0,0,0
1761142563.318093,17.977225303649902,0.0,0.0,2.487752908665054,0.0,0.0,0.024728260072029683,0.0,0.0,0.0,0.75,0.0,0.0,0.0,0.0,0.0,2.487752908665054,auto,85.0,2.4825209198911757,0.0,0.0,0.0,2.487752908665054,0.0,0,0
1761142563.421616,18.080748319625854,0.0,0.0,2.491342011479605,0.0,0.0,0.015852014556067343,0.0,0.0,0.0,0.35,0.0,0.0,0.0,0.0,0.0,2.491342011479605,auto,85.0,2.485847370709193,0.0,0.0,0.0,2.491342011479605,0.0,0,0
1761142563.5242066,18.18333888053894,0.0,0.0,2.495642858417464,0.0,0.0,0.029219385259074464,0.0,0.0,0.0,0.35,0.0,0.0,0.0,0.0,0.0,2.495642858417464,auto,85.0,2.4901191568656205,0.0,0.0,0.0,2.495642858417464,0.0,0,0
1761142563.63307,18.29220223426819,0.0,0.0,2.4995907596242724,0.0,0.0,0.01827099704339695,0.0,0.0,0.0,0.35,0.0,0.0,0.0,0.0,0.0,2.4995907596242724,auto,85.0,2.494114192987986,0.0,0.0,0.0,2.4995907596242724,0.0,0,0
1761142563.7373223,18.396454572677612,0.0,0.0,2.5033252301164777,0.0,0.0,0.007798986223689415,0.0,0.0,0.0,0.35,0.0,0.0,0.0,0.0,0.0,2.5033252301164777,auto,85.0,2.497868420169405,0.0,0.0,0.0,2.5033252301164777,0.0,0,0
1761142563.8426914,18.501823663711548,0.0,0.0,2.5066127536972114,0.0,0.0,0.015148893122450172,0.0,0.0,0.0,0.35,0.0,0.0,0.0,0.0,0.0,2.5066127536972114,auto,85.0,2.5010110116711854,0.0,0.0,0.0,2.5066127536972114,0.0,0,0
1761142563.9441884,18.603320598602295,0.0,0.0,2.510642394040988,0.0,0.0,0.022816629876502438,0.0,0.0,0.0,0.35,0.0,0.0,0.0,0.0,0.0,2.510642394040988,auto,85.0,2.505147119259756,0.0,0.0,0.0,2.510642394040988,0.0,0,0
1761142564.0500288,18.709161043167114,0.0,0.0,2.51527543361765,0.0,0.0,0.027028051566906706,0.0,0.0,0.0,0.35,0.0,0.0,0.0,0.0,0.0,2.51527543361765,auto,85.0,2.50963691609914,0.0,0.0,0.0,2.51527543361765,0.0,0,0
1761142564.154123,18.813255310058594,0.0,0.0,2.5195805511141245,0.0,0.0,0.018917755113658223,0.0,0.0,0.0,0.35,0.0,0.0,0.0,0.0,0.0,2.5195805511141245,auto,85.0,2.514121590709,0.0,0.0,0.0,2.5195805511141245,0.0,0,0
1761142564.2592347,18.9183669090271,0.0,0.0,2.5238385140270228,0.0,0.0,0.024852158405358073,0.0,0.0,0.0,0.35,0.0,0.0,0.0,0.0,0.0,2.5238385140270228,auto,85.0,2.5182728066982745,0.0,0.0,0.0,2.5238385140270228,0.0,0,0
1761142564.3643174,19.023449659347534,0.0,0.0,2.5279064504248763,0.0,0.0,0.01945292519000868,0.0,0.0,0.0,0.35,0.0,0.0,0.0,0.0,0.0,2.5279064504248763,auto,85.0,2.5221061457629728,0.0,0.0,0.0,2.5279064504248763,0.0,0,0
1761142564.469892,19.129024267196655,0.0,0.0,2.532487011455476,0.0,0.0,0.026384659182461134,0.0,0.0,0.0,0.35,0.0,0.0,0.0,0.0,0.0,2.532487011455476,auto,85.0,2.526653611216011,0.0,0.0,0.0,2.532487011455476,0.0,0,0
1761142564.5741088,19.233241081237793,0.0,0.0,2.5366989435607716,0.0,0.0,0.01801462473782335,0.0,0.0,0.0,0.35,0.0,0.0,0.0,0.0,0.0,2.5366989435607716,auto,85.0,2.53128745702176,0.0,0.0,0.0,2.5366989435607716,0.0,0,0
1761142564.6785414,19.337673664093018,0.0,0.0,2.5407545515542753,0.0,0.0,0.024453291256075392,0.0,0.0,0.0,0.35,0.0,0.0,0.0,0.0,0.0,2.5407545515542753,auto,85.0,2.535150148108284,0.0,0.0,0.0,2.5407545515542753,0.0,0,0
1761142564.7842484,19.44338059425354,0.0,0.0,2.5444852989110025,0.0,0.0,0.016043141475269168,0.0,0.0,0.0,0.35,0.0,0.0,0.0,0.0,0.0,2.5444852989110025,auto,85.0,2.538741537429929,0.0,0.0,0.0,2.5444852989110025,0.0,0,0
1761142564.892401,19.551533222198486,0.0,0.0,2.5481130079638694,0.0,0.0,0.016258035415805012,0.0,0.0,0.0,0.35,0.0,0.0,0.0,0.0,0.0,2.5481130079638694,auto,85.0,2.542068486557428,0.0,0.0,0.0,2.5481130079638694,0.0,0,0
1761142564.9964037,19.65553593635559,0.0,0.0,2.5521178526340016,0.0,0.0,0.02524812823796644,0.0,0.0,0.0,0.35,0.0,0.0,0.0,0.0,0.0,2.5521178526340016,auto,85.0,2.5462662686535564,0.0,0.0,0.0,2.5521178526340016,0.0,0,0
1761142565.1030824,19.76221466064453,0.0,0.0,2.556893561815834,0.0,0.0,0.027069414282285945,0.0,0.0,0.0,0.35,0.0,0.0,0.0,0.0,0.0,2.556893561815834,auto,85.0,2.5512417161461354,0.0,0.0,0.0,2.556893561815834,0.0,0,0
1761142565.2061238,19.8652560710907,0.0,0.0,2.5618850906547026,0.0,0.0,0.033305603982561216,0.0,0.0,0.0,0.35,0.0,0.0,0.0,0.0,0.0,2.5618850906547026,auto,85.0,2.556194293081003,0.0,0.0,0.0,2.5618850906547026,0.0,0,0
1761142565.3102493,19.96938157081604,0.0,0.0,2.5669349406128306,0.0,0.0,0.03388485006244729,0.0,0.0,0.0,0.35,0.0,0.0,0.0,0.0,0.0,2.5669349406128306,auto,85.0,2.5612971608749286,0.0,0.0,0.0,2.5669349406128306,0.0,0,0
1761142565.4163554,20.07548761367798,0.0,0.0,2.5717031634490857,0.0,0.0,0.02617882512874415,0.0,0.0,0.0,0.35,0.0,0.0,0.0,0.0,0.0,2.5717031634490857,auto,85.0,2.5658523321674824,0.0,0.0,0.0,2.5717031634490857,0.0,0,0
1761142565.5168722,20.17600440979004,0.0,0.0,2.5759879150867846,0.0,0.0,0.04489984068392679,0.0,0.0,0.0,0.75,0.0,0.0,0.0,0.0,0.0,2.5759879150867846,auto,85.0,2.570644449077779,0.0,0.0,0.0,2.5759879150867846,0.0,0,0
1761142565.6211958,20.280328035354614,0.0,0.0,2.580850590136326,0.0,0.0,0.07102204572605561,0.0,0.0,0.0,0.75,0.0,0.0,0.0,0.0,0.0,2.580850590136326,auto,85.0,2.575184245399818,0.0,0.0,0.0,2.580850590136326,0.0,0,0
1761142565.7267485,20.385880708694458,0.0,0.0,2.5862788936324552,0.0,0.0,0.06477774555166727,0.0,0.0,0.0,0.7025423887871134,0.0,0.0,0.0,0.0,0.0,2.5862788936324552,auto,85.0,2.580353818481231,0.0,0.0,0.0,2.5862788936324552,0.0,0,0
1761142565.832873,20.492005348205566,0.0,0.0,2.5911255095849732,0.0,0.0,0.05234750672069726,0.0,0.0,0.0,0.75,0.0,0.0,0.0,0.0,0.0,2.5911255095849732,auto,85.0,2.585163886973224,0.0,0.0,0.0,2.5911255095849732,0.0,0,0
1761142565.9388556,20.59798789024353,0.0,0.0,2.5952241491424703,0.0,0.0,0.061097917434771665,0.0,0.0,0.0,0.75,0.0,0.0,0.0,0.0,0.0,2.5952241491424703,auto,85.0,2.589687393097118,0.0,0.0,0.0,2.5952241491424703,0.0,0,0
1761142566.0437067,20.702838897705078,0.0,0.0,2.599647273488012,0.0,0.0,0.059979860261829276,0.0,0.0,0.0,0.75,0.0,0.0,0.0,0.0,0.0,2.599647273488012,auto,85.0,2.5938981045934346,0.0,0.0,0.0,2.599647273488012,0.0,0,0
1761142566.1483672,20.807499408721924,0.0,0.0,2.6043868772139076,0.0,0.0,0.06788296834421823,0.0,0.0,0.0,0.75,0.0,0.0,0.0,0.0,0.0,2.6043868772139076,auto,85.0,2.598536695553693,0.0,0.0,0.0,2.6043868772139076,0.0,0,0
1761142566.2555797,20.914711952209473,0.0,0.0,2.6097814680915454,0.0,0.0,0.06951875207757052,0.0,0.0,0.0,0.75,0.0,0.0,0.0,0.0,0.0,2.6097814680915454,auto,85.0,2.603874704612479,0.0,0.0,0.0,2.6097814680915454,0.0,0,0
1761142566.363063,21.02219533920288,0.0,0.0,2.6147560781238073,0.0,0.0,0.06354074347847552,0.0,0.0,0.0,0.75,0.0,0.0,0.0,0.0,0.0,2.6147560781238073,auto,85.0,2.609189478799646,0.0,0.0,0.0,2.6147560781238073,0.0,0,0
1761142566.4683907,21.127522945404053,0.0,0.0,2.6196709481710125,0.0,0.0,0.06461706502545056,0.0,0.0,0.0,0.75,0.0,0.0,0.0,0.0,0.0,2.6196709481710125,auto,85.0,2.6138443942950382,0.0,0.0,0.0,2.6196709481710125,0.0,0,0
1761142566.5744987,21.233630895614624,0.0,0.0,2.6247913161851617,0.0,0.0,0.0678263405430219,0.0,0.0,0.0,0.75,0.0,0.0,0.0,0.0,0.0,2.6247913161851617,auto,85.0,2.6188693160812546,0.0,0.0,0.0,2.6247913161851617,0.0,0,0
1761142566.6778243,21.33695650100708,0.0,0.0,2.6300776462332838,0.0,0.0,0.07032638157738291,0.0,0.0,0.0,0.7374536783988516,0.0,0.0,0.0,0.0,0.0,2.6300776462332838,auto,85.0,2.624162277156757,0.0,0.0,0.0,2.6300776462332838,0.0,0,0
1761142566.7841628,21.443295001983643,0.0,0.0,2.6358480769840833,0.0,0.0,0.05609918276521605,0.0,0.0,0.0,0.6355678887084675,0.0,0.0,0.0,0.0,0.0,2.6358480769840833,auto,85.0,2.629913704478271,0.0,0.0,0.0,2.6358480769840833,0.0,0,0
1761142566.886967,21.546099185943604,0.0,0.0,2.640114277992334,0.0,0.0,0.06638840245232122,0.0,0.0,0.0,0.75,0.0,0.0,0.0,0.0,0.0,2.640114277992334,auto,85.0,2.6345279945344253,0.0,0.0,0.0,2.640114277992334,0.0,0,0
1761142566.9903932,21.64952540397644,0.0,0.0,2.6448231183788553,0.0,0.0,0.06646720132124077,0.0,0.0,0.0,0.7393766549003639,0.0,0.0,0.0,0.0,0.0,2.6448231183788553,auto,85.0,2.6392606136240615,0.0,0.0,0.0,2.6448231183788553,0.0,0,0
1761142567.0937738,21.75290608406067,0.0,0.0,2.6494392080842073,0.0,0.0,0.035355284794945076,0.0,0.0,0.0,0.35,0.0,0.0,0.0,0.0,0.0,2.6494392080842073,auto,85.0,2.64347799347718,0.0,0.0,0.0,2.6494392080842073,0.0,0,0
1761142567.1971824,21.856314659118652,0.0,0.0,2.6551447933540513,0.0,0.0,0.03904364024209684,0.0,0.0,0.0,0.35,0.0,0.0,0.0,0.0,0.0,2.6551447933540513,auto,85.0,2.6494645999007695,0.0,0.0,0.0,2.6551447933540513,0.0,0,0
1761142567.3015919,21.960724115371704,0.0,0.0,2.659801650597247,0.0,0.0,0.01799480383365555,0.0,0.0,0.0,0.35,0.0,0.0,0.0,0.0,0.0,2.659801650597247,auto,85.0,2.6540565494445123,0.0,0.0,0.0,2.659801650597247,0.0,0,0
1761142567.406926,22.06605815887451,0.0,0.0,2.664014072243928,0.0,0.0,0.019296955681814082,0.0,0.0,0.0,0.35,0.0,0.0,0.0,0.0,0.0,2.664014072243928,auto,85.0,2.658319165642824,0.0,0.0,0.0,2.664014072243928,0.0,0,0
1761142567.510869,22.17000126838684,0.0,0.0,2.668231308834168,0.0,0.0,0.010838754644104394,0.0,0.0,0.0,0.35,0.0,0.0,0.0,0.0,0.0,2.668231308834168,auto,85.0,2.6628230758421503,0.0,0.0,0.0,2.668231308834168,0.0,0,0
1761142567.614149,22.27328133583069,0.0,0.0,2.671796856553471,0.0,0.0,0.022971828941073753,0.0,0.0,0.0,0.35,0.0,0.0,0.0,0.0,0.0,2.671796856553471,auto,85.0,2.666283614221479,0.0,0.0,0.0,2.671796856553471,0.0,0,0
1761142567.7176883,22.37682056427002,0.0,0.0,2.6749992877535638,0.0,0.0,0.01651526984625961,0.0,0.0,0.0,0.35,0.0,0.0,0.0,0.0,0.0,2.6749992877535638,auto,85.0,2.6692599743564256,0.0,0.0,0.0,2.6749992877535638,0.0,0,0
1761142567.8234622,22.48259449005127,0.0,0.0,2.677980588344496,0.0,0.0,0.009686353420875371,0.0,0.0,0.0,0.35,0.0,0.0,0.0,0.0,0.0,2.677980588344496,auto,85.0,2.6726018350064824,0.0,0.0,0.0,2.677980588344496,0.0,0,0
1761142567.9269085,22.58604073524475,0.0,0.0,2.6814349649460087,0.0,0.0,0.01796454250767659,0.0,0.0,0.0,0.35,0.0,0.0,0.0,0.0,0.0,2.6814349649460087,auto,85.0,2.6760069550759034,0.0,0.0,0.0,2.6814349649460087,0.0,0,0
1761142568.0306025,22.68973469734192,0.0,0.0,2.6853125725417506,0.0,0.0,0.014920340337644902,0.0,0.0,0.0,0.35,0.0,0.0,0.0,0.0,0.0,2.6853125725417506,auto,85.0,2.6795543684680867,0.0,0.0,0.0,2.6853125725417506,0.0,0,0
1761142568.1376119,22.796744108200073,0.0,0.0,2.6892690282676526,0.0,0.0,0.01615896419121155,0.0,0.0,0.0,0.35,0.0,0.0,0.0,0.0,0.0,2.6892690282676526,auto,85.0,2.6835488548536857,0.0,0.0,0.0,2.6892690282676526,0.0,0,0
1761142568.2413929,22.900525093078613,0.0,0.0,2.6933390173102616,0.0,0.0,0.02509872879664201,0.0,0.0,0.0,0.35,0.0,0.0,0.0,0.0,0.0,2.6933390173102616,auto,85.0,2.6877575327837424,0.0,0.0,0.0,2.6933390173102616,0.0,0,0
1761142568.3463445,23.005476713180542,0.0,0.0,2.697438865783318,0.0,0.0,0.004042800570953804,0.0,0.0,0.0,0.35,0.0,0.0,0.0,0.0,0.0,2.697438865783318,auto,85.0,2.6918921374629403,0.0,0.0,0.0,2.697438865783318,0.0,0,0
1761142568.4519985,23.111130714416504,0.0,0.0,2.700617301499699,0.0,0.0,0.011496580978192526,0.0,0.0,0.0,0.35,0.0,0.0,0.0,0.0,0.0,2.700617301499699,auto,85.0,2.6950075843275236,0.0,0.0,0.0,2.700617301499699,0.0,0,0
1761142568.5561678,23.2153000831604,0.0,0.0,2.704233412640754,0.0,0.0,0.022811043089179292,0.0,0.0,0.0,0.35,0.0,0.0,0.0,0.0,0.0,2.704233412640754,auto,85.0,2.698732599871156,0.0,0.0,0.0,2.704233412640754,0.0,0,0
1761142568.659541,23.318673133850098,0.0,0.0,2.7073835603584784,0.0,0.0,0.015502967257966523,0.0,0.0,0.0,0.35,0.0,0.0,0.0,0.0,0.0,2.7073835603584784,auto,85.0,2.7019411778279854,0.0,0.0,0.0,2.7073835603584784,0.0,0,0
1761142568.763897,23.42302918434143,0.0,0.0,2.711179478719991,0.0,0.0,0.020805491460305386,0.0,0.0,0.0,0.35,0.0,0.0,0.0,0.0,0.0,2.711179478719991,auto,85.0,2.705671984908814,0.0,0.0,0.0,2.711179478719991,0.0,0,0
1761142568.8679862,23.52711844444275,0.0,0.0,2.7150457325930053,0.0,0.0,0.02410100659906965,0.0,0.0,0.0,0.35,0.0,0.0,0.0,0.0,0.0,2.7150457325930053,auto,85.0,2.709607204950643,0.0,0.0,0.0,2.7150457325930053,0.0,0,0
1761142568.9724526,23.631584882736206,0.0,0.0,2.7188608956113587,0.0,0.0,0.017236392131956345,0.0,0.0,0.0,0.35,0.0,0.0,0.0,0.0,0.0,2.7188608956113587,auto,85.0,2.7128301766134264,0.0,0.0,0.0,2.7188608956113587,0.0,0,0
1761142569.0767636,23.73589587211609,0.0,0.0,2.723099565861979,0.0,0.0,0.02855326056963861,0.0,0.0,0.0,0.35,0.0,0.0,0.0,0.0,0.0,2.723099565861979,auto,85.0,2.717481779478993,0.0,0.0,0.0,2.723099565861979,0.0,0,0
1761142569.179374,23.83850622177124,0.0,0.0,2.726977337720799,0.0,0.0,0.023823513411720426,0.0,0.0,0.0,0.35,0.0,0.0,0.0,0.0,0.0,2.726977337720799,auto,85.0,2.7214332565006596,0.0,0.0,0.0,2.726977337720799,0.0,0,0
1761142569.2852688,23.944401025772095,0.0,0.0,2.73116860654329,0.0,0.0,0.020842319640529218,0.0,0.0,0.0,0.35,0.0,0.0,0.0,0.0,0.0,2.73116860654329,auto,85.0,2.725368391240098,0.0,0.0,0.0,2.73116860654329,0.0,0,0
1761142569.3856664,24.044798612594604,0.0,0.0,2.734088218844861,0.0,0.0,0.05104811409831274,0.0,0.0,0.0,0.75,0.0,0.0,0.0,0.0,0.0,2.734088218844861,auto,85.0,2.7285770803479195,0.0,0.0,0.0,2.734088218844861,0.0,0,0
1761142569.4928243,24.15195655822754,0.0,0.0,2.7379364868214515,0.0,0.0,0.061604066721238616,0.0,0.0,0.0,0.75,0.0,0.0,0.0,0.0,0.0,2.7379364868214515,auto,85.0,2.7318391655593115,0.0,0.0,0.0,2.7379364868214515,0.0,0,0
