timestamp,simulation_time,position_x,position_y,position_z,velocity_x,velocity_y,velocity_z,attitude_roll,attitude_pitch,attitude_yaw,angular_velocity_x,angular_velocity_y,angular_velocity_z,acceleration_x,acceleration_y,acceleration_z,motor_speed_1,motor_speed_2,motor_speed_3,motor_speed_4,control_throttle,control_roll,control_pitch,control_yaw,estimated_position_x,estimated_position_y,estimated_position_z,estimated_velocity_x,estimated_velocity_y,estimated_velocity_z,estimated_attitude_roll,estimated_attitude_pitch,estimated_attitude_yaw,sensor_accel_x,sensor_accel_y,sensor_accel_z,sensor_gyro_x,sensor_gyro_y,sensor_gyro_z,sensor_gps_x,sensor_gps_y,sensor_gps_z,sensor_gps_vx,sensor_gps_vy,sensor_gps_vz,sensor_baro_altitude,sensor_mag_x,sensor_mag_y,sensor_mag_z,flight_mode,battery_level,gps_fix,waypoint_index,mission_complete,setpoint_altitude,setpoint_position_x,setpoint_position_y,setpoint_position_z,position_error,attitude_error
1760896870.6284008,0.10770249366760254,-1.4741482848365422e-13,1.0574468360453175e-14,0.05682520104974807,-5.471750662917297e-12,2.957723968638709e-13,1.0538948564171797,1.7638602122450923e-07,5.654915730621614e-06,-9.172072055541476e-09,,,,,,,,,,,0.65,0.0,0.5,-6.505567147732965e-06,-3.9541048019746606e-05,1.4497654918130327e-05,-0.8643086880176396,0.0001004391169772283,0.0003199576006719738,0.9407540312464948,-0.006058173799555929,-0.006648879825047048,-0.023296203133309927,,,,,,,,,,,,,,,,,auto,85.0,True,0,False,-10.0,15.0,0.0,-10.0,17.56308748429627,0.02497242785837979
1760896870.7386775,0.21797919273376465,-2.4695066554261385e-12,6.720885390962994e-14,0.23078632863087697,-4.549017510675608e-11,7.457857473936469e-13,2.1116480169263463,2.9777084876564076e-07,2.3055822466136177e-05,-1.5521041226573968e-08,,,,,,,,,,,0.65,0.0,0.5,0.0016025024199025626,-0.6303170412220358,-0.20081933308742292,-0.3147499168226376,0.0004347389258697903,0.026886957386251933,1.9776311372251378,-0.009548637663992115,-0.006003119336733529,0.012760811655590586,,,,,,,,,,,,,,,,,auto,85.0,True,0,False,-10.0,15.0,0.0,-10.0,18.388888177030843,0.01703092003148184
1760896870.84571,0.3250117301940918,-1.2139598564807013e-11,2.324137608175805e-13,0.5106920784806743,-1.484612522029476e-10,2.7473348695260032e-12,3.112270854806011,1.149992746787522e-06,5.133758668018027e-05,-5.997928568890999e-08,,,,,,,,,,,0.65,0.0,0.5,-0.08963659783823927,-0.6301678254725692,-0.19801525386383015,-0.15863805538265438,0.0020400079739555125,0.025493203039321167,2.98076332915643,-0.01264548729850199,-0.004842389091448782,0.09126483994193216,,,,,,,,,,,,,,,,,auto,85.0,True,0,False,-10.0,15.0,0.0,-10.0,18.471430946685295,0.09226390459305335
1760896870.9528766,0.432178258895874,-3.777805148049853e-11,7.570383256764573e-13,0.8980781294662327,-3.459563314984185e-10,7.491394689945106e-12,4.075066193303298,2.2117442409470607e-06,9.105781216317625e-05,-1.1533382718045067e-07,,,,,,,,,,,0.65,0.0,0.5,0.0015376266780816972,-0.6298987602269882,-0.19520164752811045,-0.5934690885601652,0.0036208417701955762,0.025685633271260697,3.9493005606797933,-0.016355204597665957,-0.002150587151836047,0.02217723511870133,,,,,,,,,,,,,,,,,auto,85.0,True,0,False,-10.0,15.0,0.0,-10.0,18.243208674079675,0.02763960021489666
1760896871.0608609,0.5401625633239746,-9.12875856731933e-11,1.9429997543248516e-12,1.3878293792514573,-6.701815976097445e-10,1.483034136833674e-11,4.985810540335506,2.9510882304329425e-06,0.00014224582861346874,-1.5390996419199554e-07,,,,,,,,,,,0.65,0.0,0.5,0.23297831379028888,-0.6293597088966201,-0.19253367133764857,-0.9387241469358852,0.007136009882738138,0.024021609113275035,4.864607747312029,-0.010122160357298432,0.001176106603626302,-0.23226318562939718,,,,,,,,,,,,,,,,,auto,85.0,True,0,False,-10.0,15.0,0.0,-10.0,18.067115824336838,0.2324866205951598
1760896871.168592,0.6478936672210693,-1.8783837380968203e-10,3.962604925522522e-12,1.968045502370221,-1.1617422895170035e-09,2.2284003738298065e-11,5.827720695926898,1.7759365147423754e-06,0.00020422712714641752,-1.2812642315876202e-07,,,,,,,,,,,0.65,-0.2000631228102474,0.5,5.6274728507014625e-05,-0.36282845598343244,-0.8300272525301626,-1.3259178774935476,-0.042129777118771757,-0.009300420372040796,5.728228879405774,-0.013636344596137596,-0.005684801692917751,-0.009420443572148038,,,,,,,,,,,,,,,,,auto,85.0,True,0,False,-10.0,15.0,0.0,-10.0,17.66196886182011,0.017521747096920354
1760896871.2744074,0.753709077835083,-3.449352790312048e-10,6.322044752013956e-12,2.6292484545918198,-1.823113820526202e-09,1.923990373700172e-11,6.596495018977379,-3.832373512407716e-06,0.00027680234463441035,3.222491108887302e-08,,,,,,,,,,,0.65,-0.20432505915638333,0.5,0.00039979832945916983,-0.3672268051854262,-0.8312904202302959,-1.8313932839900744,-0.04036207699196542,-0.014654771243553697,6.502617461552397,-0.010182426628277046,-0.007709634583664083,-0.022445666747174874,,,,,,,,,,,,,,,,,auto,85.0,True,0,False,-10.0,15.0,0.0,-10.0,17.423227000920885,0.025824953691712723
1760896871.382926,0.8622276782989502,-5.894267679661407e-10,7.251528441208976e-12,3.384474336406642,-2.746100280598582e-09,-6.242927231982734e-12,7.310356652991954,-1.0508902372216868e-05,0.000362198576258819,2.2678235697611849e-07,,,,,,,,,,,0.65,0.335266782185026,0.5,-6.0712278459745914e-05,-0.3109599107354907,1.253831969488931,-2.091852099782211,0.0016621301066582575,-0.03986685461913146,7.230386215838672,-0.008275561275693389,-0.0032352712993509655,-0.020610392823292436,,,,,,,,,,,,,,,,,auto,85.0,True,0,False,-10.0,15.0,0.0,-10.0,17.278205670948036,0.022444157082380803
1760896871.4919662,0.9712679386138916,-9.485879985624866e-10,4.6805237512686096e-12,4.217426885288929,-3.837060502552833e-09,-3.977037164325732e-11,7.955594340624202,-1.1384610389483705e-05,0.00045952240518814337,2.588978005142523e-07,,,,,,,,,,,0.65,-0.0019451475262535658,0.5,-0.0005176715919336418,-0.1724105713235664,-0.05574743818384436,-3.2644434943593565,0.04819878294228127,-0.038043848042396175,7.84459575292392,-0.008361369057724492,0.00041674962901578944,0.03136264706037627,,,,,,,,,,,,,,,,,auto,85.0,True,0,False,-10.0,15.0,0.0,-10.0,16.60038769915791,0.03246077330265694
1760896871.5983543,1.0776560306549072,-1.419206151990138e-09,-1.1466542483557348e-12,5.0942678435675885,-5.050989574385649e-09,-6.962335955080907e-11,8.517282616796859,-1.1498133594110113e-05,0.0005656111876611874,2.663507205169328e-07,,,,,,,,,,,0.65,0.1295914368428481,0.5,0.0004896434025210707,-0.6965841162729569,0.5106857192746005,-3.74342842866438,0.0403263520506662,-0.0584468766873279,8.442805120957429,-0.01380665383135698,-2.2998361675826426e-05,0.022430796310909967,,,,,,,,,,,,,,,,,auto,85.0,True,0,False,-10.0,15.0,0.0,-10.0,16.90527256953725,0.02633941613029978
1760896871.7068737,1.1861753463745117,-2.046430346586169e-09,-1.0234975111269429e-11,6.046659603512359,-6.541082201663063e-09,-9.652658970583348e-11,9.024471017665494,-9.733031996745268e-06,0.0006851900664313652,2.1030599636885343e-07,,,,,,,,,,,0.65,-0.0045847771720962625,0.5,0.00048602101544733655,-0.09910415802955497,-0.24775052647860438,-4.9182174902820295,0.04795123712265711,-0.06062883842493569,8.96402731585707,-0.013790503973950952,-0.0006395249214822141,0.03334357367594311,,,,,,,,,,,,,,,,,auto,85.0,True,0,False,-10.0,15.0,0.0,-10.0,15.933262069471878,0.03608851475835214
1760896871.816922,1.2962236404418945,-2.8505950467791156e-09,-2.1798158773915666e-11,7.0556138974737355,-8.249903192892067e-09,-1.1393416390029443e-10,9.47163500124036,-6.952602324882893e-06,0.0008169159698442867,1.1899603711330531e-07,,,,,,,,,,,0.65,-0.0037328234046545353,0.5,0.0006180871746064595,-0.09390218073638978,-0.2548550062875354,-6.229165477656014,0.048273290599144994,-0.06952717978297848,9.416546717142612,-0.01233692686298212,-0.0024782212761938743,0.027328630797712528,,,,,,,,,,,,,,,,,auto,85.0,True,0,False,-10.0,15.0,0.0,-10.0,15.559885189511192,0.030086465501850356
1760896871.9238613,1.403162956237793,-3.839129435723633e-09,-3.455156751343189e-11,8.094403698288609,-1.0194258720291404e-08,-1.220318425246486e-10,9.856010523033518,-4.336530810387456e-06,0.0009580522458714526,3.366790492045623e-08,,,,,,,,,,,0.65,-0.003036715148552504,0.5,0.07896834907859163,-1.419639799437335,-0.3161463237957362,-6.384653389047868,0.012531697717150188,-0.020321656992870984,9.778496899393305,-0.015067463479326724,-0.005882701527826216,-0.07910722590060726,,,,,,,,,,,,,,,,,auto,85.0,True,0,False,-10.0,15.0,0.0,-10.0,16.815922536650767,0.08074396462062065
1760896872.0299442,1.5092458724975586,-5.015029381869684e-09,-4.758790802214975e-11,9.163004764886194,-1.1716471373302413e-08,-1.2118684609475886e-10,10.187338495308659,-2.538504128744652e-06,0.0011083691829661718,-1.0742102999712648e-08,,,,,,,,,,,0.37,-0.002467944021841621,0.5,-0.001090738012925403,-1.432999470600675,-0.16985724040047637,-7.634932605678973,-0.04212272898655132,-0.028642834790905843,10.181370073865363,-0.011814891553227904,-0.008148930145711235,-0.03474768474027834,,,,,,,,,,,,,,,,,auto,85.0,True,0,False,-10.0,15.0,0.0,-10.0,16.6031884547083,0.037595190114481265
1760896872.1374743,1.6167759895324707,-6.353037805203339e-09,-6.038722410862165e-11,10.274375031289392,-1.3024153526612846e-08,-1.1640878000643816e-10,10.47639099608377,-2.1112072555275037e-06,0.0012681023739298516,-5.423015692720017e-09,,,,,,,,,,,0.37,-0.26081842819021933,0.5,-0.0007237263602148633,-0.9916101669321935,-1.0423712771604763,-8.44561746242473,-0.0292897762332176,0.008078304162536042,10.532267637449928,-0.007799719185440704,-0.010293491099995557,0.033474852917944165,,,,,,,,,,,,,,,,,auto,85.0,True,0,False,-10.0,15.0,0.0,-10.0,16.10075273655543,0.03587976248911654
1760896872.243525,1.7228267192840576,-7.804957203594454e-09,-7.252483983214434e-11,11.398751783142261,-1.4405301075762561e-08,-1.1330197523491337e-10,10.721982832958115,-4.675480202565951e-06,0.0014324011303141143,1.1127103700271477e-07,,,,,,,,,,,0.37,-0.2604611138046402,0.5,0.07158989444066019,-0.99418644569166,-1.0416530624800286,-9.729486383493825,-0.019348431199805574,0.005157632092392001,10.782023796323024,-0.004638409351522335,-0.011152042619703989,-0.07174647105260021,,,,,,,,,,,,,,,,,auto,85.0,True,0,False,-10.0,15.0,0.0,-10.0,16.030353045982366,0.07275602383586931
1760896872.3506882,1.8299899101257324,-9.43226277319926e-09,-8.484115691667612e-11,12.55946666260037,-1.5985116615919916e-08,-1.1852312524546324e-10,10.935089444756507,-1.1631284495720665e-05,0.0016055894839531488,3.996125802298318e-07,,,,,,,,,,,0.37,-0.25793275105376073,0.5,-0.0014514358322510572,-0.9956434809252678,-1.0413302173193428,-11.225974955094213,-0.008275124976964917,0.0003591506761326735,10.999702089874466,-0.004035291457143297,-0.007560776177767863,-0.0015814602119235133,,,,,,,,,,,,,,,,,auto,85.0,True,0,False,-10.0,15.0,0.0,-10.0,16.07631778675974,0.00871492569998694
1760896872.4594953,1.9387969970703125,-1.1267131454475925e-08,-9.871700900806568e-11,13.759607700820506,-1.78217656903274e-08,-1.4032957444462573e-10,11.119961559764835,-2.305912659384534e-05,0.0017887101629338888,8.596437084487731e-07,,,,,,,,,,,0.37,-0.30605440218932195,0.5,0.13983860150915817,-1.727350676773771,-1.250957798207612,-12.202515539396984,-0.044248714021821886,-0.004814004545379763,11.226251734135392,-0.006912288917055196,-0.007153995232917965,-0.14036987601914822,,,,,,,,,,,,,,,,,auto,85.0,True,0,False,-10.0,15.0,0.0,-10.0,16.91804453174023,0.14072192963250785
1760896872.567333,2.0466346740722656,-1.3289472136098472e-08,-1.1590546453668413e-10,14.967398172518694,-1.9599583664851552e-08,-1.8062924505278852e-10,11.276009613830075,-3.859435411328369e-05,0.001977450641501866,1.4734397995805888e-06,,,,,,,,,,,0.37,0.02322672656643141,0.5,-0.0011998760862494725,-1.2932411711315241,-0.2776439013618664,-13.153307457039828,-0.0035285242860394203,-0.012484403897023384,11.37634391657405,-0.006185483261492141,-0.005599328172378492,0.03508148758845805,,,,,,,,,,,,,,,,,auto,85.0,True,0,False,-10.0,15.0,0.0,-10.0,16.59789570744562,0.036059997928165874
1760896872.6757104,2.1550121307373047,-1.5509688212845762e-08,-1.38600003780172e-10,16.1968846497955,-2.1442278564607503e-08,-2.4288140711529175e-10,11.40932064326693,-5.515216611382916e-05,0.002173932119985949,2.1265755303229945e-06,,,,,,,,,,,0.37,-0.17897824807418736,0.5,-0.002169508329477678,-1.0924967606570994,-0.8372130560605263,-14.38563542165144,-0.04225910965532562,0.0033869615895044916,11.4948518979298,-0.013339306883638878,-0.0030655204103377342,0.02286336782732733,,,,,,,,,,,,,,,,,auto,85.0,True,0,False,-10.0,15.0,0.0,-10.0,16.700394478713406,0.026647103255884288
1760896872.7836452,2.262946844100952,-1.793036813748245e-08,-1.692081221096146e-10,17.43459180662436,-2.3422199233344812e-08,-3.2787555077282527e-10,11.521949893242718,-7.390321791452882e-05,0.002376466602895587,2.865825379970606e-06,,,,,,,,,,,0.37,0.022018449043379105,0.5,-0.06892306881807778,-1.84593800876287,0.2501976260246019,-13.940911305547155,-0.012634133067956825,-0.024077835167074298,11.591254699132254,-0.008677924322224464,-0.002157750887827423,0.06839508711267998,,,,,,,,,,,,,,,,,auto,85.0,True,0,False,-10.0,15.0,0.0,-10.0,17.30257229909297,0.0689771715902244
1760896872.8896635,2.3689651489257812,-2.0517973315718157e-08,-2.0924814586032006e-10,18.661240646999193,-2.542271838593376e-08,-4.3116981408947094e-10,11.615814371001768,-9.241966721730481e-05,0.002581923828822604,3.595252507633677e-06,,,,,,,,,,,0.37,0.01741282757326736,0.5,-3.762221010326648e-05,-1.2340551379384674,0.35181817215342237,-15.646870034746668,0.012418962573195262,-0.036847723281162134,11.63309855311473,-0.00822872867005259,0.0038635751479773996,-0.026796497934497683,,,,,,,,,,,,,,,,,auto,85.0,True,0,False,-10.0,15.0,0.0,-10.0,17.191726598489275,0.028296492538881078
1760896872.997066,2.476367712020874,-2.3350191724349346e-08,-2.6180819825469486e-10,19.90733508496183,-2.759301502299826e-08,-5.553679955443999e-10,11.696074178965292,-0.00011051434846234907,0.0027955750120887395,4.307812521184858e-06,,,,,,,,,,,0.37,0.01344158654478441,0.5,0.11130317913226641,-1.7645627508999457,-0.11417394325596848,-16.817853131848587,0.005983275878446668,-0.04652887296540527,11.683957625905489,-0.011447382743867867,0.00016045458101258552,-0.11176320898990609,,,,,,,,,,,,,,,,,auto,85.0,True,0,False,-10.0,15.0,0.0,-10.0,18.09825188369413,0.11234804493661027
1760896873.1047835,2.58408522605896,-2.64615473425806e-08,-3.295249594699792e-10,21.176953040792444,-2.993176007008469e-08,-6.990588290725362e-10,11.76478663155772,-0.00012899830212412966,0.0030185104775411016,5.035816661406029e-06,,,,,,,,,,,0.37,0.01070972778542681,0.5,0.0595319559210253,-1.4344604465566078,-0.03977338250083022,-19.337300615629303,0.011512279138934574,-0.07015518414657342,11.757788299208737,-0.012517635545089393,0.0001563124405909083,-0.06061499853975884,,,,,,,,,,,,,,,,,auto,85.0,True,0,False,-10.0,15.0,0.0,-10.0,18.901805598355427,0.061894213632566135
1760896873.2116714,2.6909730434417725,-2.979442865210157e-08,-4.1274310233934904e-10,22.43761503466936,-3.245248603536226e-08,-8.607803700452906e-10,11.822114734535443,-0.00014778105371986646,0.003245269916899101,5.7762006599054255e-06,,,,,,,,,,,0.37,0.16916687531824295,0.5,0.053465976161623185,-0.8090104869949541,0.6222878425420227,-19.54679604114758,0.053620491409641514,-0.049793960118105086,11.825808172956783,-0.011147536365249866,0.0027450851002091344,-0.05709404604746436,,,,,,,,,,,,,,,,,auto,85.0,True,0,False,-10.0,15.0,0.0,-10.0,18.478456899540152,0.058236871080887744
1760896873.3184195,2.7977211475372314,-3.338685517380905e-08,-5.136801481175177e-10,23.696198952630155,-3.5195468919761746e-08,-1.041477578756732e-09,11.870284150906675,-0.00016552296416174052,0.00347715537774767,6.477986905360293e-06,,,,,,,,,,,0.37,0.0014632964859902407,0.5,0.08008687512263025,-0.9472073945768478,0.09975596849398127,-20.395164394033483,0.05580874457254185,-0.04255714820217368,11.866432006432019,-0.016364677749687348,0.0035432199440883047,-0.08454142151575134,,,,,,,,,,,,,,,,,auto,85.0,True,0,False,-10.0,15.0,0.0,-10.0,19.036355158429835,0.08618357753845705
1760896873.4254785,2.904780149459839,-3.732921399943828e-08,-6.361546093298871e-10,24.97535692295369,-3.820449886825915e-08,-1.2411804284014142e-09,11.911467340335498,-0.00018206928617957706,0.0037186537987708734,7.133187089759578e-06,,,,,,,,,,,0.37,0.21030143662753328,0.5,0.12785286715856792,-0.20781237037516606,0.654763549771699,-22.49738185318326,0.01679560340556224,0.00817207312712026,11.878623941940848,-0.017487272702057893,0.008950077753648485,-0.1315058714544346,,,,,,,,,,,,,,,,,auto,85.0,True,0,False,-10.0,15.0,0.0,-10.0,19.6949441629805,0.13296504362178344
1760896873.532246,3.011547803878784,-4.15722296002623e-08,-7.795496784107672e-10,26.24900902808324,-4.1253465245575986e-08,-1.4435377754969514e-09,11.945946082193869,-0.00019592242685269196,0.003965132924308985,7.682642675862798e-06,,,,,,,,,,,0.37,0.11927249606500888,0.5,-0.0024748764348717354,-0.1314645517497591,0.372803596535888,-24.52676599442103,-0.0017960673978574405,-0.015577727264741706,11.916394655439957,-0.018479015305533208,0.01289407320615986,-0.039398138128882126,,,,,,,,,,,,,,,,,auto,85.0,True,0,False,-10.0,15.0,0.0,-10.0,20.979207140860137,0.04538661056446511
1760896873.6395946,3.118896245956421,-4.6180390497377296e-08,-9.460425482398372e-10,27.533001491106607,-4.472219968970861e-08,-1.6634298873091447e-09,11.975178250861786,-0.0002075130153879082,0.004219636379999654,8.146429764719771e-06,,,,,,,,,,,0.37,0.24940884133310695,0.5,-0.0031826336615913245,-2.257564586532752,0.877230756525393,-25.762510995066744,-0.011495721620195342,-0.01274683962562665,11.919401603945788,-0.01741820883113891,0.010280142806179704,0.003023774861225792,,,,,,,,,,,,,,,,,auto,85.0,True,0,False,-10.0,15.0,0.0,-10.0,23.38909622298697,0.020450392402396458
1760896873.7471235,3.2264251708984375,-5.118304738086412e-08,-1.1367279056595346e-09,28.822043647481465,-4.828282488995409e-08,-1.879237322811983e-09,11.99984407665049,-0.00021568836764756244,0.004481480790699682,8.481182897255401e-06,,,,,,,,,,,0.37,0.21190191041770484,0.5,-0.004278192800095469,-2.0012721436353695,0.7520321186831406,-25.593329228334813,-0.08380260607421121,-0.00398549338141185,11.994932948970819,-0.01570423633518728,0.010045348547730714,-0.044531987046651775,,,,,,,,,,,,,,,,,auto,85.0,True,0,False,-10.0,15.0,0.0,-10.0,23.081610065866805,0.04827659822978389
1760896873.8561723,3.3354740142822266,-5.662782342335777e-08,-1.3521843687345258e-09,30.13179311486082,-5.1605550399323705e-08,-2.0716519418633798e-09,12.020880219697732,-0.0002230103685031674,0.004753835923222397,8.786454403657106e-06,,,,,,,,,,,0.37,-0.014826385082109567,0.5,0.04974245917961921,-0.5669454360131059,0.19122838529110228,-25.76171978662901,-0.09822845034485553,-0.0077242656127250175,12.073399522243376,-0.019337522479055663,0.008755403678562165,-0.05451084418722087,,,,,,,,,,,,,,,,,auto,85.0,True,0,False,-10.0,15.0,0.0,-10.0,22.15396508833944,0.05849811110801813
1760896873.965445,3.444746732711792,-6.24670115680926e-08,-1.5895458550726434e-09,31.440005021018564,-5.6176730885711e-08,-2.3093024096130892e-09,12.038498085049715,-0.00022899130437731925,0.005032422052837874,9.042291193825354e-06,,,,,,,,,,,0.37,0.4090690842309379,0.5,-0.004375744027945286,-0.863032435859191,1.5261035506569172,-27.261716260938666,-0.08342177548825368,-0.04564048595623202,12.06298674930252,-0.023097252845935147,0.012777309493112694,0.004041549818198965,,,,,,,,,,,,,,,,,auto,85.0,True,0,False,-10.0,15.0,0.0,-10.0,23.493225372042954,0.0267034988689653
1760896874.0736692,3.5529708862304688,-6.887537173684887e-08,-1.8550260701871707e-09,32.750026667901466,-6.173215783218527e-08,-2.57098220643508e-09,12.053294625982643,-0.00022914553009555804,0.005318637022003375,9.088647413436178e-06,,,,,,,,,,,0.37,0.3773223045292519,0.5,-0.0035351946335017304,-0.8725419719004315,1.5201425240472852,-31.173556117187978,-0.09056850877805296,-0.0650965002186051,12.076756956484216,-0.01699590610100004,0.012694786408702237,-0.037554560328951964,,,,,,,,,,,,,,,,,auto,85.0,True,0,False,-10.0,15.0,0.0,-10.0,26.505997445688894,0.04313193048841512
1760896874.181314,3.6606156826019287,-7.580302729471517e-08,-2.1437664297500553e-09,34.04818267656582,-6.685220520701204e-08,-2.7826087007849747e-09,12.065602948005646,-0.00022314169287531238,0.00560966438142222,8.907080744569416e-06,,,,,,,,,,,0.37,0.2101782194072633,0.5,-0.001852232555521348,0.8064232130265173,0.9286763130229121,-30.5143262316386,-0.058482990065003314,-0.04750807348404632,12.117393574726517,-0.010829091171739948,0.00935627924762918,-0.00010787563961074664,,,,,,,,,,,,,,,,,auto,85.0,True,0,False,-10.0,15.0,0.0,-10.0,24.96312565445637,0.014311562252916136
1760896874.289147,3.7684485912323,-8.322292084371839e-08,-2.451022107183937e-09,35.349826905605035,-7.06909499984043e-08,-2.9074723605216146e-09,12.075970995115238,-0.0002129853049672909,0.005908467316307843,8.564248588568026e-06,,,,,,,,,,,0.37,0.09915809434804565,0.5,0.13019416951649554,1.0132760791874953,0.5512844409495165,-33.36193600099612,-0.044175839632563337,-0.04024996435588916,12.156419696784297,-0.0025737206425600146,0.010836553323135769,-0.1296439433444328,,,,,,,,,,,,,,,,,auto,85.0,True,0,False,-10.0,15.0,0.0,-10.0,27.234397630322214,0.1301215084902016
1760896874.3981385,3.8774402141571045,-9.10904551044867e-08,-2.7712986108069262e-09,36.66041220299943,-7.43891784603039e-08,-2.9928239578978035e-09,12.084735032828638,-0.00020153935197799383,0.0062158565897091995,8.171102886983657e-06,,,,,,,,,,,0.37,-0.030319897802117572,0.5,-0.10877431521277091,-0.12334367844592586,0.17695805125315411,-32.253997732327726,-0.043829850318884575,0.019293218268371173,12.08464442610138,-0.0015767376951319047,0.01146358668828879,0.1071350907056227,,,,,,,,,,,,,,,,,auto,85.0,True,0,False,-10.0,15.0,0.0,-10.0,26.907011228279167,0.10775819032454641
1760896874.5044658,3.983767509460449,-9.92382161872323e-08,-3.094322712647002e-09,37.95183609665604,-7.821159405870465e-08,-3.051630678679778e-09,12.09199054265725,-0.00018972179981038796,0.00652511575948193,7.762243045535025e-06,,,,,,,,,,,0.37,-0.02458541041622909,0.5,-0.07169559519946028,-0.22656371877555842,-0.03745157952741811,-34.262336722425246,-0.004777670710741771,0.02420926921897834,12.062376131888575,0.00032948791811700955,0.012572856985803758,0.07243817263020358,,,,,,,,,,,,,,,,,auto,85.0,True,0,False,-10.0,15.0,0.0,-10.0,28.64455669992269,0.0735219297154042
1760896874.6106331,4.089934825897217,-1.077641070762242e-07,-3.4207184938845024e-09,39.235941839063514,-8.248476522333208e-08,-3.0945815929593252e-09,12.098063246798203,-0.00017686096162958112,0.0068390032799500395,7.310839083147835e-06,,,,,,,,,,,0.37,0.1439371700627608,0.5,0.0031428438461538646,-0.5099413549857658,0.521381930678908,-36.25008388846706,0.0005427151373541459,0.029104384552558447,12.055849785809658,-0.0054584041407605855,0.010871560561042123,-0.03434445219933788,,,,,,,,,,,,,,,,,auto,85.0,True,0,False,-10.0,15.0,0.0,-10.0,30.49421296089299,0.03643523571584082
1760896874.7198305,4.199132204055786,-1.1705919539341071e-07,-3.760778554874366e-09,40.55731370276681,-8.872202099085858e-08,-3.1505793248341766e-09,12.103313483086241,-0.00016071866356076085,0.007168956159963587,6.7323560982827564e-06,,,,,,,,,,,0.37,0.39503679189423485,0.5,-0.08713484159725947,-0.4562966635674791,1.5681644468078486,-37.532721100813596,0.013066191878674348,-0.026802091458210792,12.111906508365191,-0.006794796151741752,0.017100545315757915,0.09086518535215096,,,,,,,,,,,,,,,,,auto,85.0,True,0,False,-10.0,15.0,0.0,-10.0,31.61339870212669,0.09270965329414604
1760896874.8299394,4.309241056442261,-1.2713129398979636e-07,-4.108073970494919e-09,41.89024709360874,-9.370843546306145e-08,-3.13997030933632e-09,12.107749228820852,-0.00013942184154938712,0.007509467998660999,5.962875689278816e-06,,,,,,,,,,,0.37,0.11541654285071493,0.5,0.09016044386622052,-0.557778597078444,0.4854778760601821,-39.15389077061328,0.008483432375534476,0.0032463652922635248,12.117356929830244,-0.006075436527649993,0.01713334940942791,-0.08796960171428012,,,,,,,,,,,,,,,,,auto,85.0,True,0,False,-10.0,15.0,0.0,-10.0,33.048895756268564,0.08982824398125637
1760896874.9378386,4.417140245437622,-1.3743501457790957e-07,-4.442582042420325e-09,43.19068347379993,-9.815287322281233e-08,-3.08339565047721e-09,12.111378669423614,-0.00011690905654548563,0.007848325684425594,5.144999551112167e-06,,,,,,,,,,,0.37,0.08030665766958313,0.5,0.08506042683747944,-0.3335635867134513,0.4381517857980315,-38.547231200258864,0.01657285761483345,-0.041684666243287434,12.12415770160107,-0.006396259196202049,0.015563679441313746,-0.08305140873717919,,,,,,,,,,,,,,,,,auto,85.0,True,0,False,-10.0,15.0,0.0,-10.0,32.40763117625563,0.08473887385779312
1760896875.0456944,4.524996042251587,-1.483209356360738e-07,-4.772116405755055e-09,44.50331975744122,-1.0275508142019786e-07,-2.992578128311553e-09,12.114455685502595,-9.276392923725539e-05,0.008197026164660151,4.262731279958969e-06,,,,,,,,,,,0.37,0.08850852425287033,0.5,-0.06716974650795193,-0.3321240231773214,0.4333531242269393,-42.76246872397343,0.010281639557567139,-0.04791466420639411,12.127040981309499,-0.012394858951548888,0.012322910373769841,0.06813242613616655,,,,,,,,,,,,,,,,,auto,85.0,True,0,False,-10.0,15.0,0.0,-10.0,36.17514587229339,0.07033856793899734
1760896875.152451,4.6317527294158936,-1.59536548207643e-07,-5.085387367418924e-09,45.79675881660307,-1.0741042271701654e-07,-2.871686162526059e-09,12.117003464564025,-6.867614210720773e-05,0.00854714375636673,3.3819705204590306e-06,,,,,,,,,,,0.37,-0.021254659072016294,0.5,-0.14806607674095423,-0.5688061536264993,0.14892870822921922,-43.217839600738145,0.010094885510453616,-0.011702103317429784,12.124940700819437,-0.01301334554172595,0.01122992572546693,0.14738687988582239,,,,,,,,,,,,,,,,,auto,85.0,True,0,False,-10.0,15.0,0.0,-10.0,36.68562078730167,0.1483858172348884
1760896875.2585254,4.7378270626068115,-1.7119212473377854e-07,-5.382464192172833e-09,47.082178159828715,-1.1230849738136101e-07,-2.7244717568797843e-09,12.119135047311046,-4.4011836489124355e-05,0.008901564060709964,2.4776177660482136e-06,,,,,,,,,,,0.37,-0.12403982300233418,0.5,-0.10359371458221402,-0.4187775742633148,-0.36216714789801996,-41.86722530276418,0.1015110424599061,-0.05342532789455331,12.08439460364641,-0.011776216610378176,0.008361480813291291,0.10516579364367101,,,,,,,,,,,,,,,,,auto,85.0,True,0,False,-10.0,15.0,0.0,-10.0,35.40324724407008,0.10615289817875337
1760896875.3672187,4.84652042388916,-1.8362336898442676e-07,-5.667847174407199e-09,48.393366096340685,-1.1745500166317909e-07,-2.5469429054907703e-09,12.120963542000448,-1.955889494746257e-05,0.00926974467472874,1.5830269413808757e-06,,,,,,,,,,,0.37,-0.1142144890267628,0.5,-0.1627829117291778,0.6427440856504194,-0.41157572304580387,-39.90165387832389,0.13269767561252996,-0.018277041662059124,12.061748792057633,-0.010556437233665752,0.005307626239227611,0.1641427409300262,,,,,,,,,,,,,,,,,auto,85.0,True,0,False,-10.0,15.0,0.0,-10.0,33.172414693914114,0.16456745930889669
1760896875.4747527,4.954054355621338,-1.965927750671935e-07,-5.932368636115269e-09,49.703050516044875,-1.2270944099877527e-07,-2.3460871434061823e-09,12.122496933931266,3.744050004398908e-06,0.00964415819508858,7.335366099039518e-07,,,,,,,,,,,0.37,-0.008782130579009296,0.5,0.0922804957688565,0.5346778724201303,0.04066277752435651,-46.13511783874421,0.12442141825634753,-0.028693668230419758,12.056606239438498,-0.01184192878001968,0.004047930556178108,-0.09271420689882616,,,,,,,,,,,,,,,,,auto,85.0,True,0,False,-10.0,15.0,0.0,-10.0,38.92292305231016,0.09355501686118732
1760896875.5817995,5.061101198196411,-2.099392126843081e-07,-6.17093560788506e-09,50.99467080866243,-1.2783527027572125e-07,-2.1295435611063836e-09,12.123768232985276,2.554237616104732e-05,0.010019937734554459,-5.684009907958919e-08,,,,,,,,,,,0.37,-0.006817975548110828,0.5,-0.0016704842977425223,0.5482804923162453,0.03682896018510276,-49.68914253416396,0.13133668980229743,-0.042362477684643296,12.05781418896173,-0.010008221545803823,0.003617204401087804,-0.02765428930200533,,,,,,,,,,,,,,,,,auto,85.0,True,0,False,-10.0,15.0,0.0,-10.0,42.238389981132784,0.029631206235793833
1760896875.688541,5.167842626571655,-2.238665239071223e-07,-6.385920552144022e-09,52.28864432246945,-1.3318906142209748e-07,-1.8967405303284646e-09,12.124840086717217,4.700771615046922e-05,0.010402854429842819,-8.337447684154764e-07,,,,,,,,,,,0.37,-0.005213117883852321,0.5,-0.001213985983569803,0.5626951514666222,0.03159421729687712,-50.68922988181861,0.13895988414066962,-0.055419553568923315,12.058377830749322,-0.011058013950881015,0.0020179915844463535,-0.010650830260404962,,,,,,,,,,,,,,,,,auto,85.0,True,0,False,-10.0,15.0,0.0,-10.0,43.17464762866667,0.015485223531119384
1760896875.7956493,5.274950981140137,-2.385012994989227e-07,-6.576773185306445e-09,53.59368558908187,-1.3876130732458724e-07,-1.6475983421166462e-09,12.125749075367127,6.848869133302038e-05,0.010795616992616714,-1.610570563385406e-06,,,,,,,,,,,0.37,-0.0039018323274616308,0.5,-0.0905805831723927,1.7134122247608432,0.09939091653021619,-51.22207476160873,0.08394009971534057,-0.08377689050508813,12.1012897406534,-0.014001335937757023,0.0032690433525185687,0.08891248817053482,,,,,,,,,,,,,,,,,auto,85.0,True,0,False,-10.0,15.0,0.0,-10.0,43.31053845099461,0.09006750027150784
1760896875.9033153,5.382616996765137,-2.537464599716842e-07,-6.740163988473371e-09,54.8992590024142,-1.4444824903105085e-07,-1.3854588969699487e-09,12.126513127828396,9.029973186789292e-05,0.011195132002344468,-2.4005586564149478e-06,,,,,,,,,,,0.37,-0.002830416557270391,0.5,-0.00023960930164095993,1.7228022160941907,0.08946847622467809,-53.27197202776127,0.09034946798625985,-0.09959228960354581,12.10158017457951,-0.012622417133115868,0.008139475382545763,-0.01905453492261633,,,,,,,,,,,,,,,,,auto,85.0,True,0,False,-10.0,15.0,0.0,-10.0,45.26318093961741,0.02426214695575498
1760896876.0102732,5.489574909210205,-2.695070811999021e-07,-6.873849892331285e-09,56.1963206403048,-1.5026343999761664e-07,-1.1124984942487133e-09,12.127151238066585,0.00011221417090380361,0.01159857194789842,-3.1952230893921747e-06,,,,,,,,,,,0.37,-0.001954991866576653,0.5,0.0007417625509267469,1.732662059687273,0.0780911291233251,-54.76793138924783,0.09717006993463788,-0.11326161250165828,12.104207383634153,-0.01102112261368558,0.0029313508533039285,-0.005159021218799936,,,,,,,,,,,,,,,,,auto,85.0,True,0,False,-10.0,15.0,0.0,-10.0,46.69256937799965,0.012516926996155458
1760896876.1182907,5.597592353820801,-2.860593736015927e-07,-6.978621427508938e-09,57.506294631792905,-1.5622859550312643e-07,-8.256014928436719e-10,12.127692877253326,0.00013445130740523888,0.012012623575072138,-4.0019728020836184e-06,,,,,,,,,,,0.37,-0.0012397061573328565,0.5,0.000800037932371803,1.7437221356176609,0.06524385833680417,-56.26135963020083,0.10819746730531242,-0.12227004256432403,12.104165451147614,-0.00338662246108303,0.0041294843868558235,-0.041171655299748394,,,,,,,,,,,,,,,,,auto,85.0,True,0,False,-10.0,15.0,0.0,-10.0,48.12324339041934,0.04151658768632723
1760896876.2258673,5.705168962478638,-3.031116813627765e-07,-7.051280051073391e-09,58.80477913640255,-1.6233202742899823e-07,-5.300722999473145e-10,12.12814403803784,0.00015626077706681326,0.012429583694961898,-4.792331585209022e-06,,,,,,,,,,,0.37,-0.0006552656551544792,0.5,-0.000673917713740308,0.7213746385529699,0.22373649515878974,-51.32508401244452,-0.04512958820268779,-0.056522522401303156,12.159797676290857,-0.0006872848172537499,-0.0014762683773143993,0.0006396385601688658,,,,,,,,,,,,,,,,,auto,85.0,True,0,False,-10.0,15.0,0.0,-10.0,43.72289753512937,0.001749533146168117
1760896876.3328366,5.812138319015503,-3.208925437288563e-07,-7.091926776235093e-09,60.1083366010849,-1.6857121553808082e-07,-2.247101896043049e-10,12.128524823602815,0.00017777048895043236,0.01285472316798471,-5.570369244131208e-06,,,,,,,,,,,0.37,-0.0001777352135808245,0.5,-0.09948866030034838,0.7173192409590713,0.2176116564742464,-58.04863333763649,-0.028796688233413997,-0.05656102675061862,12.16213367318606,0.0008643756881171989,-0.0004052040213374452,0.09867552326932674,,,,,,,,,,,,,,,,,auto,85.0,True,0,False,-10.0,15.0,0.0,-10.0,50.126973677974455,0.09868014100164509
1760896876.440306,5.919607639312744,-3.3935449981383216e-07,-7.099242427534875e-09,61.411798612922816,-1.7507423090079435e-07,9.057757809955756e-11,12.1288448188942,0.0001994568481192023,0.013286404155678689,-6.355467833229524e-06,,,,,,,,,,,0.37,0.00021244192469001104,0.5,-0.10744074265155808,0.7149413922082806,0.21162403024337167,-59.97275563649224,-0.015839539052166184,-0.054911343275405894,12.161717604813994,-0.002406088463251687,-5.2345228455857796e-05,0.10798563833480118,,,,,,,,,,,,,,,,,auto,85.0,True,0,False,-10.0,15.0,0.0,-10.0,51.97483997149763,0.10801245339446011
1760896876.5487907,6.028092384338379,-3.586263621240597e-07,-7.071855918657836e-09,62.721480656400416,-1.8206886503733528e-07,4.206353648738841e-10,12.129114910353701,0.00022143597059072012,0.013726798779300053,-7.151260799512571e-06,,,,,,,,,,,0.37,-0.17181429451672398,0.5,-0.00012980346688541147,1.0278770877809202,-0.5857710289331198,-57.87695106785397,-0.04700191675105789,-0.027637319391552922,12.207801376109982,9.754080270133173e-05,0.0005393103979944361,-0.021299830086993987,,,,,,,,,,,,,,,,,auto,85.0,True,0,False,-10.0,15.0,0.0,-10.0,49.877507856008386,0.021306879913501903
1760896876.6567104,6.136012077331543,-3.7867702090528773e-07,-7.008055124322406e-09,64.0304433577909,-1.894572929200228e-07,7.610119876062947e-10,12.1293415888386,0.00024133365221571388,0.014173746804030258,-7.864624714520709e-06,,,,,,,,,,,0.37,0.006145531821913387,0.5,-7.782755437782095e-05,0.9130091169065002,0.05220701041073063,-57.76999631689642,-0.044858713785045565,-0.09406541492318708,12.19968842032264,-0.001519955920229785,0.0015467642328652889,0.014213986512874248,,,,,,,,,,,,,,,,,auto,85.0,True,0,False,-10.0,15.0,0.0,-10.0,49.803800917486136,0.014378461606850851
1760896876.761875,6.241176605224609,-3.9904487681565817e-07,-6.910580840787247e-09,65.31217808504054,-1.9607050891929184e-07,1.0844373218317643e-09,12.129528379592694,0.00026016132355455415,0.014617896678257079,-8.537326575474982e-06,,,,,,,,,,,0.37,0.005341396082606146,0.5,-0.05370731172576833,0.9090038446929646,0.04225039856843626,-63.106119124984126,-0.03076322465711048,-0.09506645901867324,12.199986464278382,-0.002081703032735741,-0.0002610600839657436,0.05436187784243249,,,,,,,,,,,,,,,,,auto,85.0,True,0,False,-10.0,15.0,0.0,-10.0,54.94376985848406,0.05440234739824646
1760896876.8855793,6.3648810386657715,-4.2358395206975684e-07,-6.754308860516155e-09,66.80051706219614,-2.0390547685413313e-07,1.4626804126511345e-09,12.129708780497491,0.0002820876350170819,0.015141607543174899,-9.320999720428322e-06,,,,,,,,,,,0.37,0.004931365024890695,0.5,0.0001862917030513514,0.8481380424319186,-0.12448475937517565,-58.16908732210627,0.008385043334607899,-0.06988536805106506,12.21788862107147,-0.000786444490207202,0.008211801995211765,0.02848636872586383,,,,,,,,,,,,,,,,,auto,85.0,True,0,False,-10.0,15.0,0.0,-10.0,50.20509602387071,0.029656793321777286
1760896876.9924004,6.4717020988464355,-4.4596796930476506e-07,-6.5781848826022125e-09,68.10838178189526,-2.1121889405424697e-07,1.8026679318257307e-09,12.129840278496744,0.0003011699762545042,0.015608918500901526,-1.0002188442616985e-05,,,,,,,,,,,0.37,0.004349333409733151,0.5,-0.0009823600511017305,0.849434273839725,-0.1319759393089613,-66.00774658009566,0.01685487711879296,-0.06915865595938805,12.219154663203573,0.0015765653959011249,0.006064544440816899,0.04024004611582152,,,,,,,,,,,,,,,,,auto,85.0,True,0,False,-10.0,15.0,0.0,-10.0,57.76784230866819,0.040724999314004154
1760896877.0993185,6.578620195388794,-4.6893239016268204e-07,-6.367590085893351e-09,69.40528724481611,-2.1836288674649029e-07,2.1367575548703998e-09,12.129949899156326,0.0003200945456355341,0.016078865109231972,-1.0677711769260972e-05,,,,,,,,,,,0.37,0.0038737712042390855,0.5,6.137730937181524e-05,0.6616480311563708,0.2799909906341711,-57.696036900931695,-0.035702218134130596,-0.0861181870196714,12.134859533306255,0.0033313175661210124,0.006731511897247305,-0.022592963532703875,,,,,,,,,,,,,,,,,auto,85.0,True,0,False,-10.0,15.0,0.0,-10.0,49.80540802154236,0.02380867342669926
1760896877.2081645,6.687466144561768,-4.93004249004233e-07,-6.117325505760338e-09,70.71932427276826,-2.262525637100776e-07,2.487599812917006e-09,12.130043196373594,0.000339727071610572,0.016561663476915994,-1.1379270173158296e-05,,,,,,,,,,,0.37,0.1736092341855478,0.5,-0.0017896439458015094,0.22656818766555284,0.7754670913610165,-66.07208345491814,-0.025526207453992977,-0.07096161838918488,12.132739801833576,-0.0011905836520773889,0.008959305799122344,0.024541053749167204,,,,,,,,,,,,,,,,,auto,85.0,True,0,False,-10.0,15.0,0.0,-10.0,57.99081116606996,0.02615243715133056
1760896877.315214,6.794515609741211,-5.17757890320351e-07,-5.830026941133602e-09,72.01792125379065,-2.3632174130575518e-07,2.883198808617182e-09,12.130120533276722,0.0003618936318486475,0.017045669418196227,-1.217998746958489e-05,,,,,,,,,,,0.37,0.16672577103701214,0.5,-0.000240944333787279,0.17965908577363982,0.6088599354345408,-62.86762870991164,0.019232021450536117,0.01350860950557306,12.149915922389745,-0.0006395906904325653,0.008428327205777377,0.020771850178272586,,,,,,,,,,,,,,,,,auto,85.0,True,0,False,-10.0,15.0,0.0,-10.0,54.90901001332971,0.022425778371497784
1760896877.4209409,6.900242567062378,-5.433524483894117e-07,-5.5034297331498075e-09,73.30659160759554,-2.457268461974792e-07,3.271520457736134e-09,12.13018515118719,0.0003875612442449735,0.017532942223361575,-1.3119041736766682e-05,,,,,,,,,,,0.37,0.21436996237547057,0.5,-0.09109856056725456,-0.11678600305362234,0.7853942998061766,-66.1715076172012,0.07803740017419547,0.02586513323230409,12.131441407104147,0.00042901738070883573,0.011059822300098584,0.09175923518282351,,,,,,,,,,,,,,,,,auto,85.0,True,0,False,-10.0,15.0,0.0,-10.0,58.175358454053196,0.09242435267049169
1760896877.5306132,7.009914875030518,-5.709758882911723e-07,-5.118862984900758e-09,74.63694016454085,-2.577554398041911e-07,3.738964200760928e-09,12.130241054518654,0.0004187562002152999,0.01804349352103882,-1.4272912788869968e-05,,,,,,,,,,,0.37,0.28410117067797896,0.5,0.0026016213720681165,0.6195132995099241,1.0993247351015925,-71.50150921415704,0.0529442649826489,0.02895082759288566,12.113287008076213,0.006169101170552943,0.0148101977135997,0.041369442999060764,,,,,,,,,,,,,,,,,auto,85.0,True,0,False,-10.0,15.0,0.0,-10.0,63.169949724811566,0.04437150639341614
1760896877.6374376,7.116739273071289,-5.991440013457726e-07,-4.693897956511245e-09,75.93274837403288,-2.7052961700203173e-07,4.243696291121597e-09,12.13028669706194,0.00045407825363481347,0.01854806108275865,-1.5580003772063957e-05,,,,,,,,,,,0.37,0.39705680845285807,0.5,0.0011870859592926937,0.29802628184678076,1.475574161010906,-72.80365630036783,0.02256827683927297,0.05185350131546941,12.107842104682177,0.00262536473379884,0.013914578008825899,-0.014379703594625343,,,,,,,,,,,,,,,,,auto,85.0,True,0,False,-10.0,15.0,0.0,-10.0,64.51840508729771,0.020181275891738286
1760896877.7468865,7.2261881828308105,-6.294039420563108e-07,-4.200136193663662e-09,77.2542515338306,-2.852473132432536e-07,4.834216088309275e-09,12.130325702793519,0.0004962642312469009,0.019070272539094296,-1.7133248596139388e-05,,,,,,,,,,,0.37,0.3888959694553733,0.5,0.001639544140858232,0.30077257519768164,1.481396634880319,-75.71196140155821,0.02715194141321269,0.05586470253856842,12.108520000965557,0.005191560236249102,0.013862413253744522,0.045478587856438005,,,,,,,,,,,,,,,,,auto,85.0,True,0,False,-10.0,15.0,0.0,-10.0,67.35223599937697,0.047826987698578134
1760896877.8526256,7.331927299499512,-6.602632449837642e-07,-3.6596403366594715e-09,78.5430489172155,-2.943855737255979e-07,5.312636176886955e-09,12.13035791695225,0.0005427440148259698,0.019586993837517646,-1.884568491684364e-05,,,,,,,,,,,0.37,0.1754556979466792,0.5,0.05156893454006469,1.101582665946196,0.7167385559084292,-75.11510110947299,0.032200462114009926,0.04292765349429297,12.110449381716409,0.004114196275501546,0.010743562442181512,-0.05055400860941106,,,,,,,,,,,,,,,,,auto,85.0,True,0,False,-10.0,15.0,0.0,-10.0,66.58570500524826,0.05184649005885366
1760896877.9617584,7.4410600662231445,-6.926613917909512e-07,-3.0566144017165627e-09,79.86064907695346,-3.022463957827428e-07,5.799507986849101e-09,12.130385675307089,0.0005928765598088255,0.020122151618857272,-2.0698677777479422e-05,,,,,,,,,,,0.37,0.14378242857809811,0.5,-0.0669770590286213,1.3405302518341595,0.6641806408269603,-74.98364637187977,0.027968265209359286,0.013680876608662058,12.125205302410095,0.005872887951574064,0.005007447152561794,0.06824210274739437,,,,,,,,,,,,,,,,,auto,85.0,True,0,False,-10.0,15.0,0.0,-10.0,66.4070519260585,0.06867714268418112
1760896878.0688536,7.548155307769775,-7.256197035534955e-07,-2.4045006309285597e-09,81.16597786601379,-3.1036908112354234e-07,6.32838322153123e-09,12.130408757506087,0.0006452161240758751,0.020659218482859957,-2.2640860670349087e-05,,,,,,,,,,,0.37,0.1460698843690484,0.5,-0.06254648136282062,1.3444087481421905,0.665901688450415,-79.55562228332442,0.0441049690905962,0.01973970428710209,12.12546084271903,0.007498813329918016,0.006054145549771844,0.06493495910951311,,,,,,,,,,,,,,,,,auto,85.0,True,0,False,-10.0,15.0,0.0,-10.0,70.8865515363598,0.06564627784001863
1760896878.1768067,7.656108379364014,-7.593958072114342e-07,-1.694728867127166e-09,82.46926420696107,-3.1849217676785945e-07,6.893813907408179e-09,12.13042813347294,0.0006999930569266029,0.02120226367039468,-2.467988413262782e-05,,,,,,,,,,,0.37,0.15768186966424766,0.5,0.0679952205761504,1.349984930391486,0.668341519705178,-80.84745582280854,0.06049718762532733,0.025523415758073095,12.126000670156447,0.0038080756731797465,0.007203608966717596,-0.06506260332252631,,,,,,,,,,,,,,,,,auto,85.0,True,0,False,-10.0,15.0,0.0,-10.0,72.1535278995581,0.0655708454542295
1760896878.2848048,7.764106512069702,-7.942248820099074e-07,-9.181302258729235e-10,83.77932870439969,-3.2669356559569126e-07,7.500433045730803e-09,12.130444504004391,0.0007573520256306332,0.021754943051258333,-2.681975803510582e-05,,,,,,,,,,,0.37,0.16433005326011335,0.5,0.001603930358048377,1.357318323154118,0.671066501362371,-82.3770656667064,0.07555333341492342,0.02483937835598726,12.126597206769041,0.0006430647302974162,0.00603967216137496,0.03023259713644051,,,,,,,,,,,,,,,,,auto,85.0,True,0,False,-10.0,15.0,0.0,-10.0,73.65468571725582,0.03083668434962733
1760896878.3910964,7.870398044586182,-8.296378957713712e-07,-8.028068034470767e-11,85.07492261866304,-3.375600438267687e-07,8.235655757145097e-09,12.130457999870957,0.0008158485660065231,0.022308317398792982,-2.9009046118855774e-05,,,,,,,,,,,0.37,-0.3229692186598912,0.5,0.062328878873942374,0.8386668389952602,-1.2068743853090576,-80.44766025866008,0.05016533195852978,0.048743809999392526,12.08146768941601,0.0005180076146210818,0.00406366447091123,-0.05953070107976767,,,,,,,,,,,,,,,,,auto,85.0,True,0,False,-10.0,15.0,0.0,-10.0,71.8670490461274,0.05967148457906509
1760896878.4986076,7.977909326553345,-8.666787861383621e-07,8.524856100828789e-10,86.37908433416976,-3.51412688237026e-07,9.118746444981053e-09,12.13046930382466,0.0008705175934419942,0.02287271166356504,-3.1054944720705275e-05,,,,,,,,,,,0.37,-0.313674630978746,0.5,0.11326497349342039,0.8449785220629291,-1.201594650838504,-84.51355284224435,0.06710657184049221,0.04977212151366634,12.082830435946315,0.004183307154721191,0.006381676144161242,-0.11216505330597383,,,,,,,,,,,,,,,,,auto,85.0,True,0,False,-10.0,15.0,0.0,-10.0,75.85563934157912,0.11242430801339917
1760896878.6057832,8.085084915161133,-9.051807310893248e-07,1.8820444367060495e-09,87.67917503979066,-3.6873148009568223e-07,1.016238010297119e-08,12.130478624957282,0.0009192137175587332,0.0234430219226972,-3.2873082450479334e-05,,,,,,,,,,,0.37,-0.5,0.5,-0.0007310689252126577,0.567413964488938,-2.138883115925138,-76.49151391667577,-0.00795109659092827,-0.06743694742687843,12.137707750980837,0.010060303866860625,0.001325064639327947,-0.02905683756308757,,,,,,,,,,,,,,,,,auto,85.0,True,0,False,-10.0,15.0,0.0,-10.0,68.0734587308997,0.030777675665319904
1760896878.7144141,8.193715810775757,-9.458409089924745e-07,3.0323892383072233e-09,88.99079181599673,-3.8129831525766095e-07,1.1034759154657192e-08,12.130486717139489,0.0009618910288693796,0.02402621191751825,-3.4474374568620514e-05,,,,,,,,,,,0.37,-0.24238555491332275,0.5,-0.0011196645324966345,0.28067274784959173,-0.8604086193551876,-82.76697134173013,0.008290185146594456,-0.0034878894560132923,12.138598660527517,0.01427801829548158,0.0005329820044622154,-0.03364807462410285,,,,,,,,,,,,,,,,,auto,85.0,True,0,False,-10.0,15.0,0.0,-10.0,74.24574746068849,0.03655596807871981
1760896878.8187702,8.29807186126709,-9.862557164231902e-07,4.225601503577303e-09,90.26281029539405,-3.8931374383029643e-07,1.1713779503275098e-08,12.130493486061074,0.0009999917133308941,0.024598508269175624,-3.5903541663752925e-05,,,,,,,,,,,0.37,-0.20395615522526414,0.5,0.0014407298762000363,0.20793851884317435,-0.7470927226613548,-86.11726217449171,0.03371587677132356,0.007304932454982588,12.170673821078449,0.01587590528410398,0.0010692382415659683,0.03035379508840194,,,,,,,,,,,,,,,,,auto,85.0,True,0,False,-10.0,15.0,0.0,-10.0,77.54483110652112,0.034271570073105224
1760896878.9281425,8.40744423866272,-1.0290325262726725e-06,5.536518141252566e-09,91.58330742134723,-3.9651327781563177e-07,1.2365703163316905e-08,12.130499452244042,0.0010376582683562195,0.02519931037706723,-3.7317281852750146e-05,,,,,,,,,,,0.37,0.0231046596700457,0.5,0.001349567879595909,-0.6117170282829469,0.0744744246196081,-81.87295078419936,0.016537662364322622,0.0004967431266469963,12.16584839435434,0.02252786090401418,-0.0018248236794696114,-0.019687920377745236,,,,,,,,,,,,,,,,,auto,85.0,True,0,False,-10.0,15.0,0.0,-10.0,73.54897898298144,0.029974133968677052
1760896879.0350382,8.514339923858643,-1.071985386278236e-06,6.898072600684163e-09,92.88624986904941,-4.033224834133943e-07,1.2986885715084261e-08,12.130504418688409,0.001074258910338487,0.025798774044457306,-3.86896749330657e-05,,,,,,,,,,,0.37,0.01979448542396415,0.5,0.00044110257415465337,0.2921659727764234,0.10320308365699662,-89.30079061570926,0.05136357378021225,0.020743540666488817,12.141471073244066,0.01940278165617319,0.005330221086181827,0.018159253081985845,,,,,,,,,,,,,,,,,auto,85.0,True,0,False,-10.0,15.0,0.0,-10.0,80.65324807424307,0.027104200141681373
1760896879.1412835,8.620585203170776,-1.11522233971473e-06,8.311243903146015e-09,94.1750589246116,-4.106771435915551e-07,1.3617438462277212e-08,12.130508542350455,0.0011105608503991734,0.026398206646587083,-4.005103452474947e-05,,,,,,,,,,,0.37,0.01681147091418438,0.5,-0.0012943348773042295,0.27249452972061994,0.26043843701264546,-81.71898351901429,0.05610351280660804,0.03002766149043532,12.123679532306646,0.019062226967630998,0.005416871794839577,0.026508088255049148,,,,,,,,,,,,,,,,,auto,85.0,True,0,False,-10.0,15.0,0.0,-10.0,73.21598078669182,0.033096672641591655
1760896879.2485845,8.727886199951172,-1.1597004230904308e-06,9.806712128876781e-09,95.4766747761573,-4.182963296022299e-07,1.4252716947747579e-08,12.130512051905244,0.0011472813741080022,0.027010150951814457,-4.142806842532816e-05,,,,,,,,,,,0.37,0.014654568443048552,0.5,-0.00044016744118281575,0.2868276596031832,0.43109458001988277,-90.51366506264523,0.01875790107308213,0.012626514952454322,12.12944084602091,0.021370311912446614,0.008921084199849187,0.01807949875031204,,,,,,,,,,,,,,,,,auto,85.0,True,0,False,-10.0,15.0,0.0,-10.0,81.84811265188074,0.029379316697271757
1760896879.356622,8.835923671722412,-1.205358062371744e-06,1.1382883546438735e-08,96.78722479326642,-4.2720821096204e-07,1.493644128494493e-08,12.130514988620252,0.0011850532535174877,0.027632974111772207,-4.2846492054651645e-05,,,,,,,,,,,0.37,0.10958174613154968,0.5,0.0005408623657535838,0.2897916862539323,0.4335099942955003,-95.301713587018,0.0357966334796932,0.031184268693667482,12.129316671950528,0.01952469935697027,0.009509636198902185,-0.024345995564672596,,,,,,,,,,,,,,,,,auto,85.0,True,0,False,-10.0,15.0,0.0,-10.0,86.56188826747375,0.03262475387877438
1760896879.4637935,8.943095207214355,-1.2513972397753143e-06,1.3011901057302278e-08,98.0810411749718,-4.365022004791446e-07,1.562695091540059e-08,12.130517417304901,0.0012241076814647745,0.028254507032908684,-4.431676769495099e-05,,,,,,,,,,,0.37,-0.13439017146507568,0.5,0.13101049341042778,-0.6387545925109422,-0.4316152579084126,-84.25476004398341,-0.022977684467918102,0.015616252283391278,12.161136714422671,0.018777890195455758,0.005677250565434588,-0.1314342528668592,,,,,,,,,,,,,,,,,auto,85.0,True,0,False,-10.0,15.0,0.0,-10.0,75.88495454386987,0.13289019211681802
1760896879.5697832,9.049084901809692,-1.2983661084498582e-06,1.4712097421472083e-08,99.37298079510984,-4.4555782993893003e-07,1.6301369727567626e-08,12.130519474073177,0.0012618830930862751,0.028881770133056834,-4.5735868859886424e-05,,,,,,,,,,,0.37,-0.12889622532525943,0.5,-0.0005501022446052544,-0.6399185760814018,-0.42894834884047994,-96.55139707685277,0.00040189341905805254,0.035564442404472034,12.161253060615369,0.024186830910637638,0.007343233801878645,-0.013482783490369854,,,,,,,,,,,,,,,,,auto,85.0,True,0,False,-10.0,15.0,0.0,-10.0,87.95416639197637,0.028648059669321747
1760896879.6771235,9.15642523765564,-1.3467245888264418e-06,1.6499859137108304e-08,100.67507492470837,-4.549553917636127e-07,1.698442115816463e-08,12.130521217763711,0.0012981065095676947,0.02952064752358667,-4.7092650787870366e-05,,,,,,,,,,,0.37,0.013539407884461611,0.5,0.0003851279219460522,-0.8222878476483465,-0.08499052722309727,-88.98682371688862,-0.037092849406861125,0.01117797102690899,12.150621383616285,0.022533094692876256,0.002916297332887772,-0.00818848784145253,,,,,,,,,,,,,,,,,auto,85.0,True,0,False,-10.0,15.0,0.0,-10.0,80.55600745448099,0.02415153162227092
1760896879.7837687,9.263070344924927,-1.3957048835924897e-06,1.8345317036870416e-08,101.96873574264082,-4.637522485016017e-07,1.7629574195546727e-08,12.130522699177055,0.0013340871055804308,0.030161902352797445,-4.844054182061011e-05,,,,,,,,,,,0.37,0.011958166768842853,0.5,0.1181440035152469,-0.8247115899222586,-0.08264914168978998,-99.28849269112834,-0.009280125140425033,0.031230528338390504,12.150994654819902,0.021643870059798564,0.005900209612503438,-0.11792115027207153,,,,,,,,,,,,,,,,,auto,85.0,True,0,False,-10.0,15.0,0.0,-10.0,90.68000471348974,0.12003610817635417
1760896879.8920548,9.37135648727417,-1.4461968584738955e-06,2.028144578803659e-08,103.27616041010471,-4.7318703608081606e-07,1.8295901455167662e-08,12.130523949867772,0.001370053905127729,0.030816598005093437,-4.978676992972905e-05,,,,,,,,,,,0.37,-0.09284260649261372,0.5,-0.0007269905982863899,-0.3316702159237811,-0.4208960116728322,-91.87970595784716,0.0773250642426525,0.07787702671894989,12.15546309015585,0.018107252996703082,0.00994359083111331,0.02978137923975993,,,,,,,,,,,,,,,,,auto,85.0,True,0,False,-10.0,15.0,0.0,-10.0,83.30380251108589,0.03624469835887198
1760896879.9998326,9.479134321212769,-1.4979724352124684e-06,2.2299433198946237e-08,104.58970497457891,-4.832784206220305e-07,1.898207150165988e-08,12.130524993776154,0.0014052066171127784,0.03148107931090874,-5.1099996694351685e-05,,,,,,,,,,,0.37,-0.152779234955971,0.5,-0.0008063139080185787,0.1434723912578365,-0.5597291732046763,-87.62001871114788,0.02331289332345087,0.03984834255669977,12.198137787789419,0.020126141323978813,0.009918999376299918,-0.0022697972395497243,,,,,,,,,,,,,,,,,auto,85.0,True,0,False,-10.0,15.0,0.0,-10.0,79.03098768239963,0.022552163814775587
1760896880.1087594,9.588061094284058,-1.5509279263785474e-06,2.439463100272234e-08,105.90492130103502,-4.933502508801644e-07,1.9655140823472704e-08,12.130525879018151,0.0014388466471557638,0.032153192113638734,-5.235302982264033e-05,,,,,,,,,,,0.37,0.014297555515027763,0.5,-9.447253766099115e-05,0.1152289231988477,-0.11488292393661086,-98.5629291394615,0.023180193442171898,0.0488802743643553,12.157517388647472,0.02006515750692392,0.012174986075377576,0.017848050726293155,,,,,,,,,,,,,,,,,auto,85.0,True,0,False,-10.0,15.0,0.0,-10.0,89.80513362751746,0.029485483656227125
1760896880.2160258,9.695327520370483,-1.6046525750675315e-06,2.6549084019910564e-08,107.21224216559024,-5.035387512490514e-07,2.031932738079053e-08,12.13052661920908,0.0014728488609258112,0.03282795818186007,-5.362119000932907e-05,,,,,,,,,,,0.37,0.01253354742187164,0.5,-0.07259724924891962,0.5358577226179675,-0.07311357124203985,-99.8997769282329,0.022375996184530657,0.06924271886252482,12.156534070696743,0.023072215306450684,0.014580737009979715,0.07438837582873814,,,,,,,,,,,,,,,,,auto,85.0,True,0,False,-10.0,15.0,0.0,-10.0,91.05595339768117,0.07923733633419919
1760896880.3232827,9.802584409713745,-1.659212231878294e-06,2.8763787775358035e-08,108.51332475107138,-5.139078054226836e-07,2.0979937965431712e-08,12.130527237846866,0.0015075699025410135,0.03350611603836127,-5.4918530634249457e-05,,,,,,,,,,,0.37,0.011092224377824221,0.5,0.12021772847961759,0.03606708316713927,0.2921432926411316,-101.3864200746387,0.04610121666922007,0.049966072808308656,12.16133167153297,0.01766263015801315,0.01659185539370943,-0.11672369378080488,,,,,,,,,,,,,,,,,auto,85.0,True,0,False,-10.0,15.0,0.0,-10.0,92.60390062033693,0.11921274621171861
1760896880.4295874,9.908889055252075,-1.7145236686388377e-06,3.10344858405337e-08,109.80285617388826,-5.263489020046903e-07,2.1722355346246867e-08,12.130527698754909,0.0015408187500363744,0.03418490577184009,-5.6158375473744056e-05,,,,,,,,,,,0.37,-0.1525852695385965,0.5,-0.15670979943304558,0.23940908631746008,-0.6405130668324187,-106.06130587228907,0.07544006408678612,0.061158480134880525,12.132988333185192,0.015120570534826273,0.013523924910757377,0.15887681208627522,,,,,,,,,,,,,,,,,auto,85.0,True,0,False,-10.0,15.0,0.0,-10.0,97.19084209430099,0.16016669321987037
1760896880.5367947,10.016096353530884,-1.7715254927069215e-06,3.339839376780824e-08,111.10333729962062,-5.374473161549859e-07,2.2393421419320222e-08,12.130528131613842,0.0015732087782366565,0.03487608318176637,-5.736522327795881e-05,,,,,,,,,,,0.37,0.1654161280109474,0.5,-0.059692739561531545,1.1221626400462998,0.602464388045216,-101.8041105792965,0.04083390620931976,0.03075678193763174,12.055814217576966,0.014722440057460505,0.012571378424219503,0.06149860822835042,,,,,,,,,,,,,,,,,auto,85.0,True,0,False,-10.0,15.0,0.0,-10.0,92.84908213000219,0.06447378235185662
1760896880.6451771,10.124478816986084,-1.8302032806660744e-06,3.585443047985374e-08,112.41194249566693,-5.496907685793536e-07,2.3106300291788145e-08,12.130528474368933,0.0016078784936593544,0.03557839833290918,-5.8661768743869586e-05,,,,,,,,,,,0.37,0.10472161134476207,0.5,0.002190955713200464,1.009237792619556,0.3891029713205649,-104.53927241192237,0.03950142701067023,0.03139266737052203,12.092156241709471,0.01361122760508404,0.013499575546433697,0.01980685421449068,,,,,,,,,,,,,,,,,auto,85.0,True,0,False,-10.0,15.0,0.0,-10.0,95.56969632912633,0.02756475159919566
1760896880.7513902,10.230691909790039,-1.8894561012243076e-06,3.835508205758894e-08,113.70649480346975,-5.610472590586242e-07,2.3770120954194115e-08,12.130528781920862,0.0016436239137908727,0.036279797773696006,-6.000186295126337e-05,,,,,,,,,,,0.37,0.1075249296250397,0.5,0.0017002707564469808,1.3313533165113722,0.4123644866016585,-100.87616188820326,0.07634679151701888,0.041311883147140044,12.109701684507849,0.016864934235166433,0.017976930340264374,0.04825120307346997,,,,,,,,,,,,,,,,,auto,85.0,True,0,False,-10.0,15.0,0.0,-10.0,91.89928588492286,0.05418278905014438
1760896880.8606138,10.33991551399231,-1.951394898504218e-06,4.098931098719022e-08,115.03143489235659,-5.730643183980682e-07,2.4462407090300017e-08,12.130529041034704,0.0016820037329802447,0.03700452999034737,-6.144509946300414e-05,,,,,,,,,,,0.37,-0.09881043152247188,0.5,0.07364347282176789,0.2402051344614129,-0.36686692337345467,-102.62550670910328,0.05503631080697425,0.028938117163816016,12.117744256431108,0.009055592151565303,0.021279624757796246,-0.07196178797439508,,,,,,,,,,,,,,,,,auto,85.0,True,0,False,-10.0,15.0,0.0,-10.0,93.79483263448142,0.07558654051826884
1760896880.9687583,10.448060035705566,-2.0138069830794145e-06,4.36631441519299e-08,116.3371624955338,-5.872750395917705e-07,2.525005179049148e-08,12.130529198154015,0.0017210781061282312,0.037725575441571055,-6.291535113731302e-05,,,,,,,,,,,0.37,0.23146882335756364,0.5,0.0008095253465049925,0.4434562679404579,0.8575061296546892,-111.10142150303857,0.0830101126252066,0.04140708258093662,12.10224593357177,0.011089829744416566,0.0215348257438926,-0.032735198294920345,,,,,,,,,,,,,,,,,auto,85.0,True,0,False,-10.0,15.0,0.0,-10.0,102.14756831232364,0.04072255211780963
1760896881.075395,10.554696798324585,-2.077536904844401e-06,4.641282310594571e-08,117.63684553194508,-6.020537278335671e-07,2.606434702723429e-08,12.130529314945454,0.0017633738008551829,0.03845022281966933,-6.451121223833755e-05,,,,,,,,,,,0.37,0.19227383102488432,0.5,0.08487038237256456,0.5531200746425596,0.7496234436748798,-111.06642443795454,0.09110429264133116,0.02018399232434018,12.135917699384947,0.0074396420246029635,0.023250437453454266,-0.08355674492818344,,,,,,,,,,,,,,,,,auto,85.0,True,0,False,-10.0,15.0,0.0,-10.0,102.09650544243803,0.0870497601273245
1760896881.1822736,10.661575317382812,-2.142595293592991e-06,4.923871837029103e-08,118.93333854778348,-6.161683776621282e-07,2.685417809413694e-08,12.130529427257853,0.0018085259284068126,0.03917990286298092,-6.621879041276362e-05,,,,,,,,,,,0.37,0.28021509259085137,0.5,0.0005195386408883233,0.8820206637214852,1.1039584453925109,-108.7099105565946,0.06292573768141344,0.01169298922291406,12.097689089230247,0.007049179679542437,0.021545748765467977,0.00553957049042238,,,,,,,,,,,,,,,,,auto,85.0,True,0,False,-10.0,15.0,0.0,-10.0,99.72052199462078,0.023336603549734852
1760896881.290574,10.769875764846802,-2.2102085404783645e-06,5.219579709659007e-08,120.24708031550145,-6.314903932079893e-07,2.7711999463582323e-08,12.130529500628858,0.00185761209809458,0.03992624700283987,-6.807355290879154e-05,,,,,,,,,,,0.37,-0.1327619554581199,0.5,-0.0015134643538008354,-0.12042035691135265,-0.37222138937841015,-102.49738370379214,0.050197647939598446,-0.013688462666504506,12.141814676037605,0.005378784366577696,0.02732077970076225,0.018111096608918964,,,,,,,,,,,,,,,,,auto,85.0,True,0,False,-10.0,15.0,0.0,-10.0,93.7258323653568,0.033216985791870386
1760896881.3974922,10.87679386138916,-2.278317387236984e-06,5.519438979233339e-08,121.54405344831177,-6.428203932528408e-07,2.839380458846994e-08,12.130529650470725,0.0019060123111360855,0.04066973208237054,-6.98998147486606e-05,,,,,,,,,,,0.37,-0.12444325777963709,0.5,0.09491391220692452,-0.11421178825454557,-0.37345422218935415,-118.22886090186962,0.06633375938207273,-0.009507850826251727,12.140737809456454,0.0058848920559032404,0.024051671332478246,-0.09372039354653526,,,,,,,,,,,,,,,,,auto,85.0,True,0,False,-10.0,15.0,0.0,-10.0,109.27975657985576,0.09693620074519445
1760896881.5047643,10.984066009521484,-2.347979213524201e-06,5.828178339804904e-08,122.84532142689655,-6.551409286783616e-07,2.9130195742504005e-08,12.130529761168049,0.001952788863536173,0.0414223777864338,-7.166216683749226e-05,,,,,,,,,,,0.37,-0.1174300954351675,0.5,0.000456287608826718,-0.10615748706484278,-0.3743795414984486,-121.3619691267681,0.08189777136325295,-0.0063183442774615555,12.14070411917257,0.006089897186830004,0.028699955984753122,-0.047343307643135366,,,,,,,,,,,,,,,,,auto,85.0,True,0,False,-10.0,15.0,0.0,-10.0,112.38249117125119,0.05569706545111228
